     2.11           OBSERVATION DATA    M (MIXED)           RINEX VERSION / TYPE
teqc  2013Mar15                         20151113 17:10:38UTCPGM / RUN BY / DATE
Linux2.6.32-279.el6.x86_64|x86_64|gcc|Win64-MinGW64|=       COMMENT
TPP 3.8.0                               13-NOV-15 14:59     COMMENT
The APPROX POSITION XYZ coordinates are NOT APPROXIMATE     COMMENT
APPROX POSITION XYZ replaced with ETRS89 station coords     COMMENT
                                                            COMMENT
STRA                                                        MARKER NAME
Stratford                                                   MARKER NUMBER
OS Net              Ordnance Survey                         OBSERVER / AGENCY
5302K56524          TRIMBLE NETR9       5.01                REC # / TYPE / VERS
30436573            TRM55971.00     NONE                    ANT # / TYPE
  3974813.0408      661.0574  4971513.6274                  APPROX POSITION XYZ
        0.0000        0.0000        0.0000                  ANTENNA: DELTA H/E/N
     1     1                                                WAVELENGTH FACT L1/2
     6    C1    L1    S1    P2    L2    S2                  # / TYPES OF OBSERV
    30.0000                                                 INTERVAL
     0                                                      RCV CLOCK OFFS APPL
    17                                                      LEAP SECONDS
Forced Modulo Decimation to 30 seconds                      COMMENT
  2015    11    13    15     0    0.0000000     GPS         TIME OF FIRST OBS
                                                            END OF HEADER
 15 11 13 15  0  0.0000000  0 19G01G02G03G06G09G17G23G25G31G32R04R05
                                R06R13R14R15R20R21R22
  24692731.094   129761119.747 5        40.300    24692741.730   101112596.508 6
        21.100
  24269894.766   127539201.530 5        40.000    24269899.234    99381232.661 6
        23.000
  21830770.219   114721431.801 7        47.900    21830777.051    89393433.260 8
        38.400
  21201221.422   111413155.266 7        48.500    21201228.039    86815562.052 9
        41.100
  21094823.273   110854151.148 7        48.400    21094829.754    86379940.152 9
        41.600
  23274761.328   122309678.723 6        45.200    23274767.266    95306256.522 7
        29.500
  20653136.445   108533064.314 7        48.100    20653138.371    84571269.373 9
        41.100
  25473367.219   133863433.328 3        36.800    25473375.219   104309230.219 6
        19.000
  24606919.336   129310106.738 6        44.100    24606922.848   100761292.486 6
        22.900
  25174100.313   132290814.503 2        35.000    25174107.484   103083786.939 5
        16.300
  22179909.703   118772721.995 6        44.300    22179914.039    92378639.696 9
        41.700
  19371077.898   103550391.286 7        45.100    19371082.035    80538613.661 9
        48.500
  21115561.539   112677095.956 7        48.000    21115565.574    87637526.086 8
        38.100
  23444040.727   125190002.842 5        39.200    23444045.566    97369957.050 8
        38.300
  21679388.664   115563378.567 6        42.100    21679396.645    89882676.504 8
        37.300
  22601929.375   120777806.240 6        42.000    22601936.754    93938383.168 8
        38.800
  20928062.719   111911656.038 7        45.200    20928067.668    87042507.400 9
        46.000
  20258317.906   108406405.329 8        50.500    20258322.297    84316099.961 9
        46.600
  23201459.016   123851172.381 4        37.100    23201464.555    96328537.731 8
        38.500
 15 11 13 15  0 30.0000000  0 20G01G02G03G06G07G09G17G23G25G31G32R04
                                R05R06R13R14R15R20R21R22
  24714262.359   129874271.165 4        38.400    24714274.102   101200766.330 6
        19.900
  24250950.125   127439643.123 6        42.700    24250953.641    99303654.810 6
        22.500
  21844780.039   114795057.670 7        48.500    21844787.293    89450804.051 8
        37.500
  21190874.148   111358779.937 7        48.900    21190880.621    86773191.696 8
        40.700
  25719033.695   135154432.037 5        40.700

  21082216.148   110787898.321 7        49.500    21082222.570    86328314.617 9
        41.800
  23291396.742   122397096.409 6        45.600    23291402.844    95374374.135 7
        30.400
  20654435.617   108539893.907 7        49.300    20654438.137    84576591.139 9
        41.100
  25479011.383   133893095.767 5        39.200    25479019.613   104332343.903 6
        20.100
  24621369.133   129386046.084 6        42.700    24621373.164   100820466.065 6
        22.300
  25193194.813   132391162.170 2        34.200    25193202.605   103161980.024 5
        13.900
  22198707.195   118873379.633 6        44.800    22198711.258    92456928.933 9
        41.500
  19375246.781   103572681.717 6        44.900    19375251.590    80555950.663 9
        48.100
  21100006.086   112594088.277 8        49.100    21100009.641    87572964.637 8
        38.600
  23459308.086   125271537.659 5        39.500    23459314.723    97433373.055 8
        37.300
  21673908.813   115534169.349 6        41.800    21673917.168    89859958.277 8
        37.000
  22581239.719   120667248.352 6        41.100    22581247.266    93852393.797 8
        39.600
  20946854.742   112012159.042 6        44.600    20946861.199    87120676.376 9
        45.800
  20255262.469   108390052.853 8        50.800    20255266.414    84303381.383 9
        46.200
  23180204.844   123737706.164 5        39.900    23180208.609    96240286.393 8
        38.400
 15 11 13 15  1  0.0000000  0 20G01G02G03G06G07G09G17G23G25G31G32R04
                                R05R06R13R14R15R20R21R22
  24735809.680   129987501.801 4        38.000    24735820.523   101288997.956 6
        20.400
  24232028.930   127340214.320 5        41.400    24232033.215    99226177.918 6
        21.800
  21858837.578   114868928.896 7        48.500    21858844.949    89508366.022 8
        37.900
  21180615.719   111304871.565 7        49.300    21180621.758    86731185.201 8
        40.400
  25698823.563   135048230.099 4        38.300    25698834.012   105232427.423 5
        15.600
  21069690.648   110722079.209 7        48.800    21069697.355    86277027.023 9
        41.400
  23308088.078   122484809.647 6        44.600    23308093.961    95442722.021 7
        30.600
  20655828.180   108547209.718 7        50.200    20655830.422    84582291.786 9
        41.400
  25484758.828   133923296.911 5        40.000    25484766.418   104355877.363 6
        19.000
  24635898.922   129462395.481 6        44.900    24635903.156   100879959.175 6
        25.200
  25212291.688   132491515.599 3        35.400    25212299.633   103240177.457 5
        15.600
  22217526.109   118974160.499 6        44.900    22217531.398    92535314.031 9
        42.100
  19379500.219   103595417.651 6        45.000    19379505.164    80573634.170 9
        47.700
  21084505.492   112511375.493 7        48.100    21084508.703    87508632.507 8
        38.000
  23474691.773   125353677.943 5        40.800    23474697.137    97497259.995 8
        37.300
  21668579.656   115505766.912 6        41.300    21668589.414    89837867.534 8
        37.600
  22560623.094   120557082.079 6        41.300    22560630.234    93766709.024 8
        39.100
  20965753.695   112113217.856 6        44.500    20965760.035    87199277.612 9
        46.300
  20252364.531   108374547.474 8        50.200    20252369.090    84291321.651 9
        47.100
  23159020.281   123624629.763 5        40.400    23159025.988    96152338.201 8
        39.400
 15 11 13 15  1 30.0000000  0 20G01G02G03G06G07G09G17G23G25G31G32R04
                                R05R06R13R14R15R20R21R22
  24757372.156   130100809.653 4        37.200    24757383.141   101377289.680 6
        19.300
  24213133.141   127240916.940 6        42.300    24213136.754    99148803.429 6
        23.000
  21872941.258   114943044.253 7        47.700    21872948.445    89566118.236 8
        37.200
  21170446.313   111251431.802 7        48.900    21170452.730    86689543.855 8
        40.800
  25678591.797   134941917.234 5        41.100    25678602.555   105149586.800 5
        16.300
  21057248.148   110656694.662 7        49.300    21057254.762    86226078.071 9
        41.200
  23324835.273   122572815.112 6        45.800    23324841.340    95511297.647 7
        29.700
  20657312.883   108555010.571 7        50.500    20657315.184    84588370.382 9
        41.200
  25490607.891   133954035.155 5        39.700    25490615.910   104379829.296 6
        21.100
  24650504.930   129539152.621 5        41.800    24650509.180   100939770.014 6
        22.300
  25231390.063   132591873.810 2        33.500    25231397.520   103318378.730 5
        16.300
  22236369.602   119075062.809 6        44.700    22236374.324    92613793.591 9
        41.800
  19383836.641   103618597.545 6        44.600    19383841.496    80591662.989 9
        47.900
  21069060.313   112428957.765 7        48.800    21069063.875    87444529.873 8
        38.600
  23490186.516   125436419.585 5        39.900    23490191.184    97561614.661 8
        37.000
  21663404.680   115478172.567 6        41.600    21663413.133    89816405.333 8
        37.900
  22540081.805   120447310.889 5        40.900    22540088.922    93681331.524 8
        40.300
  20984756.531   112214828.141 6        44.900    20984761.727    87278307.794 9
        45.300
  20249625.773   108359889.892 8        50.500    20249630.020    84279921.314 9
        47.400
  23137911.289   123511946.625 6        41.600    23137916.168    96064695.865 8
        39.600
 15 11 13 15  2  0.0000000  0 20G01G02G03G06G07G09G17G23G25G31G32R04
                                R05R06R13R14R15R20R21R22
  24778948.305   130214192.999 4        37.800    24778958.797   101465640.206 6
        18.600
  24194262.211   127141753.172 5        41.800    24194266.484    99071533.068 6
        23.000
  21887091.250   115017402.947 7        49.400    21887098.539    89624060.069 8
        37.200
  21160366.891   111198462.921 7        50.000    21160373.406    86648269.429 8
        40.500
  25658340.328   134835496.385 4        38.200    25658351.383   105066662.090 5
        14.800
  21044888.703   110591746.151 7        49.800    21044895.289    86175468.879 9
        41.400
  23341637.172   122661109.908 6        45.500    23341644.469    95580098.717 7
        30.900
  20658889.484   108563296.285 7        50.500    20658891.531    84594826.790 9
        41.700
  25496559.367   133985309.273 5        39.200    25496566.723   104404198.818 6
        19.300
  24665187.922   129616314.480 6        44.600    24665192.750   100999896.182 6
        25.400
  25250487.469   132692236.316 2        33.100    25250495.500   103396583.377 5
        13.900
  22255234.680   119176085.078 6        44.900    22255239.055    92692366.480 9
        42.100
  19388255.352   103642220.885 7        45.100    19388260.828    80610036.708 9
        47.800
  21053671.156   112346837.031 8        49.100    21053674.590    87380658.258 8
        38.600
  23505792.695   125519759.304 4        38.900    23505798.422    97626434.508 8
        37.200
  21658379.398   115451388.157 6        41.400    21658387.762    89795573.094 8
        36.900
  22519614.609   120337939.839 6        41.600    22519620.984    93596265.274 8
        39.600
  21003859.867   112316986.162 7        45.100    21003866.781    87357764.011 9
        46.200
  20247044.016   108346081.188 8        50.800    20247049.891    84269181.229 9
        47.200
  23116876.398   123399661.421 6        44.000    23116881.500    95977363.054 8
        40.000
 15 11 13 15  2 30.0000000  0 20G01G02G03G06G07G09G17G23G25G31G32R04
                                R05R06R13R14R15R20R21R22
  24800536.828   130327649.750 4        37.100    24800548.734   101554047.935 5
        17.800
  24175417.859   127042724.829 5        42.000    24175421.113    98994368.237 6
        23.400
  21901287.258   115092003.854 7        49.500    21901294.191    89682190.634 8
        37.600
  21150377.000   111145966.552 7        50.800    21150383.523    86607363.211 8
        40.900
  25638069.430   134728969.953 4        37.600    25638079.676   104983655.048 5
        16.300
  21032612.609   110527234.526 7        50.800    21032619.145    86125200.123 8
        41.000
  23358493.750   122749691.210 6        44.900    23358500.039    95649123.034 7
        30.200
  20660557.563   108572065.619 7        50.300    20660560.035    84601660.051 9
        41.800
  25502612.094   134017117.817 4        38.500    25502620.078   104428984.734 6
        19.900
  24679948.188   129693878.753 6        44.700    24679952.316   101060335.938 6
        24.100
  25269587.070   132792601.941 2        34.700    25269594.707   103474790.448 5
        13.900
  22274121.953   119277225.811 7        45.400    22274126.555    92771031.483 9
        41.800
  19392758.391   103666286.216 7        45.600    19392762.117    80628754.182 9
        48.100
  21038337.859   112265013.491 8        49.900    21038341.082    87317017.776 8
        38.900
  23521510.727   125603693.207 5        39.100    23521516.051    97691716.493 8
        36.700
  21653507.250   115425414.677 6        41.600    21653515.629    89775371.560 8
        37.700
  22499223.359   120228973.491 6        41.700    22499229.738    93511513.774 8
        39.700
  21023065.398   112419687.847 6        43.600    21023071.855    87437643.041 9
        45.700
  20244622.953   108333121.925 8        51.200    20244627.375    84259101.825 9
        46.900
  23095917.578   123287778.152 7        45.200    23095921.504    95890342.829 8
        39.900
 15 11 13 15  3  0.0000000  0 20G01G02G03G06G07G09G17G23G25G31G32R04
                                R05R06R13R14R15R20R21R22
  24822142.508   130441178.325 3        36.500    24822152.551   101642511.644 5
        17.400
  24156600.047   126943834.152 6        42.300    24156603.582    98917310.692 6
        23.400
  21915529.461   115166846.168 7        50.200    21915535.973    89740509.309 8
        37.000
  21140477.234   111093944.951 7        49.900    21140484.383    86566826.938 8
        40.600
  25617776.398   134622339.392 3        36.500    25617788.918   104900567.082 5
        17.400
  21020420.055   110463161.189 7        50.900    21020426.285    86075272.884 8
        41.000
  23375404.180   122838555.824 6        45.800    23375410.469    95718368.109 7
        29.500
  20662318.414   108581317.870 7        50.600    20662320.391    84608869.615 9
        41.400
  25508766.016   134049459.404 4        39.000    25508774.512   104454185.999 6
        19.000
  24694785.117   129771842.996 6        43.700    24694789.453   101121087.374 7
        26.400
  25288684.195   132892970.225 1        32.600

  22293031.148   119378484.049 7        46.000    22293035.410    92849787.886 9
        42.600
  19397342.773   103690792.608 7        45.600    19397346.578    80647814.712 9
        48.200
  21023059.344   112183488.284 8        50.500    21023062.949    87253609.344 8
        39.100
  23537339.320   125688217.846 4        38.500    23537344.766    97757457.935 8
        36.100
  21648787.648   115400254.651 6        41.300    21648795.113    89755802.712 8
        37.300
  22478907.164   120120416.184 5        40.500    22478913.566    93427080.409 8
        39.100
  21042372.781   112522929.466 6        44.600    21042378.406    87517942.033 9
        45.700
  20242359.672   108321013.213 8        50.600    20242365.492    84249683.954 9
        46.600
  23075033.789   123176300.685 7        46.500    23075039.160    95803638.254 8
        40.400
 15 11 13 15  3 30.0000000  0 20G01G02G03G06G07G09G17G23G25G31G32R04
                                R05R06R13R14R15R20R21R22
  24843758.898   130554777.124 3        36.100    24843769.051   101731030.084 5
        17.800
  24137808.523   126845083.490 6        42.500    24137812.059    98840362.240 6
        25.300
  21929817.438   115241929.249 7        50.500    21929823.605    89799015.602 8
        37.600
  21130668.445   111042400.330 7        49.100    21130675.477    86526662.335 8
        40.500
  25597465.703   134515608.135 4        38.300    25597477.289   104817400.450 5
        17.800
  21008311.000   110399527.520 7        51.300    21008316.957    86025688.237 9
        41.700
  23392367.961   122927700.894 6        44.000    23392374.738    95787831.713 7
        30.300
  20664171.078   108591052.504 7        50.900    20664173.195    84616455.053 9
        42.000
  25515022.797   134082332.954 4        37.900    25515029.199   104479801.767 5
        17.800
  24709694.797   129850205.003 6        43.100    24709701.070   101182148.698 6
        25.000
  25307786.484   132993340.685 2        34.300

  22311962.273   119479858.460 7        46.600    22311966.543    92928634.629 9
        42.000
  19402009.383   103715739.582 7        46.000    19402013.508    80667217.933 9
        48.200
  21007838.000   112102262.326 8        49.800    21007841.910    87190433.686 8
        38.900
  23553278.398   125773329.738 4        38.300    23553283.617    97823656.122 8
        35.600
  21644219.977   115375909.253 6        42.100    21644228.340    89736867.451 8
        36.900
  22458669.539   120012272.425 5        40.200    22458676.801    93342968.722 8
        39.600
  21061779.133   112626706.941 6        44.700    21061785.563    87598657.812 9
        45.900
  20240256.820   108309756.261 8        51.500    20240261.582    84240928.574 9
        46.600
  23054225.938   123065233.399 7        46.400    23054231.391    95717252.689 8
        40.300
 15 11 13 15  4  0.0000000  0 20G01G02G03G06G07G09G17G23G25G31G32R04
                                R05R06R13R14R15R20R21R22
  24865390.594   130668444.057 4        38.600    24865398.328   101819601.638 5
        16.300
  24119043.344   126746474.791 6        42.200    24119047.805    98763524.410 6
        25.300
  21944150.977   115317251.893 7        50.300    21944156.723    89857708.557 8
        36.800
  21120951.063   110991334.386 7        49.900    21120958.801    86486870.724 8
        40.500
  25577137.000   134408777.801 4        37.300    25577147.367   104734156.611 5
        15.600
  20996286.375   110336334.412 7        51.300    20996291.211    85976446.893 8
        40.900
  23409384.461   123017123.386 6        44.000    23409391.270    95857511.474 7
        29.900
  20666115.242   108601268.958 7        51.100    20666117.281    84624415.942 9
        41.300
  25521378.563   134115736.900 4        37.600    25521385.848   104505830.839 6
        18.600
  24724682.719   129928962.116 6        43.600    24724688.078   101243517.938 6
        26.000
  25326885.258   133093712.365 2        34.100

  22330913.766   119581347.275 6        44.800    22330919.035    93007570.354 9
        41.800
  19406757.680   103741125.454 7        45.600    19406762.492    80686962.501 9
        47.600
  20992672.086   112021336.607 8        50.000    20992675.992    87127491.509 8
        39.200
  23569325.891   125859025.127 5        39.800    23569331.465    97890308.123 8
        35.500
  21639806.063   115352380.087 6        41.600    21639813.633    89718567.035 8
        36.700
  22438509.164   119904547.204 6        41.400    22438518.426    93259182.576 8
        40.200
  21081285.586   112731016.159 6        44.100    21081291.746    87679787.152 9
        45.800
  20238312.461   108299351.366 8        52.200    20238316.371    84232835.892 9
        46.000
  23033497.258   122954580.320 7        46.600    23033502.516    95631189.306 8
        40.200
 15 11 13 15  4 30.0000000  0 20G01G02G03G06G07G09G17G23G25G31G32R04
                                R05R06R13R14R15R20R21R22
  24887032.961   130782177.222 4        38.000    24887041.898   101908224.800 5
        15.600
  24100306.266   126648010.151 6        42.400    24100310.465    98686798.784 6
        25.600
  21958529.422   115392813.043 7        50.100    21958535.719    89916587.373 8
        36.900
  21111325.203   110940749.035 7        49.400    21111332.648    86447453.599 8
        40.500
  25556788.617   134301850.327 3        36.200    25556798.719   104650837.262 5
        17.400
  20984344.984   110273582.951 7        51.600    20984350.320    85927549.664 9
        41.800
  23426453.469   123106819.944 6        46.000    23426459.844    95927404.821 7
        29.000
  20668151.039   108611966.198 7        51.600    20668152.887    84632751.464 9
        41.500
  25527836.531   134149669.875 4        38.000    25527843.086   104532272.211 6
        18.300
  24739744.789   130008111.537 6        44.000    24739748.566   101305192.871 7
        26.100
  25345987.031   133194084.308 2        34.600

  22349889.078   119682949.026 7        46.000    22349892.219    93086593.916 9
        42.300
  19411589.352   103766949.256 7        45.800    19411593.094    80707047.685 9
        47.700
  20977563.164   111940711.694 8        50.600    20977566.797    87064783.311 8
        39.100
  23585482.961   125945300.060 5        39.500    23585487.570    97957410.902 8
        35.200
  21635546.867   115329668.249 6        42.300    21635553.203    89700902.337 8
        37.100
  22418429.664   119797246.200 6        41.500    22418437.949    93175726.390 8
        40.900
  21100891.375   112835853.444 6        44.400    21100897.578    87761327.202 9
        45.800
  20236527.648   108289799.069 8        51.600    20236531.059    84225406.317 9
        46.400
  23012847.133   122844345.370 7        46.300    23012851.730    95545451.124 8
        39.200
 15 11 13 15  5  0.0000000  0 20G01G02G03G06G07G09G17G23G25G31G32R04
                                R05R06R13R14R15R20R21R22
  24908686.875   130895975.077 4        38.500    24908696.246   101996898.412 5
        16.900
  24081596.813   126549691.704 6        42.500    24081600.875    98610187.100 6
        26.000
  21972953.727   115468611.935 7        50.300    21972959.891    89975651.442 8
        37.800
  21101790.734   110890646.360 7        50.500    21101798.266    86408412.575 9
        41.300
  25536422.172   134194827.970 3        37.000    25536432.563   104567443.865 6
        19.600
  20972487.891   110211274.412 7        51.800    20972493.723    85878997.583 9
        41.600
  23443574.164   123196788.028 6        45.500    23443580.168    95997509.761 7
        29.200
  20670277.922   108623143.336 7        51.700    20670279.492    84641460.936 9
        41.600
  25534393.164   134184130.283 4        38.100    25534401.488   104559124.484 6
        18.600
  24754878.883   130087651.238 6        43.000    24754884.961   101367171.877 6
        24.500
  25365086.500   133294456.119 2        33.300

  22368881.008   119784662.703 7        45.300    22368887.305    93165704.542 9
        43.000
  19416501.625   103793209.959 7        45.400    19416505.980    80727472.681 9
        47.600
  20962510.586   111860389.154 8        49.600    20962514.691    87002310.279 8
        39.100
  23601747.852   126032151.250 5        40.400    23601752.277    98024961.896 8
        35.600
  21631438.148   115307775.580 5        40.900    21631445.867    89683874.744 8
        36.400
  22398429.258   119690372.867 6        42.500    22398437.941    93092602.809 8
        40.200
  21120594.797   112941214.540 6        44.300    21120599.953    87843274.678 9
        45.300
  20234902.047   108281100.496 8        51.500    20234905.500    84218640.759 9
        46.100
  22992274.938   122734532.780 7        46.300    22992279.949    95460041.449 8
        39.900
 15 11 13 15  5 30.0000000  0 20G01G02G03G06G07G09G17G23G25G31G32R04
                                R05R06R13R14R15R20R21R22
  24930354.133   131009835.715 4        37.900    24930363.859   102085620.929 5
        16.900
  24062915.711   126451521.507 6        42.100    24062919.469    98533690.944 6
        24.500
  21987423.203   115544647.730 7        50.200    21987428.980    90034900.099 8
        37.900
  21092348.938   110841028.325 7        50.000    21092356.344    86369749.203 9
        41.300
  25516036.719   134087713.098 1        31.500    25516048.957   104483978.267 5
        15.600
  20960715.336   110149409.906 7        51.600    20960721.512    85830791.508 9
        41.700
  23460745.297   123287024.541 6        44.500    23460751.281    96067823.847 7
        29.100
  20672495.633   108634799.582 7        51.500    20672497.652    84650543.744 9
        41.600
  25541052.000   134219116.683 4        38.800    25541058.934   104586386.569 6
        19.600
  24770090.867   130167578.517 6        42.300    24770094.629   101429452.889 6
        25.100
  25384185.000   133394827.116 2        33.600

  22387897.711   119886486.968 7        45.300    22387902.621    93244901.134 9
        42.600
  19421495.070   103819906.673 7        45.400    19421500.238    80748236.800 9
        48.000
  20947515.492   111780369.582 8        49.900    20947518.242    86940072.871 8
        39.100
  23618119.492   126119574.755 5        39.900    23618123.973    98092957.996 8
        36.500
  21627484.586   115286703.192 5        40.900    21627492.652    89667485.133 8
        36.400
  22378511.070   119583931.962 6        43.000    22378518.031    93009815.528 8
        39.400
  21140394.844   113047095.748 6        44.100    21140400.898    87925626.692 9
        46.300
  20233435.406   108273256.107 8        50.500    20233439.543    84212539.586 9
        46.200
  22971783.000   122625146.691 7        45.700    22971787.453    95374963.459 8
        39.100
 15 11 13 15  6  0.0000000  0 20G01G02G03G06G07G09G17G23G25G31G32R04
                                R05R06R13R14R15R20R21R22
  24952033.133   131123757.372 5        39.700    24952042.730   102174390.925 5
        17.800
  24044263.609   126353502.151 6        43.200    24044266.715    98457312.313 6
        26.000
  22001937.211   115620919.391 7        49.600    22001943.359    90094332.562 8
        38.400
  21082999.281   110791896.868 7        50.000    21083006.605    86331464.974 9
        41.100
  25495637.172   133980507.598 3        36.800    25495648.434   104400441.994 5
        13.900
  20949027.258   110087990.538 7        50.700    20949033.668    85782932.292 9
        41.600
  23477967.117   123377526.321 6        44.700    23477972.805    96138344.626 7
        29.300
  20674804.836   108646934.495 7        51.600    20674806.793    84659999.531 9
        41.700
  25547808.594   134254627.707 5        39.200    25547816.840   104614057.344 6
        18.300
  24785372.594   130247890.744 6        43.400    24785377.133   101492033.904 6
        24.700
  25403285.664   133495196.538 2        33.500

  22406932.039   119988420.543 6        43.200    22406937.328    93324182.774 9
        42.600
  19426571.117   103847038.454 7        45.700    19426575.723    80769339.298 9
        48.000
  20932577.250   111700653.793 8        50.800    20932579.551    86878071.748 8
        38.800
  23634596.477   126207566.981 5        39.400    23634602.324    98161396.466 8
        37.500
  21623686.250   115266452.579 5        40.700    21623693.520    89651734.685 8
        35.100
  22358673.758   119477927.679 6        42.200    22358681.160    92927367.817 8
        39.600
  21160290.703   113153492.784 6        43.900    21160297.852    88008379.883 9
        45.700
  20232129.445   108266266.502 8        51.100    20232133.707    84207103.229 9
        46.600
  22951371.609   122516191.196 7        45.700    22951376.820    95290220.392 8
        38.700
 15 11 13 15  6 30.0000000  0 20G01G02G03G06G07G09G17G23G25G31G32R04
                                R05R06R13R14R15R20R21R22
  24973723.242   131237738.335 4        38.700    24973733.059   102263207.244 5
        17.800
  24025639.523   126255635.537 6        42.400    24025643.105    98381052.709 6
        25.400
  22016495.625   115697426.223 7        49.500    22016501.953    90153948.256 8
        37.000
  21073742.906   110743254.044 7        49.400    21073750.547    86293561.500 8
        40.900
  25475219.625   133873214.559 5        39.200    25475230.188   104316837.347 5
        17.800
  20937424.398   110027017.484 7        50.500    20937430.461    85735420.865 9
        41.900
  23495238.711   123468290.629 6        45.000    23495245.203    96209069.974 7
        27.800
  20677205.461   108659547.066 7        50.100    20677207.262    84669827.515 9
        41.600
  25554666.273   134290662.125 4        37.100    25554673.512   104642136.144 5
        17.400
  24800727.781   130328585.565 6        42.200    24800732.875   101554913.003 6
        23.600
  25422385.117   133595563.723 2        33.900

  22425988.305   120090461.973 6        44.700    22425992.699    93403548.279 9
        41.500
  19431729.141   103874604.195 7        45.400    19431732.941    80790779.332 9
        47.400
  20917694.977   111621242.934 8        50.000    20917697.633    86816307.808 8
        38.600
  23651180.766   126296124.402 4        38.900    23651186.195    98230274.503 8
        37.200
  21620041.227   115247025.337 5        40.700    21620049.699    89636624.626 8
        36.000
  22338918.688   119372366.021 6        41.900    22338927.125    92845264.389 8
        39.900
  21180284.539   113260401.991 6        44.000    21180290.516    88091531.446 9
        45.200
  20230982.844   108260132.319 8        51.400    20230987.469    84202332.216 9
        46.500
  22931042.305   122407670.679 6        44.000    22931046.742    95205815.662 8
        36.900
 15 11 13 15  7  0.0000000  0 20G01G02G03G06G07G09G17G23G25G31G32R04
                                R05R06R13R14R15R20R21R22
  24995424.172   131351776.682 4        39.000    24995433.828   102352068.222 5
        17.400
  24007046.359   126157923.778 6        43.700    24007049.637    98304913.746 7
        26.100
  22031098.969   115774167.042 7        49.200    22031105.348    90213746.283 8
        37.200
  21064579.766   110695101.619 7        50.800    21064586.891    86256040.152 9
        41.100
  25454786.523   133765835.724 4        37.600    25454796.527   104233165.821 5
        17.400
  20925906.805   109966491.751 7        51.400    20925913.313    85688257.990 9
        41.700
  23512560.133   123559314.205 6        44.300    23512565.953    96279997.370 7
        28.700
  20679696.125   108672636.377 8        52.300    20679697.625    84680026.989 9
        41.600
  25561621.617   134327218.191 4        37.900    25561629.531   104670621.436 5
        16.900
  24816156.648   130409660.573 6        42.500    24816161.070   101618088.374 6
        24.800
  25441484.641   133695927.806 2        35.000

  22445063.789   120192610.018 6        43.500    22445068.383    93482996.723 9
        41.800
  19436966.195   103902602.549 7        46.200    19436970.387    80812555.832 9
        48.300
  20902870.477   111542137.593 8        51.100    20902874.066    86754781.475 8
        39.600
  23667868.844   126385242.914 5        39.400    23667875.000    98299588.978 8
        36.900
  21616552.133   115228421.934 6        41.200    21616559.324    89622155.366 8
        36.100
  22319247.617   119267250.217 6        41.800    22319256.020    92763507.734 8
        40.700
  21200371.430   113367818.777 6        44.700    21200377.762    88175077.796 9
        45.200
  20229997.359   108254853.990 8        52.100    20230001.191    84198226.830 9
        47.600
  22910795.070   122299588.827 6        42.900    22910800.082    95121752.088 8
        36.500
 15 11 13 15  7 30.0000000  0 20G01G02G03G06G07G09G17G23G25G31G32R04
                                R05R06R13R14R15R20R21R22
  25017135.742   131465870.974 5        39.400    25017144.680   102440972.826 5
        17.800
  23988482.203   126060369.256 6        43.900    23988484.770    98228897.311 6
        23.300
  22045746.922   115851141.337 7        48.500    22045753.434    90273726.234 8
        36.900
  21055510.516   110647441.790 7        49.900    21055517.922    86218902.669 9
        41.400
  25434337.641   133658374.065 4        38.400    25434346.617   104149429.633 6
        18.300
  20914474.563   109906414.715 7        51.600    20914481.230    85641444.753 9
        41.900
  23529930.594   123650594.094 6        45.100    23529936.859    96351124.470 7
        30.400
  20682277.453   108686202.043 7        51.100    20682279.469    84690597.642 9
        41.700
  25568677.367   134364294.825 4        38.300    25568685.305   104699512.411 6
        18.600
  24831655.453   130491113.104 5        41.300    24831660.746   101681557.912 6
        22.600
  25460581.398   133796288.511 2        33.300

  22464158.953   120294863.379 6        42.600    22464163.629    93562527.061 9
        41.300
  19442283.961   103931032.979 7        45.800    19442288.453    80834668.389 9
        48.000
  20888104.500   111463338.810 8        51.100    20888105.883    86693493.595 8
        38.700
  23684662.609   126474919.280 4        37.500    23684668.590    98369337.336 8
        37.100
  21613216.852   115210644.363 5        40.500    21613224.027    89608328.389 8
        36.000
  22299661.180   119162586.119 6        43.200    22299669.234    92682102.368 8
        40.400
  21220553.289   113475739.690 6        44.100    21220559.828    88259016.236 9
        45.500
  20229170.195   108250432.131 8        51.300    20229175.285    84194787.611 9
        47.000
  22890631.383   122191950.057 6        42.600    22890634.715    95038033.114 8
        34.900
 15 11 13 15  8  0.0000000  0 20G01G02G03G06G07G09G17G23G25G31G32R04
                                R05R06R13R14R15R20R21R22
  25038857.258   131580018.734 4        38.800    25038867.691   102529919.129 6
        18.300
  23969948.125   125962973.751 6        43.900    23969951.242    98153004.761 6
        25.600
  22060438.469   115928347.681 7        48.500    22060445.383    90333887.005 8
        37.100
  21046535.258   110600276.046 7        50.400    21046542.047    86182150.163 9
        41.300
  25413871.945   133550830.968 5        39.200    25413881.844   104065629.944 6
        18.600
  20903128.453   109846786.917 7        51.500    20903134.477    85594981.564 9
        42.600
  23547348.828   123742127.098 6        45.400    23547354.824    96422448.803 7
        28.300
  20684949.547   108700242.599 7        50.800    20684951.293    84701538.347 9
        42.000
  25575830.602   134401889.709 4        38.400    25575839.109   104728807.254 5
        17.400
  24847227.359   130572940.439 5        41.100    24847231.566   101745319.549 6
        23.500
  25479677.742   133896644.641 1        32.300

  22483273.258   120397220.626 6        44.500    22483277.035    93642138.236 9
        41.500
  19447682.578   103959893.741 7        45.400    19447687.531    80857115.657 9
        47.600
  20873393.648   111384847.644 8        49.900    20873396.992    86632444.965 8
        39.300
  23701560.461   126565149.048 5        39.700    23701565.273    98439516.084 8
        37.600
  21610036.461   115193693.393 5        39.400    21610043.988    89595144.326 8
        35.800
  22280160.695   119058378.166 6        42.300    22280169.047    92601051.784 8
        41.000
  21240828.883   113584160.175 6        43.500    21240835.367    88343343.204 9
        46.000
  20228504.344   108246867.012 8        51.100    20228508.922    84192014.738 9
        47.300
  22870549.789   122084758.061 5        40.200    22870553.664    94954661.658 8
        33.500
 15 11 13 15  8 30.0000000  0 20G01G02G03G06G07G09G17G23G25G31G32R04
                                R05R06R13R14R15R20R21R22
  25060587.625   131694218.461 4        38.300    25060597.871   102618905.905 5
        16.900
  23951445.828   125865739.559 6        44.800    23951447.891    98077237.933 7
        27.000
  22075174.648   116005785.306 7        47.800    22075181.813    90394227.996 8
        37.300
  21037654.406   110553606.362 7        49.600    21037661.336    86145784.203 9
        41.600
  25393391.977   133443209.272 4        38.100    25393401.660   103981768.977 6
        18.600
  20891866.695   109787609.591 7        51.800    20891872.926    85548869.399 9
        42.100
  23564815.250   123833910.394 6        45.500    23564820.184    96493968.181 7
        27.700
  20687711.461   108714757.339 7        50.500    20687713.020    84712848.545 9
        42.000
  25583083.648   134440001.532 4        38.400    25583091.898   104758504.776 6
        19.300
  24862870.227   130655140.149 6        42.500    24862873.988   101809371.290 6
        24.000
  25498775.344   133996995.624 3        35.900

  22502406.813   120499680.244 6        44.600    22502411.121    93721829.006 8
        40.800
  19453162.531   103989183.961 7        45.200    19453167.102    80879896.950 9
        47.200
  20858742.609   111306664.533 8        50.200    20858745.867    86571635.938 8
        39.200
  23718561.391   126655928.592 5        39.200    23718565.438    98510122.466 8
        37.500
  21607012.781   115177570.157 5        40.500    21607019.703    89582604.060 8
        35.500
  22260746.070   118954629.490 6        43.700    22260753.676    92520358.456 9
        42.300
  21261197.375   113693076.181 6        44.500    21261202.652    88428055.607 9
        45.500
  20227998.070   108244158.825 8        51.800    20228002.613    84189908.391 9
        47.000
  22850551.992   121978017.079 4        38.600    22850557.211    94871640.959 7
        31.900
 15 11 13 15  9  0.0000000  0 20G01G02G03G06G07G09G17G23G25G31G32R04
                                R05R06R13R14R15R20R21R22
  25082328.328   131808468.246 4        37.900    25082337.883   102707931.758 5
        16.300
  23932973.086   125768668.984 6        44.200    23932976.465    98001598.600 7
        26.600
  22089954.102   116083453.252 7        47.400    22089961.523    90454748.450 8
        37.100
  21028868.172   110507434.620 7        49.900    21028875.402    86109806.242 9
        41.600
  25372897.898   133335511.458 4        38.200    25372908.016   103897848.710 5
        17.800
  20880691.445   109728883.737 7        51.500    20880697.914    85503109.028 9
        42.600
  23582327.688   123925941.248 6        46.200    23582333.828    96565680.444 7
        29.700
  20690563.367   108729745.436 7        51.500    20690565.301    84724527.585 9
        42.000
  25590434.797   134478628.470 5        40.400    25590441.992   104788603.610 6
        20.100
  24878581.234   130737709.425 5        40.700    24878586.270   101873711.019 6
        22.900
  25517870.320   134097340.834 3        35.400

  22521559.086   120602241.260 6        44.800    22521563.398    93801598.658 8
        39.800
  19458723.078   104018902.635 7        46.000    19458726.512    80903011.464 9
        47.700
  20844149.164   111228790.730 8        50.100    20844152.254    86511067.477 8
        39.800
  23735662.094   126747254.107 4        39.000    23735667.785    98581153.427 8
        37.600
  21604141.609   115162275.416 5        39.700    21604150.105    89570708.212 8
        35.600
  22241417.242   118851345.402 6        43.700    22241425.293    92440026.441 9
        41.500
  21281656.102   113802483.587 6        43.200    21281662.949    88513150.197 9
        45.700
  20227652.445   108242308.018 8        52.100    20227657.020    84188468.869 9
        46.600
  22830642.664   121871731.094 4        39.000    22830645.434    94788974.125 7
        31.200
 15 11 13 15  9 30.0000000  0 20G01G02G03G06G07G09G17G23G25G31G32R04
                                R05R06R13R14R15R20R21R22
  25104078.844   131922766.484 3        36.100    25104089.379   102796995.279 5
        17.400
  23914532.875   125671764.135 6        44.600    23914536.180    97926088.451 7
        28.300
  22104777.734   116161350.749 7        47.300    22104784.719    90515447.776 8
        36.900
  21020176.992   110461762.805 7        50.100    21020184.156    86074217.835 9
        42.000
  25352390.445   133227740.289 5        39.900    25352400.031   103813871.316 6
        19.300
  20869602.203   109670610.463 7        51.000    20869608.406    85457701.325 9
        41.300
  23599886.727   124018215.909 6        45.600    23599893.738    96637582.696 7
        29.500
  20693505.945   108745206.055 8        52.800    20693507.477    84736574.817 9
        42.400
  25597882.031   134517769.352 5        39.200    25597890.699   104819102.985 6
        18.300
  24894364.117   130820646.045 5        41.300    24894368.461   101938337.049 6
        22.500
  25536963.797   134197679.656 3        36.100

  22540731.063   120704902.536 7        45.600    22540734.719    93881446.282 8
        39.800
  19464362.195   104049048.708 7        45.800    19464365.633    80926458.420 9
        47.800
  20829614.242   111151227.290 8        51.400    20829616.840    86450740.400 8
        39.900
  23752866.984   126839121.882 5        39.300    23752871.355    98652606.219 8
        37.300
  21601427.961   115147810.856 4        39.000    21601436.422    89559458.037 8
        35.600
  22222176.180   118748531.778 6        42.700    22222184.723    92360060.360 9
        41.500
  21302207.203   113912378.504 6        43.800    21302213.613    88598623.964 9
        44.800
  20227467.289   108241314.934 8        51.400    20227471.137    84187696.478 9
        46.700
  22810818.594   121765904.250 4        38.400    22810821.418    94706664.317 7
        32.600
 15 11 13 15 10  0.0000000  0 20G01G02G03G06G07G09G17G23G25G31G32R04
                                R05R06R13R14R15R20R21R22
  25125838.906   132037111.166 4        38.400    25125848.453   102886095.007 5
        16.300
  23896123.539   125575027.233 6        43.800    23896127.824    97850709.134 7
        28.700
  22119644.445   116239476.698 6        47.000    22119651.844    90576325.116 8
        36.200
  21011581.055   110416592.625 7        49.500    21011588.746    86039020.312 9
        41.500
  25331867.383   133119897.641 4        37.800    25331878.598   103729838.239 5
        17.400
  20858599.211   109612790.669 7        50.700    20858604.922    85412646.977 8
        40.900
  23617492.242   124110731.532 6        45.500    23617499.156    96709672.695 7
        29.100
  20696537.656   108761138.104 8        52.100    20696538.992    84748989.397 9
        42.000
  25605428.992   134557422.331 3        36.700    25605435.969   104850001.326 5
        17.400
  24910216.539   130903947.306 6        42.500    24910220.414   102003247.168 6
        23.000
  25556055.922   134298011.194 3        35.700

  22559920.188   120807662.471 7        46.000    22559925.246    93961370.649 8
        40.400
  19470080.516   104079620.998 7        46.000    19470084.574    80950236.869 9
        47.700
  20815136.313   111073974.664 8        51.000    20815140.250    86390655.093 8
        39.700
  23770170.797   126931528.101 3        36.500    23770176.160    98724477.729 8
        37.500
  21598871.453   115134176.783 5        39.900    21598879.352    89548853.786 8
        36.400
  22203024.727   118646191.375 6        41.800    22203032.684    92280462.355 9
        41.500
  21322848.547   114022756.683 6        44.100    21322855.063    88684473.597 9
        45.500
  20227442.195   108241179.774 8        51.600    20227445.746    84187591.352 9
        46.800
  22791079.148   121660540.701 5        40.900    22791083.141    94624714.972 8
        34.700
 15 11 13 15 10 30.0000000  0 20G01G02G03G06G07G09G17G23G25G31G32R04
                                R05R06R13R14R15R20R21R22
  25147606.445   132151500.654 4        38.300    25147616.551   102975229.696 5
        17.400
  23877748.195   125478460.627 6        45.000    23877751.836    97775462.560 7
        28.300
  22134554.563   116317830.338 6        46.800    22134561.887    90637379.871 8
        35.500
  21003081.656   110371926.125 7        50.700    21003088.977    86004215.270 9
        42.000
  25311333.398   133011986.126 5        40.300    25311342.957   103645751.565 6
        19.600
  20847683.008   109555425.525 7        50.200    20847688.723    85367946.919 9
        41.100
  23635142.227   124203485.309 6        45.100    23635148.996    96781948.288 7
        28.800
  20699658.594   108777540.849 7        51.900    20699660.527    84761770.769 9
        41.700
  25613071.555   134597585.879 4        39.000    25613078.563   104881297.521 6
        19.000
  24926135.758   130987610.648 5        41.500    24926140.488   102068439.432 6
        22.600
  25575147.117   134398335.147 2        34.800

  22579129.211   120910520.064 7        46.400    22579133.051    94041370.959 8
        40.200
  19475879.422   104110618.667 7        46.200    19475883.352    80974346.160 9
        47.800
  20800718.539   110997034.093 8        50.800    20800721.602    86330812.479 8
        39.600
  23787577.336   127024468.882 4        38.900    23787581.488    98796765.051 8
        37.700
  21596469.492   115121374.854 5        40.000    21596477.207    89538896.785 8
        35.600
  22183962.828   118544330.071 6        43.000    22183971.070    92201237.002 9
        42.000
  21343577.500   114133614.135 6        43.300    21343585.852    88770695.995 9
        45.700
  20227576.570   108241902.807 8        51.200    20227581.195    84188153.708 9
        47.300
  22771428.688   121555644.725 6        42.600    22771434.066    94543129.224 8
        36.100
 15 11 13 15 11  0.0000000  0 20G01G02G03G06G07G09G17G23G25G31G32R04
                                R05R06R13R14R15R20R21R22
  25169382.117   132265933.032 4        38.500    25169392.629   103064397.769 5
        17.800
  23859404.438   125382066.226 6        45.900    23859408.391    97700350.144 7
        28.600
  22149508.031   116396410.696 6        46.500    22149515.012    90698611.287 8
        36.300
  20994678.023   110327764.949 7        50.600    20994685.277    85969803.985 9
        41.800
  25290784.492   132904008.252 4        38.700    25290794.699   103561613.292 5
        16.300
  20836853.273   109498515.875 7        51.100    20836859.375    85323601.784 9
        41.600
  23652837.375   124296474.342 6        45.500    23652845.324    96854407.187 7
        29.400
  20702869.305   108794413.430 8        52.100    20702871.309    84774918.253 9
        41.900
  25620811.094   134638258.419 5        40.600    25620819.004   104912990.491 6
        20.400
  24942125.375   131071633.483 5        41.800    24942129.559   102133911.894 6
        23.300
  25594236.352   134498650.503 3        35.400

  22598355.703   121013473.727 7        45.800    22598358.625    94121445.985 8
        40.000
  19481757.258   104142040.544 7        45.200    19481761.395    80998785.392 9
        48.300
  20786358.586   110920406.141 8        52.000    20786361.523    86271213.029 8
        39.700
  23805080.102   127117940.273 3        36.700    23805085.344    98869465.106 8
        37.400
  21594224.398   115109405.450 5        41.000    21594231.668    89529587.274 8
        35.300
  22164992.414   118442952.117 6        43.700    22164998.754    92122387.595 9
        42.200
  21364399.078   114244946.681 6        43.400    21364405.418    88857287.912 9
        45.500
  20227871.891   108243484.081 8        50.900    20227876.000    84189383.601 9
        46.900
  22751866.820   121451220.113 6        43.200    22751871.152    94461910.125 8
        36.800
 15 11 13 15 11 30.0000000  0 20G01G02G03G06G07G09G17G23G25G31G32R04
                                R05R06R13R14R15R20R21R22
  25191165.578   132380406.664 4        37.700    25191176.012   103153597.986 5
        16.900
  23841094.828   125285846.473 6        45.700    23841097.918    97625373.837 7
        27.900
  22164503.797   116475217.044 6        46.600    22164511.051    90760018.812 8
        36.200
  20986370.867   110284111.219 7        50.000    20986378.395    85935788.117 9
        42.100
  25270225.492   132795966.737 6        42.300    25270234.367   103477425.335 6
        18.300
  20826111.414   109442062.962 8        52.200    20826117.016    85279612.541 9
        41.700
  23670577.031   124389695.570 6        45.200    23670583.629    96927047.005 7
        28.400
  20706169.398   108811755.198 7        51.900    20706171.520    84788431.331 9
        41.700
  25628647.180   134679438.160 4        38.500    25628655.348   104945078.734 6
        19.000
  24958181.711   131156013.261 5        42.000    24958186.355   102199662.440 6
        23.900
  25613323.758   134598956.931 3        35.500

  22617598.969   121116522.813 7        45.800    22617602.109    94201595.241 8
        40.200
  19487715.078   104173885.999 7        45.900    19487718.832    81023554.073 9
        48.000
  20772056.305   110844092.276 8        50.300    20772060.582    86211857.847 8
        40.000
  23822684.383   127211938.618 4        38.400    23822688.484    98942574.981 8
        37.900
  21592134.211   115098269.693 5        39.900    21592141.934    89520926.166 8
        34.800
  22146110.820   118342061.149 6        44.000    22146118.613    92043916.934 9
        42.400
  21385307.664   114356750.277 6        43.000    21385313.348    88944246.196 9
        45.400
  20228327.742   108245923.842 8        50.900    20228332.324    84191281.198 9
        46.300
  22732394.516   121347271.018 7        46.300    22732398.008    94381060.888 8
        37.400
 15 11 13 15 12  0.0000000  0 20G01G02G03G06G07G09G17G23G25G31G32R04
                                R05R06R13R14R15R20R21R22
  25212957.242   132494919.410 5        39.700    25212968.059   103242828.717 6
        19.300
  23822817.930   125189803.238 6        45.600    23822821.254    97550535.022 7
        27.800
  22179543.977   116554248.095 6        46.500    22179550.047    90821601.429 8
        35.700
  20978160.758   110240966.295 7        50.300    20978167.871    85902168.717 9
        41.900
  25249653.625   132687863.364 5        40.200    25249663.066   103393189.414 6
        18.300
  20815455.961   109386067.334 7        52.000    20815461.086    85235979.623 9
        42.000
  23688359.891   124483145.455 6        44.600    23688366.676    96999865.005 7
        26.600
  20709558.945   108829564.576 7        51.000    20709560.734    84802308.779 9
        42.000
  25636579.539   134721123.231 5        41.600    25636587.223   104977560.601 6
        21.500
  24974305.906   131240747.388 6        42.200    24974310.406   102265689.107 6
        22.500
  25632409.922   134699253.363 2        33.500

  22636859.828   121219665.701 7        45.800    22636864.160    94281817.463 9
        41.100
  19493751.219   104206153.027 7        45.800    19493755.633    81048650.648 9
        48.200
  20757814.203   110768092.640 8        51.300    20757817.336    86152747.075 8
        39.400
  23840383.844   127306459.670 3        36.800    23840388.527    99016091.431 8
        37.100
  21590202.297   115087968.172 5        40.200    21590209.914    89512913.876 8
        36.000
  22127323.406   118241662.510 6        44.600    22127330.793    91965829.241 9
        43.000
  21406303.055   114469020.508 6        43.000    21406308.906    89031567.433 9
        45.400
  20228944.766   108249221.879 8        51.600    20228948.578    84193846.339 9
        46.500
  22713010.055   121243801.637 7        45.900    22713014.766    94300584.752 8
        37.900
 15 11 13 15 12 30.0000000  0 20G01G02G03G06G07G09G17G23G25G31G32R04
                                R05R06R13R14R15R20R21R22
  25234755.078   132609469.603 4        38.400    25234765.984   103332088.596 5
        17.800
  23804575.117   125093938.910 6        44.600    23804579.191    97475835.646 7
        28.000
  22194625.266   116633503.083 6        46.800    22194631.887    90883358.535 8
        35.400
  20970047.594   110198332.142 7        49.700    20970055.117    85868947.312 9
        41.500
  25229069.930   132579700.569 5        40.500    25229081.574   103308907.015 5
        17.400
  20804887.758   109330530.040 7        51.900    20804892.699    85192703.857 9
        41.900
  23706186.125   124576821.004 6        44.300    23706192.016    97072858.872 7
        27.500
  20713036.250   108847840.812 7        51.000    20713038.316    84816550.016 9
        42.500
  25644607.734   134763311.788 5        39.200    25644615.320   105010434.838 5
        17.800
  24990496.938   131325833.121 6        42.500    24990501.418   102331989.755 6
        23.600
  25651493.281   134799539.334 2        33.600

  22656139.086   121322900.846 7        46.300    22656142.313    94362111.428 8
        40.000
  19499865.352   104238840.996 7        46.100    19499870.480    81074074.627 9
        47.600
  20743631.617   110692408.523 8        50.700    20743634.340    86093881.727 8
        40.000
  23858181.539   127401499.657 4        37.400    23858186.801    99090011.480 8
        37.100
  21588426.633   115078501.575 6        42.000    21588433.992    89505550.989 8
        36.200
  22108627.984   118141761.582 6        44.900    22108635.305    91888128.640 9
        42.100
  21427384.016   114581753.310 6        42.400    21427390.645    89119248.436 9
        45.400
  20229721.656   108253378.348 8        52.100    20229725.156    84197079.145 9
        47.100
  22693717.555   121140815.705 7        45.600    22693722.254    94220484.628 8
        39.000
 15 11 13 15 13  0.0000000  0 20G01G02G03G06G07G09G17G23G25G31G32R04
                                R05R06R13R14R15R20R21R22
  25256559.781   132724055.675 4        37.200    25256570.766   103421376.393 5
        16.300
  23786368.391   124998256.114 6        45.400    23786371.387    97401277.702 7
        28.100
  22209749.203   116712981.280 6        45.900    22209755.793    90945289.568 8
        34.900
  20962032.211   110156210.749 7        50.200    20962039.309    85836125.463 9
        41.700
  25208477.047   132471481.133 5        40.400    25208487.012   103224580.785 6
        19.000
  20794406.867   109275452.251 8        52.600    20794411.695    85149786.139 9
        42.100
  23724054.195   124670719.672 6        43.700    23724060.457    97146026.595 6
        26.000
  20716602.484   108866583.218 7        50.700    20716605.418    84831154.501 9
        41.700
  25652731.000   134806002.258 5        40.300    25652738.348   105043700.122 5
        17.800
  25006755.203   131411267.895 6        43.100    25006760.098   102398562.401 6
        24.500
  25670576.016   134899814.497 3        36.000

  22675433.234   121426227.613 6        44.500    22675437.680    94442476.643 8
        40.200
  19506059.227   104271949.040 7        45.400    19506064.500    81099825.322 9
        47.800
  20729507.727   110617040.946 8        50.900    20729510.324    86035262.538 8
        39.800
  23876074.617   127497054.851 3        35.900    23876081.332    99164332.264 8
        37.500
  21586806.555   115069870.954 5        40.900    21586815.441    89498838.331 8
        37.000
  22090026.523   118042361.687 6        45.000    22090032.809    91810817.725 9
        41.500
  21448550.406   114694944.762 6        42.700    21448557.906    89207286.161 9
        44.700
  20230658.406   108258393.244 8        51.600    20230662.820    84200979.621 9
        46.800
  22674516.367   121038317.520 7        45.400    22674520.871    94140763.881 8
        39.700
 15 11 13 15 13 30.0000000  0 20G01G02G03G06G07G09G17G23G25G31G32R04
                                R05R06R13R14R15R20R21R22
  25278370.117   132838675.624 4        37.800    25278382.320   103510690.630 5
        16.900
  23768194.023   124902756.589 6        44.700    23768198.773    97326862.576 7
        29.400
  22224916.305   116792681.566 7        47.400    22224922.539    91007393.666 8
        35.900
  20954114.336   110114603.668 7        50.500    20954121.949    85803704.383 9
        42.200
  25187873.094   132363207.340 6        42.700    25187883.691   103140212.086 6
        20.600
  20784013.008   109220834.696 8        52.500    20784018.098    85107227.036 9
        42.100
  23741964.727   124764837.942 6        43.000    23741971.512    97219365.416 7
        28.200
  20720257.859   108885790.666 8        52.400    20720260.063    84846121.357 9
        42.400
  25660950.148   134849192.736 4        38.700    25660958.156   105077354.948 5
        17.400
  25023079.094   131497049.266 6        44.600    25023083.629   102465405.097 7
        26.600
  25689654.289   135000077.861 1        32.900

  22694746.789   121529644.373 6        44.600    22694750.719    94522911.860 8
        40.000
  19512330.852   104305475.608 7        45.700    19512335.430    81125901.546 9
        47.900
  20715442.883   110541990.743 8        52.000    20715446.125    85976890.222 8
        39.800
  23894067.945   127593121.210 4        38.300    23894071.598    99239050.578 8
        37.300
  21585346.617   115062076.803 5        39.800    21585353.000    89492776.220 8
        35.700
  22071520.086   117943467.952 7        45.800    22071526.188    91733900.489 8
        41.000
  21469803.539   114808590.324 6        42.000    21469810.070    89295677.083 9
        45.100
  20231755.305   108264266.476 8        51.300    20231760.059    84205547.712 9
        46.800
  22655406.742   120936310.980 7        45.800    22655411.832    94061425.558 9
        41.300
 15 11 13 15 14  0.0000000  0 20G01G02G03G06G07G09G17G23G25G31G32R04
                                R05R06R13R14R15R20R21R22
  25300188.313   132953327.707 3        37.000    25300199.453   103600029.839 5
        17.400
  23750056.367   124807442.626 6        45.000    23750059.582    97252592.021 7
        28.300
  22240124.539   116872602.976 7        47.300    22240131.016    91069670.067 8
        35.400
  20946295.180   110073512.652 7        50.100    20946302.332    85771685.427 9
        42.100
  25167257.508   132254881.229 5        39.500    25167269.086   103055802.640 6
        18.300
  20773707.266   109166678.178 7        51.900    20773712.816    85065027.191 9
        41.600
  23759916.617   124859172.853 6        43.400    23759923.402    97292873.042 7
        27.700
  20724001.055   108905461.949 7        50.900    20724003.418    84861449.647 9
        42.100
  25669264.453   134892881.611 5        39.200    25669271.711   105111398.123 5
        16.300
  25039467.344   131583174.309 6        43.700    25039472.953   102532515.630 6
        24.900
  25708732.508   135100328.677 2        34.800

  22714074.336   121633150.065 6        43.600    22714079.359    94603416.259 8
        40.500
  19518681.797   104339419.714 7        46.300    19518685.316    81152302.523 9
        47.300
  20701438.445   110467258.481 8        50.900    20701441.680    85918765.208 8
        40.500
  23912152.039   127689694.719 4        38.000    23912156.328    99314163.393 8
        37.200
  21584040.375   115055119.617 5        40.800    21584047.477    89487365.085 8
        35.700
  22053107.984   117845084.014 7        45.800    22053115.211    91657379.771 9
        41.700
  21491139.828   114922685.941 6        43.600    21491146.219    89384418.048 9
        44.800
  20233013.156   108270997.789 8        51.600    20233018.453    84210783.207 9
        47.100
  22636390.266   120834799.936 7        45.300    22636395.785    93982472.618 9
        41.900
 15 11 13 15 14 30.0000000  0 20G01G02G03G06G07G09G17G23G25G31G32R04
                                R05R06R13R14R15R20R21R22
  25322013.047   133068009.972 4        39.000    25322023.355   103689392.737 6
        18.300
  23731955.063   124712316.600 6        44.200    23731959.133    97178467.964 7
        29.400
  22255375.188   116952744.879 7        47.300    22255381.504    91132118.285 8
        35.500
  20938574.359   110032939.591 7        50.700    20938581.715    85740070.082 9
        42.000
  25146636.328   132146505.523 6        42.600    25146644.086   102971354.455 6
        20.400
  20763489.164   109112983.815 7        50.800    20763494.816    85023187.470 9
        41.400
  23777908.070   124953721.424 6        43.500    23777914.801    97366547.170 7
        28.300
  20727832.305   108925596.475 7        50.300    20727834.867    84877138.899 9
        41.800
  25677672.672   134937067.709 5        41.200    25677679.953   105145828.962 6
        20.600
  25055921.797   131669640.559 6        43.400    25055926.027   102599892.032 6
        26.000
  25727805.477   135200566.773 1        32.400

  22733419.914   121736743.606 6        44.000    22733424.141    94683988.999 8
        39.700
  19525109.711   104373780.453 7        46.700    19525113.723    81179027.560 9
        47.600
  20687493.188   110392845.051 8        51.400    20687496.441    85860888.162 8
        40.100
  23930330.445   127786771.499 4        38.600    23930335.492    99389667.613 8
        37.600
  21582892.102   115049000.550 5        40.300    21582899.262    89482605.828 8
        35.600
  22034793.750   117747214.969 7        45.800    22034800.461    91581259.520 8
        40.800
  21512559.891   115037227.740 6        42.800    21512566.566    89473506.072 9
        44.500
  20234431.570   108278587.278 8        50.900    20234436.570    84216686.157 9
        47.100
  22617467.406   120733788.787 6        44.900    22617472.453    93903908.468 9
        42.300
 15 11 13 15 15  0.0000000  0 20G01G02G03G06G07G09G17G23G25G31G32R04
                                R05R06R13R14R15R20R21R22
  25343840.672   133182720.708 4        37.100    25343851.848   103778777.677 5
        17.400
  23713888.898   124617380.614 6        44.600    23713892.523    97104491.941 7
        28.500
  22270666.828   117033106.003 7        48.100    22270673.523    91194737.319 8
        34.200
  20930952.375   109992886.054 7        51.200    20930959.355    85708859.546 8
        41.000
  25126002.336   132038082.625 5        39.900    25126011.801   102886869.512 6
        19.000
  20753359.219   109059752.288 7        50.900    20753365.137    84981708.406 8
        40.700
  23795940.727   125048480.587 6        44.300    23795946.699    97440385.393 7
        27.000
  20731752.125   108946192.741 7        51.400    20731754.465    84893187.945 9
        41.300
  25686174.773   134981748.268 5        42.000    25686181.801   105180645.159 6
        18.300
  25072439.977   131756445.292 6        44.600    25072443.836   102667532.198 6
        24.800
  25746877.672   135300791.071 2        34.500

  22752781.586   121840423.635 6        43.000    22752785.941    94764628.976 8
        38.900
  19531615.414   104408556.548 7        46.700    19531619.129    81206075.649 9
        46.900
  20673607.805   110318751.521 8        51.900    20673611.297    85803259.926 8
        40.000
  23948602.164   127884347.434 4        37.900    23948608.965    99465560.100 8
        36.800
  21581902.617   115043719.604 6        41.200    21581908.797    89478498.429 8
        35.200
  22016575.719   117649864.857 7        46.400    22016582.227    91505542.872 8
        40.400
  21534062.219   115152210.962 6        42.600    21534068.758    89562937.398 9
        44.000
  20236010.484   108287034.446 8        51.000    20236015.109    84223256.169 9
        46.800
  22598638.758   120633281.343 7        45.500    22598643.730    93825736.112 9
        41.900
 15 11 13 15 15 30.0000000  0 20G01G02G03G06G07G09G17G23G25G31G32R04
                                R05R06R13R14R15R20R21R22
  25365674.539   133297457.991 4        37.200    25365686.273   103868183.291 5
        17.400
  23695859.375   124522636.957 6        43.700    23695863.672    97030665.813 7
        28.700
  22286001.414   117113685.560 7        47.500    22286007.914    91257526.572 8
        35.300
  20923429.695   109953353.709 7        50.700    20923436.934    85678055.156 9
        41.200
  25105361.117   131929614.721 5        39.400    25105370.484   102802349.432 6
        21.500
  20743317.719   109006984.455 7        50.900    20743323.641    84940590.644 8
        40.900
  23814012.563   125143447.412 6        44.000    23814018.645    97514385.439 7
        26.700
  20735758.531   108967249.915 7        51.200    20735760.867    84909596.139 9
        41.700
  25694770.453   135026921.748 5        40.500    25694778.207   105215845.285 5
        16.900
  25089022.352   131843586.181 6        44.300    25089026.254   102735434.293 7
        26.800
  25765947.633   135401001.092 2        33.500

  22772159.891   121944188.899 6        41.400    22772163.527    94845335.268 8
        39.200
  19538197.844   104443746.848 7        46.200    19538202.391    81233445.901 9
        46.900
  20659782.680   110244978.965 8        51.900    20659785.598    85745881.324 8
        40.300
  23966969.859   127982418.700 4        38.200    23966974.172    99541837.871 8
        36.400
  21581067.258   115039277.072 6        41.300    21581075.332    89475043.150 8
        35.300
  21998456.461   117553037.866 7        45.800    21998462.285    91430233.109 8
        40.000
  21555645.766   115267631.754 6        43.500    21555652.262    89652709.096 9
        43.700
  20237748.500   108296338.990 8        50.700    20237753.031    84230493.062 9
        46.400
  22579904.758   120533281.744 6        45.000    22579910.516    93747958.727 9
        42.300
 15 11 13 15 16  0.0000000  0 20G01G02G03G06G07G09G17G23G25G31G32R04
                                R05R06R13R14R15R20R21R22
  25387513.477   133412219.956 4        37.300    25387524.707   103957608.199 6
        19.300
  23677867.516   124428087.486 6        43.200    23677871.262    96956991.016 7
        28.700
  22301375.891   117194482.491 7        47.300    22301383.199    91320485.197 8
        35.700
  20916006.492   109914344.198 7        51.300    20916013.297    85647658.168 9
        41.700
  25084712.477   131821104.376 5        40.800    25084721.352   102717796.255 6
        20.600
  20733365.281   108954681.065 7        51.700    20733370.246    84899834.796 9
        41.800
  23832123.727   125238618.690 6        44.600    23832129.270    97588544.794 7
        27.900
  20739853.375   108988766.747 7        51.100    20739855.852    84926362.514 9
        41.500
  25703460.469   135072586.229 5        39.600    25703468.219   105251428.123 5
        15.600
  25105667.703   131931060.245 6        44.600    25105672.652   102803596.029 6
        23.500
  25785014.383   135501196.037 2        33.200

  22791552.750   122048038.346 6        44.100    22791556.305    94926107.051 8
        39.100
  19544858.258   104479350.141 7        46.100    19544861.941    81261137.363 9
        46.900
  20646018.102   110171527.875 8        52.300    20646021.039    85688752.739 8
        40.400
  23985426.828   128080981.126 3        36.300    23985432.031    99618497.639 8
        37.400
  21580391.898   115035673.592 5        40.900    21580399.172    89472240.462 8
        35.600
  21980434.711   117456738.915 7        45.100    21980441.500    91355334.039 8
        40.600
  21577313.063   115383485.714 6        43.400    21577318.566    89742817.661 9
        43.300
  20239647.906   108306500.548 8        50.900    20239652.504    84238396.493 9
        46.100
  22561267.609   120433793.808 7        45.600    22561272.262    93670579.317 9
        41.900
 15 11 13 15 16 30.0000000  0 20G01G02G03G06G07G09G17G23G25G31G32R04
                                R05R06R13R14R15R20R21R22
  25409356.594   133527005.139 4        37.300    25409366.777   104047051.112 6
        19.300
  23659912.758   124333735.046 6        43.000    23659916.402    96883469.677 7
        27.900
  22316792.211   117275496.068 6        47.000    22316799.828    91383612.637 8
        35.300
  20908682.914   109875859.418 7        50.700    20908689.785    85617670.055 9
        42.700
  25064055.898   131712554.556 4        39.000    25064065.426   102633212.262 6
        19.900
  20723501.195   108902843.211 7        51.700    20723506.180    84859441.691 9
        41.900
  23850271.906   125333991.255 6        45.000    23850278.754    97662860.996 7
        28.400
  20744035.281   109010742.612 7        50.800    20744037.660    84943486.572 9
        41.300
  25712243.148   135118739.823 5        39.500    25712250.969   105287392.087 5
        14.800
  25122376.133   132018864.882 6        43.700    25122380.277   102872015.368 6
        24.700
  25804077.641   135601375.547 3        35.100

  22810961.531   122151970.612 7        45.200    22810964.977    95006943.239 8
        39.200
  19551595.914   104515365.459 7        46.000    19551599.906    81289149.290 9
        46.600
  20632314.078   110098398.951 8        51.600    20632316.926    85631874.736 8
        40.500
  24003977.570   128180030.987 4        38.600    24003980.531    99695536.535 8
        37.300
  21579874.781   115032909.739 5        40.800    21579880.969    89470090.826 8
        35.200
  21962513.063   117360972.851 7        45.100    21962518.965    91280849.444 8
        39.700
  21599056.961   115499768.746 6        43.000    21599063.285    89833259.979 9
        43.900
  20241707.445   108317519.014 8        50.800    20241711.715    84246966.416 9
        47.100
  22542726.664   120334821.252 7        45.500    22542731.844    93593600.733 9
        42.400
 15 11 13 15 17  0.0000000  0 20G01G02G03G06G07G09G17G23G25G31G32R04
                                R05R06R13R14R15R20R21R22
  25431203.945   133641812.052 3        36.000    25431214.813   104136511.005 5
        16.900
  23641996.000   124239582.339 6        42.200    23641998.906    96810104.012 7
        29.800
  22332250.078   117356725.887 6        46.500    22332257.520    91446908.561 8
        35.600
  20901460.164   109837901.438 7        50.700    20901466.699    85588092.444 9
        41.900
  25043391.977   131603967.882 5        39.700    25043399.535   102548599.487 6
        19.900
  20713725.523   108851472.101 8        52.800    20713730.570    84819412.274 9
        41.900
  23868458.852   125429562.575 6        44.300    23868465.125    97737332.074 7
        28.300
  20748304.242   109033176.910 7        51.200    20748306.316    84960967.844 8
        40.900
  25721119.953   135165381.359 5        41.000    25721126.000   105323736.172 5
        17.400
  25139147.672   132106997.963 6        45.700    25139152.313   102940690.600 6
        25.600
  25823137.992   135701539.421 2        33.200

  22830385.258   122255985.255 6        42.800    22830389.098    95087843.496 8
        39.500
  19558410.258   104551792.350 7        46.400    19558413.973    81317481.328 9
        46.800
  20618670.445   110025593.785 8        51.600    20618672.961    85575248.535 8
        40.900
  24022615.156   128279564.696 4        38.300    24022620.094    99772951.859 8
        37.100
  21579513.258   115030986.134 6        42.000    21579520.109    89468594.709 8
        36.200
  21944692.320   117265743.120 6        44.900    21944697.879    91206782.003 8
        39.200
  21620883.164   115616476.916 6        43.100    21620889.813    89924032.946 9
        44.400
  20243927.047   108329394.307 8        50.900    20243931.328    84256202.776 9
        46.800
  22524283.352   120236368.976 6        44.800    22524288.012    93517026.791 9
        42.400
 15 11 13 15 17 30.0000000  0 21G01G02G03G06G07G09G17G23G25G26G31G32
                                R04R05R06R13R14R15R20R21R22
  25453054.859   133756638.582 3        35.700    25453065.504   104225986.098 5
        17.800
  23624117.203   124145630.890 6        42.200    23624120.629    96736895.151 7
        27.900
  22347748.352   117438170.593 6        45.300    22347755.750    91510371.935 8
        35.400
  20894337.352   109800471.608 7        51.400    20894344.109    85558926.380 9
        42.600
  25022721.367   131495346.407 4        38.400    25022729.746   102463959.580 6
        19.300
  20704039.070   108800568.194 8        52.200    20704043.563    84779746.923 9
        42.300
  23886682.102   125525329.182 6        44.100    23886690.168    97811955.327 7
        28.700
  20752660.703   109056068.315 7        50.700    20752662.570    84978805.312 9
        41.300
  25730086.609   135212508.440 5        39.200    25730093.617   105360458.583 5
        16.900
  25784615.266   135499079.19812        33.900

  25155980.648   132195456.468 6        44.100    25155984.816   103009619.409 6
        25.200
  25842196.141   135801686.685 3        35.500

  22849823.797   122360080.632 6        44.300    22849828.023    95168806.582 8
        38.700
  19565301.602   104588629.429 7        45.800    19565305.273    81346132.404 9
        47.000
  20605087.156   109953112.548 8        52.100    20605089.563    85518874.289 8
        40.600
  24041344.930   128379577.778 4        38.100    24041348.352    99850739.947 8
        36.500
  21579309.398   115029902.807 5        40.700    21579317.344    89467752.131 8
        36.000
  21926971.758   117171055.095 6        44.300    21926978.105    91133135.864 8
        39.100
  21642786.477   115733606.113 6        42.900    21642793.047    90015133.385 9
        44.200
  20246306.398   108342125.709 8        52.600    20246310.055    84266104.984 9
        46.700
  22505938.852   120138440.583 7        45.400    22505943.426    93440860.339 9
        42.600
 15 11 13 15 18  0.0000000  0 20G01G02G03G06G07G09G17G23G25G31G32R04
                                R05R06R13R14R15R20R21R22
  25474908.297   133871482.858 3        35.700    25474919.453   104315475.066 6
        18.300
  23606277.469   124051883.125 5        41.900    23606281.641    96663845.037 7
        27.900
  22363287.086   117519829.180 6        44.300    22363294.957    91574001.969 8
        35.100
  20887315.453   109763571.439 7        50.400    20887322.035    85530173.045 9
        42.000
  25002045.820   131386692.418 5        40.800    25002053.211   102379294.242 6
        20.100
  20694441.133   108750132.227 8        52.700    20694446.406    84740446.200 9
        42.600
  23904942.773   125621288.100 6        44.400    23904950.148    97886728.434 7
        28.900
  20757103.484   109079415.098 7        51.200    20757105.395    84996997.604 9
        41.200
  25739147.070   135260119.199 4        39.000    25739154.227   105397557.910 6
        19.000
  25172874.859   132284237.739 6        45.400    25172879.469   103078799.722 6
        24.600
  25861247.469   135901816.58911        31.200

  22869278.523   122464255.483 6        43.600    22869282.672    95249831.452 8
        39.500
  19572269.484   104625875.357 7        46.000    19572273.148    81375101.473 9
        47.000
  20591564.883   109880956.607 8        51.700    20591567.957    85462753.040 8
        40.700
  24060161.344   128480066.163 3        36.900    24060166.043    99928897.689 8
        35.900
  21579264.352   115029660.161 6        41.700    21579271.574    89467563.418 8
        37.000
  21909353.813   117076912.441 6        44.600    21909360.902    91059913.916 8
        40.000
  21664767.383   115851151.437 6        42.900    21664775.176    90106557.484 9
        44.900
  20248843.906   108355712.638 8        51.400    20248848.875    84276672.601 9
        47.200
  22487690.633   120041039.675 6        44.900    22487696.426    93365104.161 9
        42.400
 15 11 13 15 18 30.0000000  0 21G01G02G03G06G07G09G17G23G25G26G31G32
                                R04R05R06R13R14R15R20R21R22
  25496766.141   133986342.825 3        35.100    25496776.984   104404976.272 5
        16.900
  23588476.992   123958340.961 6        42.200    23588481.152    96590955.136 7
        28.900
  22378867.063   117601700.453 6        44.400    22378874.305    91637797.736 8
        34.900
  20880394.328   109727202.228 7        50.500    20880401.750    85501833.437 9
        42.100
  24981364.172   131278008.203 5        40.800    24981373.383   102294605.391 6
        19.900
  20684932.477   108700164.581 7        51.600    20684938.094    84701510.402 9
        42.400
  23923238.672   125717436.082 6        44.100    23923245.652    97961648.855 7
        26.800
  20761632.461   109103216.039 7        50.900    20761633.672    85015543.785 9
        41.100
  25748297.977   135308211.069 5        42.000    25748306.211   105435032.104 6
        20.100
  25759704.508   135368172.488 2        34.100

  25189830.742   132373338.932 6        44.200    25189834.484   103148229.362 6
        24.500
  25880300.438   136001928.462 2        34.600

  22888746.922   122568508.489 6        45.000    22888751.348    95330917.114 8
        39.600
  19579312.734   104663528.401 7        46.300    19579316.641    81404387.171 9
        47.500
  20578103.922   109809126.590 8        51.900    20578107.844    85406885.289 8
        40.900
  24079067.609   128581025.394 4        37.700    24079072.398   100007421.642 8
        36.000
  21579376.859   115030257.793 6        42.600    21579383.590    89468028.257 8
        36.900
  21891839.438   116983320.041 6        44.300    21891846.953    90987119.969 8
        40.200
  21686828.539   115969108.367 6        42.800    21686832.707    90198301.700 9
        43.700
  20251543.422   108370154.103 8        52.300    20251547.891    84287904.838 9
        46.800
  22469544.227   119944170.098 6        44.500    22469549.527    93289761.217 9
        42.100
 15 11 13 15 19  0.0000000  0 21G01G02G03G06G07G09G17G23G25G26G31G32
                                R04R05R06R13R14R15R20R21R22
  25518624.930   134101216.878 2        34.800    25518636.875   104494488.492 5
        15.600
  23570716.063   123865007.211 6        42.300    23570719.895    96518227.624 7
        29.400
  22394487.133   117683783.660 6        45.800    22394494.645    91701758.629 8
        35.200
  20873575.203   109691365.812 7        50.500    20873581.742    85473908.981 9
        42.600
  24960676.422   131169296.528 5        41.000    24960685.344   102209895.112 6
        19.600
  20675512.977   108650666.289 8        52.100    20675518.750    84662940.346 9
        42.700
  23941570.359   125813770.028 6        44.900    23941577.496    98036714.195 7
        26.900
  20766248.063   109127470.597 7        50.800    20766249.594    85034443.437 9
        41.100
  25757541.875   135356782.342 5        39.900    25757548.730   105472880.013 5
        14.800
  25747343.727   135303213.812 1        30.500

  25206845.281   132462757.605 6        43.500    25206850.441   103217906.436 6
        22.600
  25899347.141   136102021.550 2        33.200

  22908230.133   122672838.504 7        45.700    22908234.629    95412062.666 8
        39.800
  19586433.281   104701587.983 7        46.700    19586436.094    81433989.072 9
        47.300
  20564704.680   109737622.904 8        51.300    20564707.770    85351271.338 9
        41.400
  24098062.820   128682451.857 4        38.200    24098065.855   100086308.984 8
        35.200
  21579645.625   115031696.366 6        42.000    21579653.941    89469147.121 8
        37.400
  21874429.039   116890282.552 7        45.100    21874435.781    90914757.615 8
        40.400
  21708961.305   116087473.210 6        42.600    21708967.570    90290363.186 9
        43.700
  20254402.055   108385449.797 8        51.900    20254406.047    84299801.489 9
        46.800
  22451497.734   119847835.913 6        45.000    22451502.410    93214834.688 9
        41.800
 15 11 13 15 19 30.0000000  0 20G01G02G03G06G07G09G17G23G25G31G32R04
                                R05R06R13R14R15R20R21R22
  25540489.234   134216103.112 2        34.500    25540499.723   104584010.127 5
        15.600
  23552995.961   123771883.498 6        43.200    23552999.000    96445663.787 7
        29.500
  22410147.094   117766077.825 6        45.800    22410154.801    91765883.922 8
        35.400
  20866857.445   109656063.658 7        50.900    20866864.301    85446400.840 9
        42.900
  24939985.070   131060559.899 6        42.100    24939993.422   102125165.317 6
        20.900
  20666182.914   108601637.997 7        51.600    20666189.477    84624736.528 9
        42.900
  23959937.820   125910286.771 6        44.500    23959943.426    98111921.978 7
        26.400
  20770949.398   109152177.444 7        50.100    20770951.359    85053695.520 8
        40.600
  25766874.539   135405831.232 3        36.400    25766882.438   105511099.865 5
        13.900
  25223921.398   132552490.750 6        44.400    25223926.125   103287828.486 6
        22.800
  25918391.102   136202095.579 2        33.100

  22927727.641   122777244.263 7        46.500    22927731.383    95493267.110 8
        39.300
  19593627.953   104740052.613 7        46.800    19593631.773    81463905.999 9
        47.000
  20551366.117   109666446.980 8        51.400    20551369.266    85295912.342 8
        40.700
  24117142.516   128784341.117 4        37.100    24117146.512   100165556.285 8
        34.900
  21580074.477   115033975.637 6        41.300    21580080.996    89470919.877 8
        36.800
  21857122.922   116797803.597 7        45.300    21857129.180    90842829.662 8
        40.900
  21731171.438   116206241.374 6        41.700    21731177.980    90382738.380 9
        44.000
  20257419.523   108401599.066 8        51.600    20257423.410    84312362.039 9
        46.700
  22433553.023   119752040.982 6        44.100    22433557.629    93140327.568 9
        41.700
 15 11 13 15 20  0.0000000  0 21G01G02G03G06G07G09G17G23G25G26G31G32
                                R04R05R06R13R14R15R20R21R22
  25562351.391   134331000.139 4        37.500    25562362.559   104673540.243 5
        16.900
  23535315.344   123678972.237 6        43.000    23535318.703    96373265.468 7
        29.700
  22425847.102   117848582.035 6        45.800    22425855.090    91830172.878 8
        35.100
  20860241.195   109621297.426 7        50.300    20860248.172    85419310.301 9
        42.100
  24919288.352   130951800.642 5        41.700    24919295.496   102040417.905 6
        19.600
  20656943.094   108553080.437 8        52.300    20656949.039    84586899.515 9
        43.300
  23978338.148   126006983.345 6        44.500    23978345.152    98187269.890 7
        26.700
  20775736.531   109177335.403 7        50.500    20775738.840    85073299.126 8
        40.000
  25776299.211   135455355.914 4        39.000    25776306.391   105549690.635 6
        18.300
  25722813.102   135174300.745 2        33.200

  25241056.320   132642535.894 6        43.100    25241061.469   103357993.716 6
        22.200
  25937429.961   136302149.920 2        33.700

  22947237.906   122881724.835 7        46.700    22947242.215    95574529.781 8
        38.900
  19600898.977   104778921.430 7        45.800    19600903.480    81494137.311 9
        47.300
  20538089.266   109595599.232 8        52.400    20538092.078    85240808.596 9
        41.400
  24136309.117   128886689.482 3        35.700    24136313.121   100245160.648 8
        34.600
  21580658.047   115037096.218 5        40.800    21580666.652    89473346.992 8
        35.800
  21839922.055   116705887.558 7        45.800    21839928.031    90771339.538 8
        40.600
  21753456.625   116325408.799 6        42.400    21753463.211    90475424.102 9
        44.400
  20260596.938   108418601.206 8        51.600    20260600.840    84325585.927 9
        47.000
  22415708.375   119656789.492 6        44.200    22415712.656    93066243.164 8
        41.000
 15 11 13 15 20 30.0000000  0 21G01G02G03G06G07G09G17G23G25G26G31G32
                                R04R05R06R13R14R15R20R21R22
  25584217.727   134445906.140 2        33.800    25584229.156   104763077.308 5
        15.600
  23517676.039   123586276.279 6        43.800    23517679.109    96301034.934 7
        30.100
  22441587.406   117931295.653 6        45.900    22441594.523    91894625.012 8
        35.200
  20853727.938   109587068.960 7        51.300    20853734.238    85392638.789 9
        42.000
  24898588.664   130843021.783 6        42.200    24898596.094   101955655.216 6
        19.600
  20647792.523   108504994.674 7        52.000    20647798.691    84549430.120 9
        42.700
  23996772.742   126103856.701 6        44.000    23996780.113    98262755.560 7
        26.200
  20780609.867   109202943.599 7        51.100    20780611.902    85093253.572 8
        40.900
  25785813.711   135505353.973 5        39.500    25785820.770   105588650.229 5
        17.400
  25710643.742   135110351.207 3        36.000    25710650.668   105280820.354 5
        16.900
  25258250.180   132732890.448 6        43.000    25258254.145   103428400.007 6
        23.300
  25956465.086   136402184.234 1        30.800

  22966761.945   122986279.418 7        45.600    22966766.391    95655850.032 8
        39.300
  19608246.211   104818193.550 7        46.600    19608250.250    81524682.288 9
        47.600
  20524874.305   109525080.519 8        52.600    20524877.320    85185960.758 9
        41.200
  24155561.258   128989492.979 3        36.100    24155566.273   100325119.042 8
        35.400
  21581402.156   115041057.590 5        41.000    21581409.441    89476428.051 8
        36.500
  21822827.266   116614538.482 7        46.700    21822834.160    90700290.344 9
        41.200
  21775815.211   116444971.238 6        41.600    21775822.418    90568417.049 9
        44.100
  20263933.492   108436455.745 8        51.900    20263938.109    84339472.793 9
        47.600
  22397966.391   119562085.278 6        43.400    22397971.488    92992584.411 8
        40.500
 15 11 13 15 21  0.0000000  0 20G01G02G03G06G07G09G17G23G26G31G32R04
                                R05R06R13R14R15R20R21R22
  25606086.234   134560819.287 3        36.600    25606095.895   104852619.900 5
        15.600
  23500077.711   123493797.526 6        43.400    23500081.008    96228973.620 7
        30.400
  22457367.016   118014217.834 6        46.600    22457374.039    91959239.670 8
        35.400
  20847316.992   109553379.813 7        50.600    20847323.832    85366387.535 9
        42.000
  24877885.133   130734225.466 5        39.500    24877893.141   101870878.901 6
        20.600
  20638732.008   108457381.420 7        51.900    20638738.504    84512328.925 9
        43.000
  24015239.516   126200904.113 6        43.700    24015247.574    98338376.802 7
        26.200
  20785568.453   109229001.095 7        50.700    20785570.469    85113558.119 8
        40.800
  25698537.867   135046743.216 3        35.200    25698546.242   105231255.577 5
        15.600
  25275501.789   132823551.741 6        42.300    25275506.688   103499045.355 6
        23.900
  25975496.367   136502198.443 1        31.000

  22986300.742   123090906.792 7        45.300    22986306.094    95737226.828 8
        40.200
  19615668.500   104857868.004 7        46.400    19615671.531    81555540.185 9
        47.600
  20511720.906   109454892.557 8        52.300    20511723.887    85131370.159 9
        41.400
  24174897.398   129092747.730 3        36.600    24174901.926   100405428.456 8
        34.700
  21582303.195   115045860.604 5        41.000    21582310.824    89480163.704 8
        36.100
  21805840.195   116523761.068 7        46.000    21805846.875    90629685.771 9
        41.800
  21798247.750   116564924.728 6        42.000    21798254.145    90661714.132 9
        43.800
  20267428.844   108455162.006 8        51.600    20267433.910    84354022.113 9
        47.000
  22380329.102   119467932.320 6        45.000    22380333.813    92919354.378 8
        40.600
 15 11 13 15 21 30.0000000  0 20G01G02G03G06G07G09G17G23G26G31G32R04
                                R05R06R13R14R15R20R21R22
  25627954.023   134675737.381 2        34.400    25627964.387   104942166.439 5
        16.300
  23482520.930   123401538.243 6        42.400    23482524.727    96157083.327 7
        29.300
  22473186.148   118097347.267 7        48.200    22473192.734    92024015.821 8
        34.800
  20841009.039   109520231.208 7        50.700    20841015.828    85340557.468 9
        42.400
  24857178.219   130625414.617 5        40.800    24857187.270   101786091.291 6
        19.000
  20629761.328   108410241.051 8        52.100    20629767.477    84475596.198 9
        43.500
  24033739.313   126298121.897 6        43.600    24033747.121    98414130.830 6
        24.600
  20790612.391   109255506.506 7        51.300    20790613.871    85134211.695 8
        40.000
  25686499.453   134983479.354 2        34.600    25686507.938   105181959.127 5
        14.800
  25292812.445   132914517.206 6        42.400    25292816.555   103569927.666 6
        22.600
  25994524.891   136602191.195 1        31.500

  23005853.141   123195605.600 7        45.500    23005858.215    95818659.211 8
        40.300
  19623164.219   104897943.027 7        46.500    19623168.805    81586709.653 9
        47.000
  20498629.641   109385035.378 8        52.400    20498632.945    85077036.851 9
        41.200
  24194316.633   129196449.146 3        35.400    24194321.922   100486085.300 8
        35.000
  21583360.680   115051504.304 6        41.300    21583369.305    89484553.237 8
        36.400
  21788959.922   116433558.854 7        47.200    21788966.016    90559528.560 9
        41.900
  21820752.500   116685264.578 6        42.500    21820759.086    90755311.724 9
        44.700
  20271083.742   108474718.720 8        52.700    20271087.895    84369232.885 9
        46.800
  22362795.500   119374334.373 6        43.700    22362799.348    92846556.027 8
        40.000
 15 11 13 15 22  0.0000000  0 20G01G02G03G06G07G09G17G23G26G31G32R04
                                R05R06R13R14R15R20R21R22
  25649823.125   134790659.087 3        35.600    25649833.336   105031715.657 5
        15.600
  23465007.023   123309500.837 6        44.300    23465010.895    96085365.951 7
        29.400
  22489044.813   118180683.203 7        47.800    22489050.840    92088952.897 8
        34.800
  20834804.273   109487624.729 7        50.600    20834811.051    85315149.834 9
        42.700
  24836469.836   130516591.340 5        41.000    24836478.496   101701293.997 6
        20.100
  20620880.961   108363574.351 8        52.300    20620887.070    84439232.564 9
        43.500
  24052271.383   126395507.392 6        43.000    24052279.609    98490015.532 6
        25.800
  20795741.023   109282458.437 7        50.500    20795742.785    85155213.227 8
        40.400
  25674528.688   134920562.063 3        35.700    25674535.164   105132932.638 5
        15.600
  25310179.406   133005783.709 6        42.700    25310183.887   103641044.536 6
        23.000
  26013548.750   136702162.222 1        31.000

  23025418.031   123300374.753 7        45.600    23025421.824    95900146.298 8
        39.200
  19630736.586   104938417.961 7        46.800    19630740.086    81618190.147 9
        47.800
  20485599.914   109315510.012 8        51.000    20485603.711    85022961.622 8
        40.700
  24213820.766   129300593.233 3        35.800    24213825.039   100567086.338 8
        34.700
  21584578.648   115057989.215 6        41.100    21584585.762    89489597.047 8
        35.800
  21772188.516   116343936.814 7        46.900    21772194.293    90489822.581 9
        41.600
  21843327.172   116805986.419 6        43.200    21843335.297    90849206.428 9
        44.200
  20274897.602   108495125.366 8        52.600    20274901.910    84385104.713 9
        46.800
  22345366.047   119281295.307 6        44.500    22345369.512    92774192.391 8
        39.900
 15 11 13 15 22 30.0000000  0 19G01G02G03G06G07G09G17G23G31G32R04R05
                                R06R13R14R15R20R21R22
  25671691.664   134905582.212 3        36.900    25671702.691   105121266.043 6
        18.300
  23447534.992   123217687.194 6        44.300    23447539.285    96013822.924 7
        29.300
  22504942.133   118264224.316 7        48.800    22504948.250    92154049.842 8
        35.500
  20828702.422   109455561.592 7        50.300    20828709.914    85290165.581 9
        41.600
  24815759.016   130407757.757 5        39.600    24815768.188   101616488.618 6
        20.100
  20612091.250   108317381.606 8        52.700    20612096.773    84403238.243 9
        42.900
  24070834.844   126493057.065 6        43.200    24070842.543    98566028.178 6
        25.800
  20800954.758   109309855.556 7        51.800    20800956.313    85176561.645 8
        40.000
  25327604.133   133097348.703 5        40.800    25327608.160   103712393.960 6
        20.400
  26032567.625   136802110.295 1        31.300

  23044995.070   123405212.864 6        43.800    23045000.383    95981687.044 8
        38.300
  19638382.859   104979291.136 7        46.400    19638387.234    81649980.397 9
        47.600
  20472633.422   109246316.746 8        50.400    20472636.953    84969144.678 9
        41.300
  24233404.430   129405175.755 3        36.400    24233409.500   100648428.530 8
        35.000
  21585952.820   115065314.606 5        40.900    21585960.406    89495294.568 8
        36.100
  21755524.727   116254898.836 7        47.200    21755531.273    90420570.858 9
        42.000
  21865974.500   116927085.743 6        42.900    21865980.289    90943394.706 9
        43.500
  20278868.719   108516380.453 8        51.400    20278873.348    84401636.434 9
        46.600
  22328041.422   119188818.439 6        45.000    22328046.008    92702265.980 8
        39.000
 15 11 13 15 23  0.0000000  0 20G01G02G03G06G07G09G17G23G26G31G32R04
                                R05R06R13R14R15R20R21R22
  25693561.938   135020505.927 2        34.800    25693572.004   105210816.877 5
        15.600
  23430106.586   123126100.459 6        43.300    23430110.398    95942456.695 7
        29.300
  22520878.430   118347970.470 7        48.400    22520884.449    92219306.563 8
        35.500
  20822705.063   109424043.940 7        50.000    20822711.926    85265606.383 9
        42.200
  24795048.422   130298917.410 5        39.400    24795056.402   101531678.033 6
        20.100
  20603391.266   108271664.252 7        52.000    20603397.117    84367614.349 9
        43.400
  24089428.641   126590768.273 6        42.900    24089436.270    98642166.660 6
        25.600
  20806252.789   109337697.495 7        50.800    20806254.895    85198256.677 8
        40.800
  25650783.781   134795806.552 1        33.000

  25345084.313   133189210.037 5        39.800    25345088.852   103783974.359 6
        21.700
  26051583.016   136902036.702 1        31.000

  23064585.750   123510119.775 6        43.700    23064591.051    96063281.260 8
        38.800
  19646103.586   105020562.096 7        45.600    19646107.816    81682080.036 9
        47.400
  20459729.813   109177457.467 8        50.900    20459733.094    84915587.522 9
        41.500
  24253071.547   129510193.484 3        35.700    24253075.500   100730109.307 8
        35.600
  21587484.219   115073481.118 6        41.400    21587492.660    89501646.306 8
        36.500
  21738973.234   116166448.703 7        46.600    21738979.465    90351776.333 9
        42.500
  21888690.547   117048558.908 6        43.000    21888696.578    91037873.766 9
        44.200
  20282999.570   108538483.852 8        51.700    20283003.902    84418827.953 9
        46.300
  22310823.945   119096908.653 7        45.900    22310827.578    92630780.640 8
        38.600
 15 11 13 15 23 30.0000000  0 20G01G02G03G06G07G09G17G23G26G31G32R04
                                R05R06R13R14R15R20R21R22
  25715430.430   135135427.944 4        37.100    25715441.031   105300366.344 6
        18.300
  23412721.711   123034742.149 6        44.500    23412725.563    95871268.475 7
        29.500
  22536853.578   118431920.285 7        48.700    22536859.902    92284721.979 8
        35.200
  20816811.805   109393072.887 7        50.200    20816819.078    85241473.100 9
        42.400
  24774336.234   130190072.130 5        40.400    24774344.141   101446863.687 6
        21.800
  20594781.773   108226422.418 8        52.100    20594787.691    84332360.999 9
        43.000
  24108053.297   126688637.794 6        43.400    24108060.137    98718428.534 6
        25.400
  20811635.563   109365982.491 7        51.500    20811636.949    85220296.949 8
        40.600
  25639008.844   134733944.979 1        32.900

  25362621.820   133281364.653 5        41.100    25362625.063   103855783.245 6
        20.400
  26070594.070   137001940.565 1        32.900    26070597.637   106754739.407 5
        13.900
  23084189.000   123615093.693 6        44.000    23084193.473    96144927.650 8
        38.900
  19653897.695   105062229.279 6        45.000    19653902.473    81714487.843 9
        47.000
  20446888.070   109108932.237 8        51.500    20446890.773    84862290.168 9
        41.100
  24272818.680   129615641.507 3        35.600    24272822.074   100812124.655 8
        34.600
  21589174.125   115082487.524 6        41.100    21589181.813    89508651.301 8
        36.700
  21722532.477   116078591.889 7        46.700    21722538.633    90283443.283 9
        41.900
  21911475.328   117170401.519 6        42.400    21911481.965    91132640.169 9
        43.700
  20287289.055   108561434.105 8        51.500    20287292.824    84436678.150 9
        46.800
  22293712.969   119005569.139 7        46.400    22293717.012    92559738.827 8
        38.600
 15 11 13 15 24  0.0000000  0 19G01G02G03G06G07G09G17G23G26G31R04R05
                                R06R13R14R15R20R21R22
  25737298.891   135250347.081 3        36.500    25737309.766   105389913.525 5
        17.400
  23395381.125   122943615.120 6        43.900    23395384.563    95800260.465 7
        29.100
  22552867.289   118516073.301 7        48.500    22552874.219    92350295.739 8
        34.800
  20811022.070   109362650.242 7        49.100    20811029.492    85217767.146 9
        42.600
  24753622.359   130081225.102 5        40.900    24753631.348   101362048.014 6
        22.200
  20586263.148   108181657.229 8        52.600    20586269.137    84297479.052 9
        42.500
  24126705.891   126786663.113 6        43.000    24126713.840    98794811.776 6
        23.300
  20817102.156   109394709.858 7        51.400    20817104.070    85242681.930 8
        41.000
  25627306.148   134672441.088 2        34.200

  25380212.586   133373810.274 5        39.200    25380215.863   103927818.943 6
        21.300
  23103804.828   123720134.014 6        43.100    23103809.488    96226625.654 8
        38.600
  19661766.039   105104292.132 6        45.000    19661770.859    81747203.398 9
        47.800
  20434109.688   109040742.506 8        52.500    20434112.004    84809253.766 9
        41.200
  24292644.953   129721516.772 2        33.700    24292648.785   100894472.359 8
        35.700
  21591022.188   115092334.491 6        41.100    21591029.875    89516310.065 8
        37.100
  21706202.898   115991332.766 7        47.000    21706209.992    90215575.134 9
        42.900
  21934328.750   117292609.367 6        42.000    21934334.809    91227690.637 9
        43.600
  20291737.102   108585230.619 8        52.600    20291739.754    84455186.542 9
        46.200
  22276709.086   118914804.255 7        46.400    22276712.805    92489143.955 8
        37.900
 15 11 13 15 24 30.0000000  0 18G01G02G03G06G07G09G17G23G31R04R05R06
                                R13R14R15R20R21R22
  25759166.766   135365261.219 2        34.500    25759177.965   105479456.882 5
        15.600
  23378084.094   122852721.317 6        43.100    23378087.504    95729434.187 7
        28.600
  22568919.344   118600428.060 7        48.200    22568926.680    92416026.704 8
        35.400
  20805337.563   109332777.010 7        50.900    20805345.023    85194489.320 9
        43.400
  24732910.203   129972378.504 6        42.700    24732918.105   101277232.706 6
        22.300
  20577835.352   108137368.741 7        52.000    20577841.051    84262968.572 9
        43.000
  24145389.281   126884840.484 6        42.800    24145396.504    98871313.527 6
        25.900
  20822652.500   109423877.940 7        51.100    20822653.949    85265410.310 8
        40.700
  25397858.703   133466543.686 4        39.000    25397862.781   104000078.919 6
        20.900
  23123432.156   123825239.397 6        42.200    23123436.613    96308374.264 8
        38.900
  19669709.328   105146748.939 7        45.700    19669713.277    81780225.365 9
        47.600
  20421394.281   108972888.724 9        53.100    20421396.551    84756478.673 9
        41.700
  24312550.875   129827814.080 3        36.000    24312554.332   100977148.249 8
        35.700
  21593026.391   115103021.163 5        40.500    21593033.980    89524621.928 8
        36.900
  21689985.539   115904674.360 7        46.900    21689992.363    90148174.206 9
        42.600
  21957249.164   117415177.824 6        41.600    21957256.422    91323021.607 9
        43.500
  20296340.648   108609871.795 8        52.200    20296343.660    84474351.904 9
        46.400
  22259814.820   118824617.306 7        46.200    22259818.086    92418998.572 8
        38.500
 15 11 13 15 25  0.0000000  0 18G01G02G03G06G07G09G17G23G31R04R05R06
                                R13R14R15R20R21R22
  25781032.406   135480168.790 4        38.900    25781044.660   105568995.024 6
        19.600
  23360832.328   122762063.102 6        42.700    23360836.293    95658791.511 7
        28.900
  22585009.680   118684983.825 7        48.500    22585017.035    92481914.286 8
        35.000
  20799757.727   109303454.730 7        50.600    20799765.344    85171640.791 9
        42.700
  24712196.984   129863534.770 5        41.600    24712206.113   101192419.708 6
        21.800
  20569498.156   108093557.788 7        51.800    20569504.188    84228830.192 9
        43.200
  24164100.070   126983166.765 6        42.100    24164107.859    98947931.286 6
        24.600
  20828286.555   109453485.574 7        51.000    20828289.000    85288481.203 8
        40.400
  25415559.547   133559562.362 4        38.200    25415562.965   104072561.140 6
        19.600
  23143071.695   123930408.525 6        41.500    23143075.547    96390172.472 8
        37.100
  19677725.422   105189598.676 7        46.400    19677728.902    81813552.935 9
        48.100
  20408740.594   108905371.651 8        52.400    20408743.297    84703965.442 8
        41.000
  24332534.797   129934529.434 2        34.400    24332538.215   101060149.320 8
        34.900
  21595189.078   115114547.603 5        40.700    21595196.484    89533586.982 8
        36.300
  21673882.055   115818621.690 7        46.700    21673888.711    90081244.412 9
        42.500
  21980238.563   117538102.677 6        42.200    21980243.871    91418629.754 9
        43.500
  20301102.547   108635356.663 8        52.000    20301106.242    84494173.473 9
        45.800
  22243028.898   118735012.117 7        47.200    22243030.902    92349305.668 8
        37.200
 15 11 13 15 25 30.0000000  0 19G01G02G03G06G07G09G17G23G26G31R04R05
                                R06R13R14R15R20R21R22
  25802897.266   135595067.720 4        38.500    25802909.164   105658526.485 5
        17.400
  23343625.633   122671642.912 5        40.900    23343629.016    95588334.316 7
        30.500
  22601138.242   118769739.471 7        48.500    22601145.680    92547957.620 8
        34.700
  20794283.289   109274684.681 7        50.400    20794290.418    85149222.584 9
        43.400
  24691485.828   129754696.574 6        42.700    24691493.844   101107611.006 6
        21.800
  20561252.234   108050224.695 8        52.100    20561258.586    84195064.168 9
        43.300
  24182838.336   127081638.839 6        42.400    24182846.801    99024662.644 6
        25.200
  20834003.938   109483531.361 7        50.900    20834006.320    85311893.496 8
        40.600
  25592607.039   134490097.327 3        35.400    25592613.664   104797474.875 5
        16.300
  25433313.742   133652863.394 3        36.400    25433318.016   104145263.340 6
        19.300
  23162722.930   124035640.628 6        41.100    23162727.625    96472019.610 8
        37.000
  19685814.195   105232839.976 7        45.800    19685818.773    81847185.064 9
        48.300
  20396150.781   108838192.217 8        52.100    20396153.316    84651714.824 8
        40.600
  24352594.859   130041658.708 2        34.600    24352599.219   101143472.266 8
        33.600
  21597506.758   115126912.619 5        40.900    21597515.461    89543204.230 8
        36.000
  21657891.992   115733178.158 7        46.700    21657898.563    90014788.410 9
        42.800
  22003290.977   117661379.452 6        41.900    22003297.191    91514511.630 9
        43.600
  20306022.492   108661683.925 8        51.000    20306027.215    84514650.221 9
        46.600
  22226352.141   118645992.378 7        47.200    22226355.863    92280068.096 8
        38.100
 15 11 13 15 26  0.0000000  0 19G01G02G03G06G07G09G17G23G31R04R05R06
                                R07R13R14R15R20R21R22
  25824759.797   135709957.329 4        37.400    25824772.227   105748050.721 5
        17.400
  23326464.969   122581462.917 6        42.200    23326468.793    95518064.285 7
        30.000
  22617304.141   118854694.412 7        47.400    22617311.359    92614156.241 8
        34.500
  20788913.773   109246468.499 7        49.800    20788920.859    85127235.963 9
        42.900
  24670776.609   129645866.580 6        43.700    24670784.477   101022808.788 6
        24.000
  20553097.023   108007370.374 7        51.900    20553103.816    84161671.214 9
        42.900
  24201604.438   127180254.180 6        43.400    24201612.109    99101505.647 6
        24.400
  20839804.617   109514014.391 7        50.300    20839806.887    85335646.513 8
        39.300
  25451121.813   133746444.555 3        36.000    25451125.500   104218183.936 6
        18.300
  23182385.508   124140934.530 6        41.600    23182390.031    96553914.872 8
        36.500
  19693976.625   105276472.319 7        45.800    19693981.258    81881121.345 9
        47.200
  20383625.023   108771351.457 8        52.500    20383627.352    84599727.604 8
        40.200
  24508322.945   131195089.818 4        37.700    24508331.223   102040565.612 8
        34.100
  24372733.938   130149197.921 2        33.400    24372738.672   101227113.977 8
        35.600
  21599985.492   115140116.451 6        41.500    21599993.695    89553473.909 8
        36.400
  21642017.594   115648348.136 7        45.800    21642023.961    89948809.573 9
        42.000
  22026409.352   117785004.003 6        42.800    22026416.289    91610664.003 9
        43.200
  20311099.969   108688852.619 8        51.400    20311104.383    84535781.429 9
        45.900
  22209785.734   118557562.323 7        47.000    22209789.508    92211289.197 8
        37.900
 15 11 13 15 26 30.0000000  0 20G01G02G03G06G07G09G17G23G26G31R04R05
                                R06R07R13R14R15R20R21R22
  25846620.961   135824835.901 2        33.900    25846632.375   105837566.341 5
        14.800
  23309350.773   122491525.740 6        42.400    23309353.898    95447983.440 7
        30.200
  22633508.727   118939847.793 7        47.300    22633515.336    92680509.491 7
        32.900
  20783650.484   109218807.648 7        49.400    20783657.266    85105682.073 9
        42.500
  24650067.891   129537046.966 6        43.000    24650075.879   100938014.643 6
        22.800
  20545033.859   107964995.487 7        51.800    20545040.578    84128651.862 9
        43.200
  24220398.016   127279009.801 6        43.900    24220404.480    99178457.956 6
        22.600
  20845688.094   109544933.618 7        49.600    20845690.379    85359739.419 8
        39.700
  25569822.938   134370367.123 2        34.600    25569830.660   104704178.648 5
        16.300
  25468983.266   133840303.145 3        37.000    25468986.027   104291320.628 6
        19.300
  23202060.531   124246289.538 6        42.500    23202065.398    96635857.666 8
        37.400
  19702212.258   105320494.398 7        46.100    19702216.063    81915360.738 9
        47.800
  20371162.688   108704849.993 8        52.900    20371165.004    84548004.302 8
        40.600
  24488316.375   131088008.636 4        37.400    24488326.750   101957280.474 7
        32.800
  24392948.523   130257143.508 2        33.500    24392952.477   101311071.889 8
        33.600
  21602618.234   115154158.477 5        40.700    21602626.906    89564395.526 8
        36.700
  21626257.961   115564135.693 7        45.600    21626264.340    89883311.086 9
        42.000
  22049592.305   117908972.314 6        42.100    22049599.582    91707083.737 9
        43.600
  20316333.664   108716861.509 8        50.800    20316338.266    84557566.118 9
        46.200
  22193330.281   118469725.563 7        46.400    22193334.727    92142971.724 8
        39.800
 15 11 13 15 27  0.0000000  0 20G01G02G03G06G07G09G17G23G26G31R04R05
                                R06R07R13R14R15R20R21R22
  25868480.789   135939700.833 1        30.300

  23292282.422   122401833.443 6        42.900    23292285.836    95378093.423 7
        29.100
  22649750.164   119025198.408 6        46.500    22649756.859    92747016.419 8
        34.200
  20778492.070   109191703.237 7        49.800    20778499.508    85084561.769 9
        42.900
  24629361.773   129428240.563 5        40.800    24629370.199   100853230.753 6
        21.700
  20537060.961   107923100.274 8        52.200    20537067.426    84096006.268 9
        43.700
  24239216.055   127377902.161 6        43.800    24239223.066    99255516.844 6
        24.700
  20851654.727   109576287.309 7        49.900    20851657.051    85384170.872 8
        39.500
  25558537.805   134311059.392 1        32.800    25558545.852   104657964.817 5
        15.600
  25486895.039   133934436.250 3        36.300    25486899.051   104364671.305 6
        20.100
  23221745.594   124351704.115 6        42.000    23221750.730    96717846.723 8
        36.900
  19710520.023   105364904.805 7        46.200    19710524.387    81949902.164 9
        47.600
  20358764.164   108638688.487 9        53.300    20358766.391    84496545.403 8
        40.400
  24468322.016   130980968.731 5        39.800    24468330.477   101874027.213 7
        32.600
  24413239.516   130365490.858 2        33.700    24413242.840   101395342.267 7
        31.400
  21605412.086   115169038.080 6        41.100    21605419.230    89575968.580 8
        36.500
  21610615.586   115480544.104 7        45.200    21610620.805    89818295.486 9
        42.600
  22072837.727   118033279.659 6        42.100    22072844.105    91803767.159 9
        43.500
  20321725.000   108745709.181 8        51.300    20321729.016    84580003.193 9
        46.800
  22176987.430   118382485.620 7        46.700    22176992.645    92075118.477 8
        40.500
 15 11 13 15 27 30.0000000  0 19G01G02G03G06G07G09G17G23G31R04R05R06
                                R07R13R14R15R20R21R22
  25890334.070   136054551.57311        29.600

  23275261.852   122312388.386 6        42.700    23275264.656    95308396.037 7
        30.200
  22666029.063   119110745.413 7        47.700    22666035.977    92813676.385 8
        33.600
  20773440.430   109165156.602 7        50.000    20773447.992    85063876.093 9
        43.100
  24608661.133   129319449.873 6        43.300    24608667.527   100768459.132 6
        22.900
  20529180.438   107881685.301 8        52.300    20529186.520    84063734.892 9
        43.700
  24258060.516   127476928.416 6        43.600    24258067.488    99332680.078 6
        24.300
  20857703.648   109608074.590 7        50.700    20857705.578    85408940.177 8
        40.400
  25504859.859   134028841.395 4        37.100    25504863.988   104438233.939 6
        19.900
  23241442.227   124457177.540 5        40.600    23241446.266    96799881.618 8
        36.700
  19718899.570   105409702.667 7        46.100    19718904.512    81984744.959 9
        47.300
  20346429.617   108572867.930 8        52.600    20346431.426    84445351.681 8
        40.700
  24448333.156   130873970.928 5        40.800    24448341.973   101790806.782 8
        36.400
  24433602.586   130474236.171 1        32.800    24433606.809   101479922.156 8
        34.400
  21608359.859   115184754.581 6        41.300    21608367.066    89588192.546 8
        36.500
  21595088.055   115397578.115 7        45.600    21595095.301    89753766.479 9
        42.400
  22096146.984   118157921.991 6        41.300    22096153.961    91900711.135 9
        44.000
  20327272.000   108775394.194 8        52.100    20327276.488    84603091.530 9
        46.600
  22160756.953   118295846.278 7        46.400    22160761.945    92007732.341 8
        40.700
 15 11 13 15 28  0.0000000  0 19G02G03G06G07G09G17G23G26G31R04R05R06
                                R07R13R14R15R20R21R22
  23258288.438   122223193.274 6        42.700    23258291.055    95238893.415 7
        29.900
  22682345.820   119196488.423 6        47.000    22682352.848    92880489.081 8
        34.000
  20768494.797   109139169.585 7        49.600    20768502.441    85043626.487 9
        43.000
  24587960.539   129210677.662 5        40.800    24587968.656   100683701.880 6
        21.300
  20521391.266   107840751.603 7        51.900    20521397.055    84031838.532 9
        43.700
  24276929.266   127576086.244 6        43.400    24276936.332    99409945.823 6
        24.300
  20863835.164   109640294.814 7        49.800    20863837.168    85434046.853 8
        40.500
  25536180.688   134193571.694 2        33.200    25536187.832   104566415.923 5
        14.800
  25522874.844   134123516.119 4        37.500    25522880.246   104512006.611 6
        19.000
  23261148.750   124562709.094 6        42.200    23261154.621    96881961.737 8
        37.500
  19727352.055   105454887.081 7        45.800    19727356.859    82019888.406 9
        47.700
  20334159.281   108507389.551 8        52.300    20334161.363    84394424.083 9
        41.200
  24428354.852   130767016.108 6        42.700    24428362.035   101707619.712 8
        35.600
  24454044.266   130583375.741 2        34.000    24454045.324   101564808.749 8
        33.700
  21611465.195   115201308.301 5        39.800    21611472.000    89601067.675 8
        36.700
  21579681.297   115315243.130 6        45.000    21579687.371    89689728.228 9
        42.700
  22119516.078   118282895.309 5        40.900    22119524.824    91997912.511 9
        43.300
  20332975.969   108805915.633 8        51.900    20332980.684    84626830.406 9
        47.100
  22144639.820   118209811.676 7        46.100    22144645.660    91940816.577 9
        41.200
 15 11 13 15 28 30.0000000  0 20G02G03G06G07G09G17G23G26G31R04R05R06
                                R07R13R14R15R16R20R21R22
  23241362.766   122134250.327 6        42.400    23241366.574    95169587.276 7
        29.800
  22698699.047   119282426.203 6        46.700    22698706.465    92947453.546 8
        33.700
  20763657.141   109113743.286 7        49.600    20763663.996    85023813.817 9
        42.800
  24567266.766   129101926.390 6        42.400    24567273.184   100598960.909 6
        22.300
  20513693.102   107800299.451 8        52.900    20513698.891    84000317.407 9
        43.900
  24295823.391   127675371.923 6        42.500    24295829.891    99487311.172 6
        24.300
  20870048.781   109672946.316 7        49.700    20870050.629    85459489.591 8
        40.500
  25525110.836   134135397.206 1        32.500    25525117.363   104521085.139 5
        14.800
  25540942.055   134218457.633 3        35.700    25540946.453   104585987.200 6
        20.900
  23280867.656   124668297.554 6        42.000    23280871.781    96964086.082 8
        36.000
  19735876.430   105500456.870 7        45.900    19735882.250    82055331.577 9
        47.700
  20321952.320   108442253.999 8        52.500    20321954.734    84343763.138 9
        41.700
  24408380.023   130660104.422 4        37.900    24408389.867   101624466.258 8
        37.100
  24474554.055   130692905.108 2        34.300    24474556.859   101649998.400 8
        34.900
  21614726.281   115218697.584 5        40.100    21614734.301    89614592.715 8
        36.600
  21564391.117   115233541.368 7        45.800    21564398.078    89626182.482 9
        43.100
  24679364.180   131832795.145 1        31.000

  22142949.242   118408194.923 6        41.200    22142956.375    92095367.709 9
        44.000
  20338835.695   108837271.881 8        51.400    20338839.594    84651218.601 9
        47.200
  22128636.586   118124385.599 7        46.100    22128642.262    91874374.094 9
        41.800
 15 11 13 15 29  0.0000000  0 20G02G03G06G07G09G17G23G26G31R04R05R06
                                R07R13R14R15R16R20R21R22
  23224485.930   122045562.238 6        43.300    23224489.336    95100479.735 7
        29.900
  22715089.555   119368558.246 7        47.500    22715097.359    93014569.389 8
        33.800
  20758925.313   109088879.250 7        50.800    20758932.609    85004439.270 9
        42.500
  24546575.961   128993199.178 5        41.600    24546583.895   100514238.630 6
        22.200
  20506087.227   107760329.657 8        52.400    20506092.773    83969172.142 9
        43.700
  24314739.758   127774782.662 5        42.000    24314746.813    99564773.974 6
        22.800
  20876343.664   109706027.669 7        51.100    20876345.813    85485267.269 8
        40.900
  25514112.977   134077605.79311        32.300    25514120.078   104476052.88915
        15.600
  25559059.922   134313663.049 3        36.900    25559063.316   104660173.489 6
        18.600
  23300596.492   124773942.372 6        41.400    23300599.488    97046254.291 8
        36.200
  19744474.414   105546411.254 7        45.900    19744478.332    82091073.880 9
        47.600
  20309810.570   108377462.686 8        52.500    20309812.793    84293369.921 9
        41.400
  24388417.359   130553237.814 4        38.800    24388427.512   101541347.884 8
        37.200
  24495134.594   130802820.589 2        33.700    24495139.914   101735488.435 8
        33.300
  21618145.828   115236922.308 6        41.200    21618152.672    89628767.515 8
        35.900
  21549221.023   115152476.858 7        45.600    21549227.223    89563132.374 9
        42.200
  24654440.992   131699659.027 3        35.900    24654449.141   102433059.650 7
        28.500
  22166441.125   118533817.062 6        41.800    22166448.500    92193073.723 9
        43.900
  20344850.688   108869461.765 8        51.400    20344856.039    84676255.171 9
        47.500
  22112748.344   118039571.876 7        46.400    22112753.211    91808407.916 9
        41.500
 15 11 13 15 29 30.0000000  0 20G02G03G06G07G09G17G23G26G31R04R05R06
                                R07R13R14R15R16R20R21R22
  23207657.977   121957130.147 6        42.700    23207661.293    95031571.676 7
        29.400
  22731516.422   119454882.484 6        47.000    22731524.102    93081834.995 8
        33.900
  20754300.719   109064577.674 7        49.200    20754307.676    84985502.993 9
        42.300
  24525890.648   128884497.088 6        43.200    24525897.984   100429535.926 6
        22.200
  20498572.391   107720841.499 8        52.600    20498578.457    83938402.180 9
        43.800
  24333679.906   127874314.561 5        40.800    24333687.563    99642331.188 6
        23.000
  20882720.242   109739536.567 7        49.900    20882722.043    85511378.118 8
        40.100
  25503190.070   134020198.681 1        33.000    25503196.930   104431320.126 5
        14.800
  25577225.938   134409129.260 3        36.400    25577229.258   104734562.982 6
        18.600
  23320333.195   124879641.219 5        40.500    23320337.859    97128464.543 8
        36.500
  19753142.406   105592747.786 7        46.300    19753146.566    82127113.415 9
        47.800
  20297733.320   108313014.776 8        52.300    20297735.809    84243243.794 9
        41.300
  24368462.398   130446415.477 5        39.500    24368471.457   101458263.945 8
        36.300
  24515789.734   130913117.080 1        32.000    24515794.926   101821274.815 7
        33.000
  21621720.570   115255980.788 5        40.000    21621729.168    89643590.781 8
        36.000
  21534170.813   115072053.658 7        45.100    21534177.785    89500581.043 9
        42.300
  24629501.648   131566434.482 3        36.700    24629509.426   102329440.965 7
        32.200
  22189991.977   118659756.231 6        41.600    22189999.711    92291026.319 9
        43.600
  20351021.891   108902482.608 8        51.400    20351026.668    84701938.032 9
        47.300
  22096974.531   117955372.604 7        47.200    22096980.039    91742919.647 9
        41.500
 15 11 13 15 30  0.0000000  0 20G02G03G06G07G09G17G23G26G31R04R05R06
                                R07R13R14R15R16R20R21R22
  23190878.867   121868956.743 6        43.300    23190882.813    94962865.172 7
        29.500
  22747980.172   119541398.439 7        47.500    22747987.699    93149249.997 8
        33.800
  20749783.453   109040840.259 7        49.000    20749790.699    84967006.327 9
        42.400
  24505210.852   128775823.325 6        43.600    24505218.824   100344855.276 6
        24.200
  20491149.867   107681836.030 7        51.900    20491155.785    83908008.345 9
        43.200
  24352643.133   127973965.126 5        39.400    24352651.492    99719980.866 6
        22.200
  20889178.172   109773473.124 7        49.800    20889180.438    85537822.198 8
        41.000
  25492337.766   133963179.056 1        32.200    25492345.883   104386889.227 5
        13.900
  25595440.063   134504853.862 4        37.600    25595444.801   104809153.763 6
        19.900
  23340082.836   124985393.831 6        41.900    23340088.176    97210716.555 8
        38.400
  19761881.656   105639465.759 7        45.800    19761886.590    82163449.627 9
        47.600
  20285720.422   108248912.071 8        52.100    20285723.207    84193386.185 9
        41.200
  24348517.078   130339638.682 6        41.700    24348524.559   101375215.328 8
        35.600
  24536517.000   131023790.646 1        32.500    24536519.953   101907354.330 7
        31.700
  21625452.445   115275872.445 5        39.700    21625460.422    89659062.076 8
        35.500
  21519241.328   114992276.056 7        45.400    21519248.469    89438531.850 9
        42.600
  24604545.813   131433124.667 3        36.200    24604553.332   102225756.044 7
        29.300
  22213602.711   118786008.657 6        41.800    22213609.746    92389222.576 9
        43.200
  20357347.633   108936333.434 8        51.400    20357352.145    84728266.434 9
        47.400
  22081317.289   117871792.375 7        46.700    22081322.258    91677912.861 8
        40.900
 15 11 13 15 30 30.0000000  0 18G02G03G06G07G09G17G23G31R04R05R06R07
                                R14R15R16R20R21R22
  23174150.219   121781044.462 6        44.500    23174153.234    94894362.153 7
        29.900
  22764480.094   119628105.090 7        47.600    22764487.398    93216813.592 8
        34.000
  20745373.719   109017668.096 7        49.100    20745381.133    84948950.123 9
        42.200
  24484536.227   128667180.475 6        43.400    24484544.520   100260198.719 6
        25.300
  20483819.289   107643313.484 7        51.900    20483825.152    83877990.799 9
        42.800
  24371627.555   128073730.652 5        40.900    24371637.320    99797720.090 6
        22.900
  20895716.375   109807835.134 7        49.500    20895718.684    85564597.805 8
        40.000
  25613702.852   134600834.22411        32.800    25613709.008   104883943.81115
        16.900
  23359842.438   125091199.081 6        42.200    23359846.664    97293009.507 8
        37.600
  19770692.953   105686564.193 7        45.400    19770697.082    82200081.727 9
        47.200
  20273771.820   108185155.021 9        53.100    20273774.602    84143797.398 9
        41.300
  24328577.547   130232907.858 4        38.700    24328585.773   101292202.568 8
        36.000
  21629340.930   115296596.288 5        40.500    21629348.172    89675180.652 8
        36.200
  21504434.438   114913147.617 7        47.000    21504440.738    89376987.576 9
        42.800
  24579573.703   131299732.814 3        36.000    24579580.805   102122007.190 6
        25.400
  22237270.117   118912569.762 6        41.500    22237277.414    92487658.907 9
        43.000
  20363828.195   108971012.417 8        51.100    20363832.199    84755238.971 9
        47.600
  22065777.117   117788834.360 7        46.200    22065781.102    91613389.998 8
        40.600
 15 11 13 15 31  0.0000000  0 20G02G03G06G07G09G17G23G26G31R04R05R06
                                R07R13R14R15R16R20R21R22
  23157470.883   121693395.473 6        43.600    23157474.688    94826064.312 7
        31.300
  22781015.828   119715001.569 7        48.300    22781023.238    93284525.122 8
        33.300
  20741072.102   108995062.402 7        49.500    20741079.402    84931335.324 9
        42.200
  24463868.633   128558571.544 6        42.100    24463876.406   100175568.585 6
        24.700
  20476580.711   107605274.334 7        51.800    20476586.082    83848349.936 9
        43.400
  24390634.359   128173608.419 5        41.800    24390642.469    99875546.826 6
        22.500
  20902336.391   109842621.294 7        50.500    20902338.465    85591703.909 8
        40.100
  25470858.469   133850311.021 2        33.700    25470867.352   104298940.161 5
        13.900
  25632017.813   134697067.496 3        36.100    25632021.691   104958931.017 5
        17.800
  23379608.094   125197055.726 6        41.600    23379614.547    97375342.450 8
        38.200
  19779574.727   105734041.682 7        45.200    19779578.656    82237008.664 9
        46.900
  20261888.828   108121744.551 8        52.500    20261891.227    84094478.185 9
        41.500
  24308647.734   130126223.668 4        38.600    24308656.859   101209226.042 8
        35.400
  24578177.320   131246253.322 1        31.900    24578179.332   102080381.393 7
        31.900
  21633384.297   115318152.097 6        41.600    21633391.230    89691946.302 8
        35.600
  21489748.680   114834672.340 7        46.300    21489755.270    89315951.336 9
        43.200
  24554587.258   131166262.764 4        37.500    24554595.309   102018197.503 7
        31.500
  22260995.234   119039435.281 6        41.300    22261001.789    92586332.010 9
        43.000
  20370463.625   109006517.914 8        51.500    20370467.660    84782854.339 9
        47.200
  22050352.656   117706502.293 7        46.500    22050358.031    91549354.005 9
        41.900
 15 11 13 15 31 30.0000000  0 19G02G03G06G07G09G17G23G26G31R04R05R06
                                R07R14R15R16R20R21R22
  23140842.797   121606012.482 6        44.200    23140846.652    94757973.739 7
        31.600
  22797587.680   119802087.113 7        47.300    22797594.660    93352383.975 8
        33.200
  20736878.445   108973024.598 7        48.400    20736885.363    84914163.034 9
        43.000
  24443207.984   128449998.625 5        41.600    24443215.895   100090966.509 6
        24.700
  20469434.375   107567719.149 7        51.900    20469440.133    83819086.187 9
        43.200
  24409661.672   128273595.593 5        41.200    24409669.359    99953458.811 6
        22.600
  20909036.867   109877830.652 7        49.800    20909038.441    85619139.792 8
        40.200
  25460234.055   133794467.950 2        33.200    25460241.594   104255426.103 5
        15.600
  25650377.680   134793551.126 2        33.700    25650381.363   105034113.164 6
        18.600
  23399387.289   125302963.295 6        41.800    23399392.332    97457714.981 8
        37.300
  19788526.141   105781897.413 6        44.300    19788531.238    82274229.788 9
        47.200
  20250071.188   108058681.345 8        52.500    20250073.066    84045429.061 9
        41.500
  24288725.883   130019587.153 5        40.000    24288736.051   101126286.711 8
        38.000
  21637583.391   115340538.142 5        40.000    21637591.184    89709357.679 8
        35.300
  21475185.805   114756853.388 7        47.200    21475191.645    89255425.564 9
        42.600
  24529587.594   131032717.917 3        35.400    24529594.309   101914329.705 7
        29.900
  22284775.281   119166601.107 6        41.800    22284782.117    92685238.667 9
        43.000
  20377251.953   109042848.561 8        50.700    20377257.199    84811111.521 9
        47.000
  22035047.281   117624800.108 7        45.400    22035051.145    91485807.882 8
        40.900
 15 11 13 15 32  0.0000000  0 19G02G03G06G07G09G17G23G26G31R04R05R06
                                R07R14R15R16R20R21R22
  23124265.172   121518897.778 6        43.500    23124268.629    94690092.219 7
        31.500
  22814195.633   119889360.870 7        47.100    22814202.715    93420389.490 7
        33.000
  20732793.523   108951555.887 7        49.900    20732800.160    84897434.183 9
        42.100
  24422554.086   128341464.570 6        42.200    24422562.309   100006394.742 6
        24.300
  20462380.125   107530648.442 8        52.500    20462385.918    83790199.948 9
        43.100
  24428708.633   128373689.463 5        40.100    24428716.941   100031453.924 6
        22.900
  20915817.180   109913461.850 7        49.900    20915818.727    85646904.375 8
        39.600
  25449682.070   133739021.916 1        32.900    25449690.070   104212221.358 5
        14.800
  25668785.484   134890282.456 4        37.400    25668789.332   105109488.350 6
        18.600
  23419174.945   125408920.482 6        42.100    23419178.930    97540126.123 8
        38.200
  19797549.617   105830130.311 7        45.100    19797553.332    82311744.258 9
        47.600
  20238318.477   107995966.802 8        52.500    20238320.398    83996651.112 9
        41.200
  24268815.156   129912999.158 5        39.700    24268824.820   101043385.036 8
        38.900
  21641938.953   115363753.785 5        40.200    21641946.387    89727414.308 8
        34.800
  21460747.078   114679695.455 7        47.300    21460752.453    89195413.942 9
        42.400
  24504573.461   130899102.005 4        38.600    24504580.414   101810406.545 6
        25.800
  22308612.352   119294062.987 6        42.200    22308618.125    92784375.601 9
        42.700
  20384195.563   109080002.490 8        51.200    20384200.625    84840009.015 9
        47.300
  22019860.508   117543731.088 7        45.800    22019865.262    91422754.293 9
        41.800
 15 11 13 15 32 30.0000000  0 20G02G03G06G07G09G17G23G26G31R04R05R06
                                R07R13R14R15R16R20R21R22
  23107738.859   121432053.461 6        43.900    23107742.277    94622421.404 7
        31.600
  22830839.016   119976821.608 7        47.300    22830845.762    93488540.699 7
        33.000
  20728816.539   108930657.125 7        49.600    20728823.559    84881149.438 9
        42.500
  24401908.688   128232971.484 5        42.000    24401915.809    99921854.888 6
        23.900
  20455418.031   107494062.241 7        51.700    20455423.703    83761691.246 9
        43.800
  24447775.211   128473886.454 5        40.000    24447783.977   100109529.400 6
        22.800
  20922677.438   109949513.218 7        49.500    20922679.328    85674996.360 8
        39.800
  25439207.102   133683975.446 2        33.300    25439215.754   104169327.995 5
        15.600
  25687240.266   134987258.621 3        35.700    25687242.227   105185054.370 6
        19.300
  23438970.836   125514926.151 6        42.400    23438975.313    97622574.970 8
        38.100
  19806643.156   105878738.972 6        45.000    19806647.082    82349550.989 9
        47.000
  20226630.727   107933600.596 8        52.100    20226633.617    83948144.099 9
        41.500
  24248912.375   129806459.941 5        40.400    24248921.910   100960521.361 8
        37.000
  24641177.695   131582676.487 2        33.700    24641179.777   102342044.444 7
        27.800
  21646450.492   115387798.220 6        41.100    21646456.723    89746115.555 8
        35.800
  21446432.063   114603203.049 7        47.500    21446438.109    89135919.956 9
        42.800
  24479547.906   130765418.283 3        36.000    24479554.168   101706430.559 7
        29.900
  22332503.203   119421816.408 6        42.500    22332509.535    92883739.301 9
        43.300
  20391291.992   109117977.710 8        50.500    20391296.449    84869545.303 9
        46.500
  22004792.313   117463298.826 7        45.600    22004796.848    91360195.911 8
        40.900
 15 11 13 15 33  0.0000000  0 20G02G03G06G07G09G17G23G26G31R04R05R06
                                R07R13R14R15R16R20R21R22
  23091265.063   121345481.958 6        44.000    23091268.223    94554963.162 7
        32.100
  22847517.539   120064468.688 6        45.700    22847524.090    93556837.117 7
        32.300
  20724948.188   108910329.703 7        50.200    20724955.285    84865309.896 9
        42.700
  24381271.133   128124522.617 5        41.600    24381279.156    99837349.493 6
        24.300
  20448548.109   107457961.267 8        52.300    20448554.313    83733560.644 9
        43.800
  24466861.477   128574183.794 5        40.600    24466870.008   100187683.030 6
        21.800
  20929617.383   109985983.971 7        49.300    20929619.156    85703415.140 8
        38.800
  25428809.078   133629330.916 1        32.300    25428816.668   104126747.844 5
        15.600
  25705739.336   135084477.662 2        34.600    25705742.730   105260809.653 5
        16.900
  23458775.133   125620979.879 6        42.000    23458779.410    97705061.207 8
        38.100
  19815806.555   105927722.407 7        46.000    19815810.082    82387649.230 9
        47.100
  20215008.492   107871584.579 8        52.700    20215011.371    83899909.463 9
        41.300
  24229021.016   129699970.706 5        40.100    24229027.406   100877696.510 8
        34.700
  24662310.688   131695529.204 1        31.600    24662313.348   102429818.713 6
        25.900
  21651115.672   115412670.237 6        41.100    21651123.148    89765460.458 8
        36.000
  21432242.742   114527378.718 7        47.000    21432248.457    89076945.567 9
        43.000
  24454509.844   130631670.322 4        38.500    24454515.848   101602404.709 7
        30.000
  22356446.539   119549857.052 6        41.300    22356453.938    92983326.372 9
        43.600
  20398542.250   109156772.570 8        51.000    20398546.277    84899719.074 9
        47.200
  21989845.484   117383506.998 6        44.100    21989849.148    91298135.652 8
        40.900
 15 11 13 15 33 30.0000000  0 20G02G03G06G07G09G17G23G26G31R04R05R06
                                R07R13R14R15R16R20R21R22
  23074843.219   121259185.676 6        44.100    23074846.477    94487719.367 7
        32.900
  22864230.844   120152301.302 6        45.300    22864238.180    93625278.093 8
        33.200
  20721189.250   108890574.862 7        51.100    20721196.051    84849916.528 9
        43.200
  24360643.688   128016120.747 6        43.400    24360650.453    99752880.744 6
        24.600
  20441770.930   107422345.895 8        52.700    20441777.121    83705808.426 9
        44.300
  24485966.008   128674578.294 5        39.800    24485974.746   100265912.389 6
        22.200
  20936637.164   110022872.874 7        50.200    20936639.188    85732159.740 8
        39.200
  25418488.273   133575090.97211        32.400    25418495.191   104084482.80515
        15.600
  25724285.188   135181937.012 3        35.500    25724288.406   105336752.159 6
        19.300
  23478589.391   125727080.506 5        41.000    23478591.563    97787583.926 8
        36.900
  19825038.938   105977079.756 7        45.700    19825043.230    82426038.281 9
        47.200
  20203453.094   107809919.471 8        52.800    20203455.238    83851947.750 9
        41.400
  24209134.773   129593532.269 5        39.800    24209145.012   100794911.213 8
        35.800
  24683511.773   131808731.433 1        30.500    24683511.742   102517864.881 7
        29.500
  21655937.227   115438369.115 6        42.100    21655943.711    89785448.468 8
        35.100
  21418179.633   114452226.791 7        47.500    21418184.391    89018494.167 9
        43.100
  24429459.875   130497862.275 4        38.700    24429467.055   101498332.064 6
        24.500
  22380443.172   119678180.688 6        41.400    22380451.578    93083133.546 9
        42.900
  20405944.367   109196385.423 8        51.200    20405949.336    84930529.077 9
        47.100
  21975016.891   117304359.259 6        44.700    21975022.359    91236576.370 9
        41.800
 15 11 13 15 34  0.0000000  0 20G02G03G06G07G09G17G23G26G31R04R05R06
                                R07R13R14R15R16R20R21R22
  23058474.859   121173167.416 6        45.500    23058478.180    94420692.227 8
        33.200
  22880979.977   120240318.336 6        44.300    22880987.484    93693862.775 7
        31.600
  20717538.633   108871393.546 7        50.200    20717545.918    84834970.050 9
        42.200
  24340024.023   127907767.939 6        42.400    24340030.176    99668450.200 6
        23.000
  20435085.852   107387216.416 7        51.800    20435092.121    83678434.832 9
        44.600
  24505089.117   128775066.900 5        41.700    24505097.043   100344215.071 6
        24.500
  20943736.031   110060178.105 7        49.500    20943738.082    85761228.746 8
        39.200
  25408243.992   133521257.724 2        34.400    25408252.000   104042534.671 5
        13.900
  25742875.641   135279633.630 2        34.800    25742879.816   105412879.624 5
        15.600
  23498408.500   125833227.180 5        39.600    23498414.820    97870142.514 8
        36.800
  19834341.680   106026809.645 7        45.100    19834346.609    82464717.085 9
        47.100
  20191962.883   107748605.839 8        52.400    20191965.301    83804259.416 9
        41.400
  24189262.070   129487144.961 5        39.600    24189270.809   100712165.674 8
        38.000
  24704773.711   131922280.081 2        33.700    24704775.777   102606180.731 7
        29.500
  21660913.227   115464893.029 6        41.600    21660919.324    89806078.162 8
        35.400
  21404241.680   114377750.955 7        47.500    21404247.902    88960568.597 9
        43.100
  24404400.586   130363997.544 5        39.400    24404407.230   101394215.186 7
        32.300
  22404493.078   119806783.116 6        41.700    22404499.895    93183157.586 9
        42.400
  20413499.477   109236814.181 8        51.700    20413504.113    84961973.687 9
        47.200
  21960311.289   117225858.832 6        43.500    21960315.957    91175520.554 9
        41.900
 15 11 13 15 34 30.0000000  0 19G02G03G06G07G09G17G23G26G31R04R05R06
                                R07R14R15R16R20R21R22
  23042158.961   121087429.666 6        44.300    23042162.523    94353883.660 7
        32.900
  22897764.445   120328519.354 6        44.600    22897771.527    93762590.817 7
        31.300
  20713997.875   108852787.285 7        50.000    20714004.945    84820471.682 9
        42.000
  24319414.375   127799467.239 6        42.300    24319421.754    99584060.254 6
        21.800
  20428492.781   107352573.536 7        50.900    20428499.648    83651440.403 9
        43.900
  24524229.016   128875647.296 5        41.300    24524237.020   100422589.309 6
        24.300
  20950914.398   110097899.043 7        49.600    20950915.621    85790621.685 8
        39.200
  25398076.531   133467834.274 2        33.200    25398085.449   104000906.019 5
        14.800
  25761512.477   135377565.372 3        36.600    25761514.383   105489190.417 5
        15.600
  23518240.422   125939419.109 5        39.800    23518245.238    97952736.189 8
        37.500
  19843714.750   106076911.246 6        44.900    19843719.156    82503685.002 9
        47.800
  20180538.711   107687644.897 9        53.400    20180540.793    83756845.392 9
        41.400
  24169396.227   129380810.197 5        39.500    24169405.723   100629460.963 8
        36.500
  21666043.055   115492241.472 6        41.100    21666049.480    89827349.183 8
        34.800
  21390431.594   114303954.811 7        46.700    21390437.570    88903171.670 9
        43.200
  24379330.000   130230080.520 3        36.400    24379338.395   101290057.622 7
        30.400
  22428593.727   119935660.424 6        41.400    22428599.742    93283395.387 9
        41.200
  20421206.758   109278057.492 8        50.500    20421211.410    84994051.812 9
        47.000
  21945726.969   117148009.734 6        43.600    21945732.176    91114971.314 9
        42.300
 15 11 13 15 35  0.0000000  0 19G02G03G06G07G09G17G23G26G31R04R05R06
                                R07R14R15R16R20R21R22
  23025897.672   121001973.704 6        45.700    23025900.344    94287294.673 8
        33.300
  22914583.250   120416902.941 6        44.600    22914590.379    93831461.110 7
        31.100
  20710566.945   108834756.666 7        50.800    20710574.188    84806421.849 9
        43.200
  24298815.391   127691221.134 6        42.200    24298823.176    99499712.843 6
        21.700
  20421993.313   107318417.093 8        52.200    20421999.965    83624825.018 9
        44.100
  24543385.625   128976315.804 5        41.600    24543393.617   100501032.178 6
        24.200
  20958170.742   110136033.491 7        50.500    20958172.805    85820336.841 8
        38.900
  25387989.211   133414822.165 2        34.500    25387996.797   103959597.791 5
        14.800
  25780191.289   135475728.778 3        35.200    25780195.172   105565681.583 5
        17.400
  23538079.547   126045655.023 4        38.700    23538084.207    98035364.151 8
        37.000
  19853156.828   106127383.258 7        45.400    19853161.027    82542941.013 9
        47.400
  20169180.477   107627037.337 8        52.000    20169183.285    83709706.219 9
        41.800
  24149541.398   129274527.838 5        40.200    24149551.500   100546797.036 8
        36.700
  21671327.555   115520412.536 6        42.200    21671335.078    89849259.995 8
        35.800
  21376750.211   114230842.451 7        47.100    21376755.730    88846306.564 9
        42.800
  24354251.828   130096113.964 5        39.400    24354259.328   101185861.477 7
        32.600
  22452744.727   120064807.853 5        40.500    22452751.793    93383843.316 9
        42.000
  20429065.203   109320112.701 8        50.500    20429070.422    85026761.424 9
        46.400
  21931266.523   117070814.879 6        44.300    21931271.285    91054930.932 9
        42.300
 15 11 13 15 35 30.0000000  0 19G02G03G06G07G09G17G23G26G31R04R05R06
                                R07R14R15R16R20R21R22
  23009689.195   120916802.778 6        45.500    23009693.086    94220927.791 7
        31.900
  22931436.539   120505468.510 6        44.100    22931443.566    93900473.215 7
        30.900
  20707245.195   108817303.025 7        50.700    20707252.672    84792821.622 9
        42.700
  24278228.336   127583032.387 5        40.900    24278234.973    99415410.164 6
        23.400
  20415586.523   107284747.694 8        52.100    20415592.742    83598589.151 9
        44.100
  24562558.141   129077069.405 5        41.300    24562565.840   100579541.395 6
        24.500
  20965505.977   110174580.817 7        50.100    20965507.930    85850373.706 8
        38.900
  25377980.344   133362224.110 1        32.300    25377987.883   103918612.300 5
        15.600
  25798915.336   135574121.984 4        37.600    25798917.988   105642351.731 6
        20.600
  23557925.930   126151934.343 4        38.700    23557931.242    98118025.873 8
        37.400
  19862667.516   106178224.531 7        45.700    19862671.691    82582484.217 9
        47.100
  20157889.063   107566783.557 8        52.000    20157891.211    83662842.208 9
        41.300
  24129697.219   129168299.577 4        38.700    24129707.477   100464175.195 8
        37.900
  21676768.031   115549405.966 6        41.700    21676773.863    89871810.419 8
        36.000
  21363196.070   114158416.573 7        46.900    21363201.461    88789975.382 9
        42.300
  24329164.438   129962102.446 3        35.300    24329172.016   101081630.400 7
        29.700
  22476945.742   120194221.214 5        40.500    22476953.055    93484498.076 9
        42.400
  20437076.227   109362978.136 8        50.500    20437081.297    85060101.189 9
        46.600
  21916929.961   116994277.880 7        45.300    21916933.652    90995402.219 9
        41.800
 15 11 13 15 36  0.0000000  0 19G02G03G06G07G09G17G23G26G31R04R05R06
                                R07R14R15R16R20R21R22
  22993536.891   120831918.785 6        45.400    22993539.934    94154784.503 8
        33.100
  22948324.859   120594214.750 6        45.200    22948331.383    93969626.098 7
        31.000
  20704034.633   108800427.042 7        51.500    20704041.734    84779671.518 9
        42.500
  24257651.250   127474902.896 5        40.800    24257659.086    99331153.600 6
        22.300
  20409272.008   107251565.353 7        51.700    20409278.086    83572732.812 9
        44.500
  24581746.977   129177905.206 5        40.500    24581753.887   100658114.674 6
        22.300
  20972919.664   110213539.191 7        50.500    20972921.539    85880730.875 8
        38.700
  25368050.836   133310042.222 3        35.500    25368058.469   103877951.008 5
        13.900
  25817681.219   135672741.649 3        36.900    25817684.832   105719198.178 6
        19.300
  23577780.578   126258255.817 4        37.100    23577785.996    98200720.377 8
        37.200
  19872246.938   106229433.821 7        45.600    19872252.035    82622313.677 9
        47.000
  20146663.891   107506884.572 8        52.300    20146666.297    83616254.136 8
        40.800
  24109863.805   129062125.468 5        40.500    24109874.543   100381595.484 8
        38.600
  21682359.938   115579219.232 5        40.800    21682367.176    89894998.520 8
        35.900
  21349771.578   114086681.524 7        46.600    21349777.703    88734181.488 9
        43.600
  24304070.148   129828049.931 5        39.200    24304077.906   100977367.305 8
        33.700
  22501197.023   120323895.984 6        41.100    22501203.535    93585356.107 9
        42.400
  20445237.672   109406651.360 8        51.400    20445241.773    85094069.266 9
        46.200
  21902713.977   116918401.863 7        46.000    21902718.773    90936387.557 9
        41.900
 15 11 13 15 36 30.0000000  0 19G02G03G06G07G09G17G23G26G31R04R05R06
                                R07R14R15R16R20R21R22
  22977438.828   120747323.964 6        45.300    22977442.219    94088866.539 7
        32.100
  22965246.492   120683140.736 6        45.500    22965253.691    94038919.049 7
        31.200
  20700933.297   108784129.685 7        51.800    20700940.246    84766972.292 9
        41.700
  24237087.617   127366835.807 5        41.200    24237093.996    99246945.615 6
        24.200
  20403050.727   107218870.243 8        52.300    20403056.316    83547256.125 9
        44.300
  24600950.664   129278819.931 5        40.400    24600957.363   100736749.469 6
        21.700
  20980411.125   110252906.772 7        50.900    20980413.063    85911406.912 8
        38.300
  25358200.109   133258278.656 2        34.700    25358207.355   103837615.713 5
        14.800
  25836490.508   135771585.336 3        37.000    25836493.535   105796219.318 6
        19.600
  23597642.680   126364618.072 4        37.400    23597647.191    98283446.615 8
        35.100
  19881896.094   106281010.102 7        45.600    19881900.250    82662428.564 9
        47.600
  20135505.469   107447340.775 8        51.700    20135507.313    83569942.347 8
        40.900
  24090039.477   128956006.330 5        40.600    24090049.332   100299058.620 8
        37.600
  21688106.359   115609851.483 6        42.200    21688112.930    89918823.599 8
        35.800
  21336476.695   114015640.624 7        47.000    21336483.184    88678927.514 9
        43.300
  24278966.586   129693959.523 4        37.500    24278975.000   100873074.980 8
        33.500
  22525493.875   120453827.816 5        40.900    22525501.469    93686414.108 9
        42.700
  20453549.891   109451130.185 8        51.200    20453553.230    85128663.899 9
        45.600
  21888624.719   116843190.233 7        45.200    21888630.094    90877889.669 9
        43.000
 15 11 13 15 37  0.0000000  0 19G02G03G06G07G09G17G23G26G31R04R05R06
                                R07R14R15R16R20R21R22
  22961396.703   120663020.972 6        46.500    22961399.773    94023175.957 8
        33.500
  22982202.656   120772245.783 6        45.300    22982210.031    94108351.534 7
        30.200
  20697942.492   108768412.113 7        51.200    20697949.172    84754724.845 9
        42.200
  24216534.797   127258833.494 5        41.100    24216542.102    99162788.118 6
        25.300
  20396921.891   107186662.843 8        52.400    20396927.613    83522159.474 9
        44.300
  24620167.563   129379810.705 5        39.200    24620175.922   100815443.476 6
        20.900
  20987979.734   110292682.751 7        50.300    20987981.852    85942401.183 8
        37.900
  25348429.414   133206935.997 2        33.400    25348437.348   103797608.429 5
        13.900
  25855342.422   135870651.186 3        35.200    25855345.332   105873413.542 5
        16.300
  23617514.695   126471020.938 4        38.700    23617516.707    98366204.380 8
        34.700
  19891612.781   106332951.940 7        45.300    19891616.781    82702827.766 9
        47.200
  20124413.820   107388153.677 8        52.300    20124415.980    83523907.974 8
        40.900
  24070226.422   128849943.264 6        41.400    24070235.977   100216565.289 8
        37.900
  21694005.945   115641301.349 6        42.300    21694013.008    89943284.590 8
        35.300
  21323314.008   113945298.500 7        46.400    21323319.902    88624217.023 9
        43.500
  24253859.859   129559835.558 4        38.600    24253865.980   100768756.486 7
        31.400
  22549839.500   120584012.590 6        41.200    22549845.746    93787668.851 9
        41.500
  20462011.828   109496412.770 8        50.500    20462015.922    85163883.679 9
        45.300
  21874660.000   116768646.306 7        45.500    21874665.707    90819911.120 9
        42.900
 15 11 13 15 37 30.0000000  0 19G02G03G06G07G09G17G23G26G31R04R05R06
                                R07R14R15R16R20R21R22
  22945410.383   120579012.180 6        46.700    22945413.211    93957714.642 7
        32.100
  22999192.477   120861529.023 6        45.100    22999200.305    94177922.860 7
        31.600
  20695061.609   108753275.428 7        51.600    20695068.555    84742930.036 9
        41.400
  24195995.586   127150898.836 5        40.900    24196002.004    99078683.299 6
        26.000
  20390886.070   107154943.465 7        51.900    20390891.129    83497443.103 9
        43.800
  24639399.500   129480874.640 4        39.000    24639407.492   100894194.517 6
        20.100
  20995626.648   110332865.900 7        50.800    20995629.090    85973712.739 8
        38.700
  25338739.039   133156016.490 1        32.800

  25874235.203   135969936.153 2        34.800    25874238.652   105950778.503 5
        16.900
  23637392.695   126577463.538 5        39.300    23637394.773    98448993.123 8
        34.700
  19901397.602   106385258.671 7        45.200    19901402.203    82743510.776 9
        46.800
  20113388.898   107329323.511 8        51.400    20113390.535    83478151.226 8
        40.500
  24050422.453   128743936.793 5        40.300    24050431.473   100134115.944 8
        36.500
  21700058.195   115673567.832 6        41.600    21700066.387    89968380.762 8
        34.800
  21310279.727   113875656.540 7        45.800    21310287.703    88570051.123 9
        43.800
  24228745.773   129425681.972 4        38.500    24228752.926   100664415.168 8
        34.300
  22574231.211   120714445.917 6        41.100    22574238.672    93889116.892 9
        41.800
  20470623.703   109542496.942 8        50.200    20470628.020    85199726.908 9
        45.800
  21860821.313   116694773.756 7        45.600    21860826.719    90762454.751 9
        42.400
 15 11 13 15 38  0.0000000  0 19G02G03G06G07G09G17G23G26G31R04R05R06
                                R07R14R15R16R20R21R22
  22929480.203   120495300.005 6        45.400    22929483.121    93892484.433 7
        33.000
  23016216.750   120950989.438 6        45.600    23016223.516    94247632.250 7
        31.200
  20692292.125   108738720.459 7        51.700    20692299.074    84731588.513 9
        42.400
  24175468.969   127043034.628 5        41.100    24175476.625    98994633.323 6
        24.900
  20384942.648   107123712.315 7        51.200    20384948.004    83473107.159 9
        43.900
  24658645.492   129582008.883 4        38.400    24658653.688   100973000.280 6
        20.400
  21003350.117   110373454.723 7        51.000    21003352.938    86005340.391 8
        38.100
  25329131.813   133105522.386 2        34.300

  25893170.102   136069437.707 3        36.900    25893173.441   106028312.078 6
        18.600
  23657275.703   126683944.462 5        40.300    23657279.836    98531811.663 8
        35.100
  19911251.031   106437929.060 7        45.300    19911255.383    82784476.628 9
        47.600
  20102431.086   107270851.515 8        51.300    20102433.625    83432673.049 9
        41.400
  24030630.883   128637987.747 6        42.300    24030639.609   100051711.309 8
        38.200
  21706265.086   115706648.720 6        42.300    21706272.039    89994110.340 8
        34.600
  21297380.953   113806719.565 7        47.100    21297387.098    88516433.566 9
        44.400
  24203626.070   129291502.163 4        38.600    24203633.059   100560053.394 7
        31.800
  22598669.000   120845123.663 6        41.300    22598675.379    93990755.068 9
        42.200
  20479385.703   109589380.582 8        51.200    20479389.711    85236191.920 9
        46.100
  21847109.625   116621575.635 7        47.800    21847113.512    90705522.916 9
        42.400
 15 11 13 15 38 30.0000000  0 18G02G03G06G07G09G17G23G26R04R05R06R07
                                R14R15R16R20R21R22
  22913607.250   120411886.909 7        47.200    22913610.352    93827487.290 7
        32.600
  23033273.906   121040626.418 6        46.900    23033280.980    94317479.235 7
        30.800
  20689633.000   108724748.367 8        52.200    20689640.047    84720701.189 9
        42.600
  24154956.617   126935243.287 6        42.800    24154963.441    98910640.166 6
        24.000
  20379092.563   107092969.821 8        52.400    20379097.664    83449152.002 9
        43.600
  24677903.055   129683210.481 5        40.400    24677912.379   101051858.594 6
        21.700
  21011151.117   110414447.860 7        50.700    21011153.680    86037283.096 8
        38.300
  25319605.172   133055456.268 2        33.300    25319614.406   103679588.208 5
        13.900
  23677166.883   126790463.322 4        39.000    23677170.645    98614659.697 8
        34.300
  19921171.445   106490962.014 7        46.500    19921176.484    82825724.488 9
        47.400
  20091540.898   107212738.362 8        52.000    20091543.363    83387473.946 9
        41.200
  24010850.430   128532097.165 6        41.800    24010858.484    99969352.194 8
        38.400
  21712623.820   115740543.122 6        42.000    21712631.234    90020472.675 8
        35.200
  21284611.914   113738491.916 7        46.300    21284618.590    88463367.695 9
        44.200
  24178501.688   129157300.521 4        37.500    24178510.230   100455674.618 7
        32.200
  22623151.250   120976041.903 6        42.000    22623158.434    94092580.266 9
        42.100
  20488295.789   109637061.293 8        50.900    20488299.887    85273276.898 9
        46.100
  21833523.266   116549055.930 7        47.200    21833527.613    90649118.740 9
        42.300
 15 11 13 15 39  0.0000000  0 18G02G03G06G07G09G17G23G26R04R05R06R07
                                R14R15R16R20R21R22
  22897792.031   120328775.122 6        46.500    22897794.578    93762724.928 7
        32.900
  23050365.000   121130438.822 6        46.300    23050372.539    94387462.900 7
        31.500
  20687085.664   108711359.913 8        52.500    20687092.293    84710268.654 9
        42.700
  24134459.805   126827527.683 6        44.200    24134466.965    98826705.983 7
        27.000
  20373335.203   107062716.062 7        51.800    20373340.527    83425577.680 9
        44.100
  24697173.641   129784476.223 5        41.800    24697182.207   101130766.894 6
        23.600
  21019028.539   110455843.840 7        50.900    21019030.734    86069539.698 8
        39.400
  25310158.289   133005820.124 2        33.800    25310168.289   103640910.671 5
        13.900
  23697065.922   126897019.061 5        39.100    23697070.410    98697536.461 8
        35.900
  19931159.789   106544356.513 7        45.200    19931164.410    82867253.529 9
        48.000
  20080717.469   107154984.728 8        52.000    20080719.898    83342554.484 8
        41.000
  23991079.570   128426265.620 5        40.700    23991087.762    99887039.023 8
        38.300
  21719134.789   115775249.184 6        41.200    21719141.340    90047466.295 8
        34.900
  21271977.922   113670975.167 7        46.600    21271983.242    88410854.747 9
        43.400
  24153376.625   129023080.534 4        38.300    24153383.945   100351281.576 7
        32.600
  22647677.133   121107195.891 5        41.000    22647685.367    94194588.848 9
        42.400
  20497354.047   109685536.906 8        50.500    20497358.375    85310980.136 9
        45.600
  21820066.078   116477217.306 7        47.700    21820069.984    90593244.278 9
        42.600
 15 11 13 15 39 30.0000000  0 18G02G03G06G07G09G17G23G26R04R05R06R07
                                R14R15R16R20R21R22
  22882034.430   120245966.999 7        47.500    22882036.570    93698199.175 8
        34.700
  23067488.273   121220425.789 7        47.100    23067496.320    94457582.600 7
        30.900
  20684648.742   108698555.964 7        51.900    20684655.828    84700291.569 9
        42.700
  24113977.281   126719890.297 6        45.000    24113983.797    98742832.738 7
        26.500
  20367671.773   107032951.207 8        52.700    20367676.387    83402384.318 9
        43.800
  24716456.344   129885803.183 6        42.600    24716464.570   101209722.895 7
        26.500
  21026982.484   110497641.537 7        50.900    21026984.684    86102109.339 8
        38.600
  25300795.359   132956616.208 2        34.200    25300805.250   103602569.965 5
        15.600
  23716972.609   127003610.616 5        40.800    23716974.941    98780441.070 8
        35.000
  19941216.758   106598110.980 7        45.800    19941221.000    82909062.552 9
        48.500
  20069962.289   107097591.652 8        51.600    20069965.246    83297915.445 9
        41.600
  23971317.820   128320493.757 5        39.700    23971327.609    99804772.164 8
        35.000
  21725797.570   115810765.301 6        41.800    21725803.660    90075089.950 8
        34.700
  21259477.367   113604173.997 7        46.700    21259482.570    88358898.350 9
        43.800
  24128247.375   128888846.043 4        37.800    24128254.746   100246877.196 8
        33.300
  22672246.781   121238581.355 5        40.600    22672255.586    94296777.452 9
        42.600
  20506561.406   109734805.132 8        50.700    20506565.301    85349299.847 9
        45.600
  21806737.492   116406062.964 7        47.900    21806740.375    90537902.046 9
        42.300
 15 11 13 15 40  0.0000000  0 18G02G03G06G07G09G17G23G26R04R05R06R07
                                R14R15R16R20R21R22
  22866334.266   120163464.523 7        47.600    22866336.508    93633911.604 8
        33.700
  23084646.406   121310586.015 6        47.000    23084653.535    94527837.296 7
        32.000
  20682323.734   108686337.041 8        52.300    20682330.742    84690770.364 9
        43.500
  24093510.258   126612333.083 6        46.300    24093515.367    98659021.991 7
        27.500
  20362100.680   107003675.112 8        52.800    20362105.605    83379571.801 9
        44.400
  24735748.992   129987188.027 6        42.400    24735757.332   101288724.005 6
        24.200
  21035012.250   110539838.847 7        51.000    21035014.902    86134990.364 8
        38.800
  25291514.266   132907846.435 2        34.400    25291523.945   103564567.606 5
        13.900
  23736882.250   127110237.036 5        39.700    23736886.582    98863372.748 8
        34.900
  19951338.727   106652224.462 7        45.400    19951343.512    82951150.801 9
        47.500
  20059274.625   107040559.494 8        51.800    20059276.484    83253557.150 9
        41.200
  23951572.234   128214782.180 5        39.800    23951580.008    99722552.139 8
        37.500
  21732611.789   115847089.353 6        42.000    21732618.293    90103342.004 8
        35.200
  21247109.359   113538091.347 7        47.000    21247115.641    88307500.800 9
        43.700
  24103116.703   128754600.868 4        37.500    24103124.641   100142464.431 8
        34.500
  22696860.453   121370193.731 6        42.300    22696867.301    94399142.552 9
        42.100
  20515916.516   109784863.122 8        51.000    20515920.105    85388233.796 9
        46.100
  21793535.727   116335596.233 7        48.100    21793539.027    90483094.635 9
        42.400
 15 11 13 15 40 30.0000000  0 18G02G03G06G07G09G17G23G26R04R05R06R07
                                R14R15R16R20R21R22
  22850693.492   120081270.315 7        47.500    22850695.195    93569864.223 8
        33.400
  23101835.625   121400918.841 6        46.300    23101843.352    94598226.496 7
        31.600
  20680110.063   108674704.257 8        52.100    20680117.445    84681705.863 9
        43.100
  24073058.234   126504859.407 6        45.800    24073064.164    98575276.360 7
        27.200
  20356622.703   106974888.170 8        52.700    20356627.305    83357140.453 9
        43.900
  24755052.406   130088628.164 6        42.300    24755061.520   101367768.182 6
        24.300
  21043117.852   110582434.615 7        51.200    21043119.938    86168181.866 8
        39.000
  25282316.273   132859513.276 3        35.300    25282324.379   103526905.487 4
        12.600
  23756800.133   127216897.488 4        37.900    23756805.703    98946330.951 8
        36.000
  19961529.273   106706695.802 7        45.300    19961533.832    82993517.394 9
        48.000
  20048654.773   106983889.111 8        52.300    20048656.535    83209480.219 9
        41.500
  23931835.633   128109131.620 4        37.900    23931842.898    99640379.650 8
        36.100
  21739576.648   115884220.262 6        41.800    21739584.723    90132221.598 8
        34.300
  21234877.609   113472730.622 7        47.800    21234884.465    88256664.746 9
        43.700
  24077983.156   128620348.993 4        38.900    24077990.609   100038046.504 7
        30.800
  22721512.336   121502028.981 5        40.000    22721519.930    94501681.003 8
        40.800
  20525417.625   109835708.656 8        49.900    20525421.633    85427780.298 9
        45.300
  21780464.523   116265820.015 7        48.100    21780467.652    90428824.290 9
        42.300
 15 11 13 15 41  0.0000000  0 18G02G03G06G07G09G17G23G26R04R05R06R07
                                R14R15R16R20R21R22
  22835110.773   119999386.491 7        47.200    22835114.000    93506058.720 7
        33.000
  23119057.922   121491423.162 6        44.900    23119065.625    94668749.322 7
        30.900
  20678008.344   108663658.173 8        52.500    20678014.750    84673098.545 9
        43.400
  24052623.141   126397471.888 6        45.300    24052628.227    98491597.854 7
        28.100
  20351237.766   106946590.341 8        52.600    20351242.586    83335090.218 9
        43.900
  24774365.297   130190120.202 5        41.800    24774374.375   101446852.815 6
        23.500
  21051299.148   110625427.257 7        50.800    21051301.262    86201682.621 8
        38.400
  25273205.242   132811618.732 3        36.000

  23776722.641   127323590.838 4        37.600    23776728.625    99029314.763 8
        36.000
  19971786.898   106761523.842 7        45.100    19971790.246    83036161.422 9
        47.600
  20038102.258   106927581.348 8        51.800    20038104.555    83165685.332 9
        41.500
  23912109.484   128003542.929 4        37.600    23912118.555    99558255.307 8
        36.200
  21746693.672   115922155.840 6        43.200    21746700.918    90161727.040 8
        35.200
  21222782.227   113408095.112 7        48.000    21222789.211    88206392.746 9
        43.700
  24052850.633   128486094.359 5        39.200    24052857.816    99933626.332 7
        32.900
  22746208.703   121634082.781 5        39.500    22746215.852    94604389.418 9
        41.800
  20535064.945   109887339.119 8        49.700    20535070.668    85467937.297 9
        45.900
  21767522.766   116196737.640 7        48.800    21767526.223    90375093.623 9
        41.900
 15 11 13 15 41 30.0000000  0 18G02G03G06G07G09G17G23G26R04R05R06R07
                                R14R15R16R20R21R22
  22819588.305   119917815.827 6        46.600    22819591.188    93442497.218 8
        33.200
  23136312.961   121582098.338 6        44.800    23136320.070    94739405.274 7
        30.000
  20676017.633   108653199.975 8        52.100    20676025.184    84664949.313 9
        43.400
  24032204.461   126290172.836 6        44.500    24032209.770    98407988.337 6
        25.600
  20345946.156   106918782.071 8        52.600    20345951.258    83313421.471 9
        44.300
  24793688.609   130291661.418 5        40.800    24793696.680   101525975.795 6
        25.300
  21059555.805   110668815.826 7        50.500    21059557.746    86235491.900 8
        38.800
  25264174.563   132764165.29613        35.600

  23796653.672   127430316.615 4        38.100    23796659.941    99112323.791 8
        35.700
  19982109.422   106816707.677 7        46.000    19982113.152    83079082.207 9
        47.800
  20027618.578   106871636.988 8        52.300    20027620.809    83122173.098 9
        41.300
  23892397.070   127898017.032 5        39.800    23892406.199    99476179.753 8
        36.800
  21753962.008   115960894.860 6        42.700    21753968.660    90191857.369 8
        35.600
  21210823.586   113344187.857 7        48.100    21210829.266    88156687.155 9
        43.100
  24027718.500   128351841.089 5        39.900    24027726.434    99829207.249 8
        34.800
  22770941.797   121766350.791 5        40.200    22770949.789    94707264.461 9
        41.600
  20544860.875   109939752.379 8        50.400    20544866.000    85508703.127 9
        45.800
  21754711.016   116128352.374 7        47.900    21754714.965    90321905.143 9
        41.300
 15 11 13 15 42  0.0000000  0 18G02G03G06G07G09G17G23G26R04R05R06R07
                                R14R15R16R20R21R22
  22804126.328   119836560.385 6        46.400    22804129.004    93379181.357 7
        32.300
  23153599.594   121672943.112 6        43.300    23153606.703    94810193.393 7
        30.200
  20674139.242   108643330.033 7        51.800    20674147.125    84657258.456 9
        43.000
  24011802.781   126182964.940 6        43.000    24011808.387    98324449.842 6
        25.400
  20340747.250   106891463.116 7        51.700    20340752.258    83292133.993 9
        43.400
  24813020.109   130393248.434 5        41.300    24813028.168   101605134.449 6
        22.900
  21067887.422   110712598.178 7        50.500    21067890.078    86269608.014 8
        38.700
  25255228.867   132717154.637 3        36.300

  23816590.672   127537073.877 4        37.900    23816596.172    99195357.230 8
        35.900
  19992499.305   106872245.812 7        45.400    19992502.695    83122278.547 9
        47.200
  20017203.359   106816056.278 8        52.500    20017205.145    83078943.687 9
        41.100
  23872694.953   127792554.659 5        40.500    23872703.906    99394153.660 8
        36.800
  21761379.031   116000434.803 6        42.100    21761385.180    90222610.678 8
        34.700
  21199000.961   113281012.073 7        47.800    21199007.086    88107550.472 9
        43.100
  24002587.953   128217592.909 4        37.800    24002594.152    99724792.124 8
        35.300
  22795716.367   121898828.570 5        40.400    22795725.234    94810302.634 9
        42.400
  20554801.047   109992945.576 8        49.800    20554805.453    85550075.596 9
        45.900
  21742031.641   116060667.148 7        46.100    21742035.543    90269261.146 8
        41.000
 15 11 13 15 42 30.0000000  0 18G02G03G06G07G09G17G23G26R04R05R06R07
                                R14R15R16R20R21R22
  22788723.922   119755622.490 6        46.600    22788727.102    93316112.932 7
        32.700
  23170919.094   121763956.837 6        43.700    23170926.512    94881113.148 7
        29.200
  20672373.477   108634049.400 7        51.900    20672380.965    84650026.800 9
        43.000
  23991420.461   126075851.155 6        43.200    23991425.734    98240984.733 7
        27.200
  20335641.523   106864633.892 7        51.800    20335646.605    83271228.125 9
        43.700
  24832359.828   130494878.905 5        40.600    24832368.043   101684326.989 6
        21.500
  21076293.539   110756773.336 7        50.500    21076295.957    86304030.228 8
        39.500
  25246365.406   132670589.14312        34.600

  23836532.813   127643861.776 4        38.700    23836537.293    99278414.575 8
        36.300
  20002954.609   106928137.476 7        46.400    20002958.848    83165749.847 9
        47.000
  20006855.547   106760840.854 8        52.500    20006857.586    83035998.402 9
        41.600
  23853006.016   127687156.373 5        39.600    23853014.508    99312177.465 8
        39.400
  21768946.969   116040774.207 6        42.800    21768953.133    90253985.779 8
        36.200
  21187316.375   113218571.096 7        48.100    21187322.395    88058985.312 9
        44.200
  23977458.094   128083354.177 5        39.400    23977464.574    99620384.362 8
        34.600
  22820530.563   122031512.141 6        41.100    22820537.734    94913500.880 9
        42.400
  20564886.344   110046916.276 7        48.900    20564891.027    85592052.793 9
        45.700
  21729484.117   115993685.209 7        47.200    21729488.066    90217164.141 8
        40.900
 15 11 13 15 43  0.0000000  0 18G02G03G06G07G09G17G23G26R04R05R06R07
                                R14R15R16R20R21R22
  22773383.180   119675004.652 7        47.300    22773385.637    93253293.886 8
        33.600
  23188270.711   121855138.566 6        44.600    23188278.172    94952163.823 7
        29.600
  20670719.875   108625358.758 7        52.000    20670727.348    84643254.882 9
        43.000
  23971055.211   125968834.257 6        43.200    23971060.848    98157595.115 7
        26.400
  20330629.000   106838294.442 7        51.200    20330634.469    83250703.905 9
        44.100
  24851706.164   130596549.586 5        39.200    24851715.285   101763550.831 6
        21.300
  21084774.508   110801339.963 7        50.900    21084776.645    86338757.474 8
        38.700
  25237591.281   132624471.029 3        36.100

  23856478.719   127750679.209 4        38.400    23856484.859    99361494.932 8
        37.500
  20013476.211   106984381.319 7        45.200    20013480.297    83209495.074 9
        47.500
  19996576.883   106705991.365 9        53.500    19996579.254    82993337.718 9
        41.400
  23833329.508   127581823.429 6        42.400    23833338.207    99230252.080 8
        36.500
  21776663.102   116081911.496 6        41.800    21776670.098    90285981.437 8
        34.700
  21175768.898   113156868.267 7        47.500    21175774.820    88010994.272 9
        43.600
  23952329.203   127949128.600 5        39.500    23952337.906    99515986.779 8
        34.600
  22845377.813   122164397.400 5        39.400    22845388.500    95016855.974 9
        41.900
  20575116.500   110101661.982 8        49.300    20575121.621    85634632.789 9
        45.900
  21717068.117   115927409.505 7        46.400    21717072.570    90165616.426 9
        42.100
 15 11 13 15 43 30.0000000  0 18G02G03G06G07G09G17G23G26R04R05R06R07
                                R14R15R16R20R21R22
  22758103.344   119594709.199 7        47.500    22758106.320    93190726.049 7
        33.000
  23205653.695   121946487.406 6        43.800    23205660.973    95023344.698 7
        29.800
  20669178.305   108617258.953 8        52.200    20669185.535    84636943.346 9
        42.300
  23950709.078   125861916.458 6        43.700    23950714.527    98074282.747 7
        27.400
  20325709.852   106812444.882 7        51.100    20325715.852    83230561.405 9
        43.100
  24871060.438   130698257.577 5        39.400    24871068.887   101842803.771 6
        19.600
  21093329.156   110846296.367 7        50.700    21093331.867    86373788.440 8
        38.800
  25228900.078   132578802.281 2        34.500

  23876433.539   127857525.635 4        39.000    23876437.676    99444597.737 8
        37.000
  20024063.313   107040976.485 7        45.400    20024067.289    83253513.544 9
        47.500
  19986366.180   106651508.524 8        52.300    19986368.164    82950962.207 9
        41.200
  23813665.156   127476556.345 5        41.000    23813670.910    99148377.800 8
        35.300
  21784529.922   116123844.624 6        42.000    21784538.066    90318596.095 8
        35.900
  21164360.953   113095907.292 7        48.100    21164367.184    87963580.224 9
        43.300
  23927205.414   127814920.057 4        37.600    23927212.238    99411602.505 8
        33.500
  22870266.555   122297479.954 5        40.100    22870275.234    95120364.532 9
        41.800
  20585492.250   110157180.024 8        49.600    20585496.863    85677813.458 9
        45.300
  21704786.250   115861843.219 7        47.300    21704789.023    90114620.494 9
        42.100
 15 11 13 15 44  0.0000000  0 18G02G03G06G07G09G17G23G26R04R05R06R07
                                R14R15R16R20R21R22
  22742885.477   119514738.439 7        47.200    22742887.820    93128411.237 8
        34.000
  23223068.641   122038002.326 6        43.700    23223075.965    95094654.991 7
        29.700
  20667749.734   108609750.431 7        51.800    20667756.520    84631092.560 9
        42.200
  23930382.875   125755100.613 6        42.100    23930387.965    97991049.811 7
        27.000
  20320884.117   106787085.172 7        51.900    20320890.004    83210800.611 9
        43.300
  24890422.328   130799999.573 5        39.800    24890430.391   101922083.191 5
        17.800
  21101958.086   110891641.196 7        50.200    21101960.629    86409122.085 8
        38.600
  25220296.656   132533585.128 3        35.900

  23896392.023   127964400.173 4        38.200    23896395.781    99527722.454 8
        37.600
  20034716.422   107097921.629 7        46.000    20034720.609    83297804.219 9
        47.700
  19976225.383   106597393.051 8        52.300    19976227.625    82908872.432 9
        42.400
  23794012.078   127371355.934 6        41.500    23794019.828    99066555.514 8
        38.200
  21792545.703   116166571.372 6        41.700    21792553.203    90351827.999 8
        36.000
  21153091.938   113035690.198 7        47.800    21153097.891    87916744.745 9
        43.300
  23902085.180   127680732.989 5        39.800    23902093.309    99307234.888 8
        34.100
  22895190.875   122430755.503 5        40.000    22895198.250    95224023.194 9
        41.800
  20596011.148   110213467.648 8        50.200    20596015.172    85721592.704 9
        45.900
  21692635.195   115796989.063 7        46.100    21692639.395    90064178.439 9
        41.600
 15 11 13 15 44 30.0000000  0 18G02G03G06G07G09G17G23G26R04R05R06R07
                                R14R15R16R20R21R22
  22727729.656   119435094.734 7        47.900    22727732.203    93066351.287 8
        34.200
  23240514.805   122129682.525 6        44.900    23240522.039    95166094.087 7
        29.800
  20666433.664   108602834.086 7        51.600    20666440.500    84625703.204 9
        43.000
  23910075.961   125648389.334 6        43.500    23910081.813    97907898.334 6
        25.900
  20316151.211   106762215.476 7        51.200    20316158.176    83191421.646 9
        43.900
  24909790.023   130901773.139 4        38.400    24909797.441   102001387.243 5
        14.800
  21110660.695   110937373.027 7        50.700    21110662.922    86444757.284 8
        38.500
  25211776.430   132488821.833 4        37.100    25211787.703   103238054.968 5
        16.300
  23916354.375   128071302.075 4        38.600    23916358.715    99610868.393 8
        37.400
  20045434.961   107155215.902 7        45.300    20045438.648    83342366.440 9
        47.300
  19966153.133   106543645.476 8        52.200    19966155.059    82867068.791 9
        41.700
  23774370.922   127266222.808 6        41.700    23774380.078    98984785.568 8
        37.800
  21800710.023   116210090.062 6        41.300    21800716.809    90385675.864 8
        35.100
  21141963.422   112976221.327 7        47.500    21141968.879    87870491.217 9
        43.000
  23876970.117   127546571.284 5        40.400    23876976.914    99202887.065 8
        34.300
  22920147.227   122564219.847 4        38.500    22920157.824    95327828.723 9
        42.200
  20606673.352   110270522.161 8        50.300    20606677.688    85765968.444 9
        44.600
  21680620.625   115732850.462 7        46.700    21680624.145    90014292.936 9
        41.600
 15 11 13 15 45  0.0000000  0 18G02G03G06G07G09G17G23G26R04R05R06R07
                                R14R15R16R20R21R22
  22712636.719   119355780.492 7        47.300    22712638.824    93004548.049 8
        34.300
  23257992.172   122221527.119 6        44.200    23257999.605    95237661.275 7
        28.200
  20665229.969   108596510.552 7        51.400    20665237.273    84620775.784 9
        43.100
  23889789.438   125541785.254 6        42.900    23889795.344    97824830.407 6
        24.500
  20311512.367   106737835.871 7        51.400    20311518.574    83172424.575 9
        44.900
  24929161.633   131003575.213 3        36.700    24929169.664   102080713.491 5
        14.800
  21119435.938   110983490.415 7        50.300    21119438.496    86480692.927 8
        38.400
  25203345.461   132444514.217 2        35.000    25203355.301   103203529.578 5
        14.800
  23936323.563   128178230.612 5        40.700    23936326.668    99694035.146 8
        37.700
  20056217.203   107212857.979 7        45.800    20056221.813    83387199.167 9
        47.000
  19956149.648   106490266.999 8        52.800    19956152.215    82825552.233 9
        42.400
  23754745.484   127161158.040 6        41.300    23754752.492    98903068.733 8
        37.000
  21809022.445   116254398.542 6        41.400    21809029.059    90420137.991 8
        35.700
  21130975.680   112917502.909 7        48.200    21130980.574    87824821.380 9
        43.300
  23851859.359   127412438.956 4        39.000    23851866.578    99098562.163 8
        33.400
  22945142.305   122697868.740 5        39.700    22945149.656    95431777.757 9
        41.900
  20617478.383   110328340.887 8        50.900    20617481.832    85810938.539 9
        45.300
  21668739.773   115669430.196 7        46.300    21668742.891    89964966.095 9
        41.400
 15 11 13 15 45 30.0000000  0 18G02G03G06G07G09G17G23G26R04R05R06R07
                                R14R15R16R20R21R22
  22697606.578   119276798.128 7        48.000    22697609.125    92943003.413 8
        34.700
  23275500.703   122313535.214 6        44.100    23275508.055    95309355.892 7
        28.900
  20664139.664   108590780.459 7        52.000    20664147.004    84616310.788 9
        42.700
  23869524.898   125435291.228 6        43.300    23869529.609    97741848.270 6
        24.300
  20306965.695   106713946.360 7        51.700    20306972.230    83153809.390 9
        43.800
  24948538.578   131105403.109 3        35.400

  21128284.898   111029991.750 7        50.700    21128287.219    86516927.738 8
        38.400
  25195001.133   132400664.474 4        37.500    25195009.730   103169360.974 5
        15.600
  23956294.539   128285184.802 4        37.300    23956299.609    99777221.764 8
        38.200
  20067065.781   107270846.884 7        46.300    20067069.453    83432301.653 9
        47.400
  19946216.086   106437258.150 8        52.800    19946218.492    82784323.164 9
        41.900
  23735129.891   127056162.311 5        40.700    23735138.566    98821405.562 8
        38.100
  21817481.203   116299494.628 6        41.300    21817488.488    90455212.697 8
        35.300
  21120127.141   112859538.285 7        47.500    21120133.535    87779737.816 9
        43.500
  23826756.656   127278340.008 6        41.500    23826764.285    98994263.241 8
        35.600
  22970170.328   122831698.009 6        41.200    22970177.645    95535867.081 9
        42.300
  20628425.570   110386921.156 8        50.700    20628428.836    85856500.964 9
        45.200
  21656993.852   115606731.089 7        47.200    21656997.813    89916200.164 9
        41.400
 15 11 13 15 46  0.0000000  0 18G02G03G06G07G09G17G23G26R04R05R06R07
                                R14R15R16R20R21R22
  22682640.188   119198149.989 7        47.500    22682643.008    92881719.224 8
        33.700
  23293040.414   122405705.727 6        44.600    23293047.270    95381177.041 7
        28.100
  20663162.484   108585644.367 8        52.300    20663169.258    84612308.656 9
        43.100
  23849280.617   125328909.297 6        42.700    23849286.383    97658953.420 6
        24.800
  20302513.219   106690546.923 7        51.400    20302519.363    83135576.086 9
        43.700
  24967920.633   131207253.270 3        36.000

  21137206.773   111076875.586 7        51.500    21137208.863    86553460.612 8
        38.200
  25186745.016   132357274.544 3        37.000    25186752.387   103135550.618 5
        15.600
  23976271.648   128392163.259 3        36.900    23976277.109    99860427.291 8
        38.100
  20077978.555   107329181.194 7        45.800    20077982.191    83477672.795 9
        47.400
  19936351.398   106384619.553 8        53.000    19936354.277    82743382.069 9
        42.100
  23715529.141   126951236.444 6        41.400    23715538.207    98739796.701 8
        39.000
  21826088.094   116345376.247 6        41.100    21826095.863    90490898.384 8
        34.600
  21109422.445   112802331.130 7        47.000    21109428.012    87735243.388 9
        43.800
  23801659.000   127144278.669 5        39.700    23801667.898    98889993.576 8
        36.300
  22995228.766   122965703.306 5        40.500    22995236.883    95640093.340 9
        41.700
  20639514.398   110446259.921 8        50.500    20639518.586    85902653.322 9
        44.900
  21645384.398   115544756.175 7        47.000    21645387.891    89867997.475 9
        41.800
 15 11 13 15 46 30.0000000  0 18G02G03G06G07G09G17G23G26R04R05R06R07
                                R14R15R16R20R21R22
  22667738.070   119119838.293 6        47.000    22667740.695    92820697.191 8
        33.600
  23310610.555   122498037.943 6        44.800    23310617.863    95453124.216 7
        27.600
  20662298.328   108581102.993 7        51.800    20662304.641    84608769.941 9
        42.800
  23829058.742   125222642.653 6        45.300    23829063.590    97576148.342 6
        24.600
  20298153.734   106667637.716 7        51.200    20298159.746    83117724.786 9
        44.100
  24987304.570   131309123.406 3        36.700

  21146201.250   111124140.740 7        51.100    21146203.445    86590290.620 8
        37.900
  25178577.547   132314346.524 4        38.300    25178583.703   103102100.209 5
        15.600
  23996253.875   128499166.154 4        37.100    23996259.387    99943651.804 8
        37.100
  20088955.078   107387860.149 7        45.800    20088958.891    83523311.983 9
        47.300
  19926556.734   106332352.325 8        52.800    19926558.875    82702729.810 9
        42.100
  23695939.711   126846381.101 4        39.000    23695949.965    98658242.708 8
        38.900
  21834844.289   116392041.448 6        43.000    21834850.852    90527193.520 8
        35.000
  21098857.883   112745883.447 7        46.800    21098864.586    87691339.669 9
        44.000
  23776570.500   127010258.842 5        39.700    23776577.578    98785756.183 8
        35.300
  23020319.758   123099880.551 5        39.200    23020329.590    95744453.314 9
        42.100
  20650742.633   110506354.641 8        50.300    20650747.871    85949393.662 9
        45.500
  21633909.898   115483508.195 7        47.500    21633914.145    89820360.200 9
        42.600
 15 11 13 15 47  0.0000000  0 18G02G03G06G07G09G17G23G26R04R05R06R07
                                R14R15R16R20R21R22
  22652899.844   119041865.330 6        46.700    22652902.617    92759939.103 8
        33.600
  23328211.492   122590530.720 6        44.500    23328218.988    95525196.506 7
        28.500
  20661547.727   108577156.652 7        51.500    20661553.918    84605694.882 9
        42.600
  23808859.172   125116493.754 6        45.200    23808864.457    97493435.025 7
        27.500
  20293887.641   106645218.460 7        51.000    20293893.816    83100255.262 9
        43.900
  25006693.586   131411009.965 3        35.800

  21155267.656   111171785.247 7        50.700    21155269.715    86627416.216 8
        38.000
  25170495.219   132271882.249 4        38.100    25170504.121   103069011.186 5
        16.900
  24016240.406   128606191.905 4        37.600    24016245.125   100026894.092 8
        37.200
  20099996.555   107446882.531 7        46.100    20100000.574    83569218.288 9
        47.300
  19916831.203   106280456.739 8        52.300    19916833.793    82662366.601 9
        41.900
  23676364.992   126741596.863 5        39.700    23676374.836    98576744.028 8
        38.500
  21843744.266   116439487.827 6        42.800    21843751.934    90564096.234 8
        34.600
  21088438.305   112690198.632 7        47.800    21088444.164    87648029.285 9
        44.000
  23751490.883   126876284.639 5        40.300    23751497.574    98681554.234 8
        36.100
  23045444.094   123234225.267 5        39.400    23045452.199    95848943.544 9
        41.500
  20662114.750   110567202.075 8        49.800    20662119.633    85996719.437 9
        46.100
  21622573.250   115422990.056 7        48.200    21622577.309    89773290.567 9
        42.800
 15 11 13 15 47 30.0000000  0 19G02G03G06G07G09G16G17G23G26R04R05R06
                                R07R14R15R16R20R21R22
  22638127.133   118964233.816 7        47.500    22638130.031    92699447.089 8
        33.400
  23345842.414   122683183.515 6        45.200    23345849.801    95597393.475 7
        27.400
  20660909.453   108573806.363 7        51.100    20660916.688    84603084.273 9
        43.000
  23788682.570   125010465.630 6        46.200    23788688.250    97410815.807 7
        29.100
  20289714.336   106623289.533 8        52.200    20289720.371    83083167.822 9
        43.900
  25551072.141   134271810.994 1        29.100

  25026085.016   131512910.642 2        34.300

  21164406.133   111219808.256 7        51.800    21164408.191    86664836.752 8
        38.400
  25162503.727   132229884.163 4        38.600    25162511.395   103036285.373 5
        16.900
  24036230.375   128713240.450 3        36.800    24036235.160   100110154.119 8
        36.800
  20111102.156   107506247.209 7        46.300    20111105.891    83615390.821 9
        47.600
  19907176.195   106228934.672 8        52.200    19907178.281    82622293.915 9
        42.200
  23656806.102   126636885.318 6        42.300    23656813.262    98495301.839 8
        38.600
  21852791.719   116487713.375 6        41.300    21852798.422    90601604.990 8
        35.100
  21078160.461   112635279.538 7        48.100    21078166.457    87605314.482 9
        44.000
  23726418.563   126742360.249 5        39.700    23726426.340    98577391.120 8
        36.000
  23070597.898   123368733.748 6        41.100    23070606.016    95953561.161 8
        40.800
  20673626.391   110628799.663 8        50.000    20673630.355    86044628.630 9
        45.100
  21611374.141   115363204.865 7        48.400    21611377.223    89726791.018 9
        43.100
 15 11 13 15 48  0.0000000  0 19G02G03G06G07G09G16G17G23G26R04R05R06
                                R07R14R15R16R20R21R22
  22623420.219   118886946.151 7        48.200    22623422.086    92639222.990 8
        33.400
  23363504.313   122775995.398 6        45.800    23363511.418    95669714.411 7
        27.300
  20660385.867   108571052.555 7        51.500    20660392.648    84600938.458 9
        43.500
  23768529.008   124904560.921 6        45.100    23768535.164    97328292.759 7
        27.700
  20285634.953   106601850.855 7        51.800    20285640.629    83066462.393 9
        43.000
  25535826.922   134191696.181 1        31.300

  25045478.328   131614822.454 1        32.500

  21173616.406   111268208.051 7        51.100    21173618.434    86702550.891 8
        38.000
  25154600.578   132188354.062 4        37.200    25154608.363   103003924.274 5
        16.300
  24056225.719   128820310.787 4        37.700    24056229.234   100193431.075 8
        36.000
  20122271.547   107565953.471 7        46.000    20122275.129    83661829.036 9
        47.000
  19897590.859   106177786.195 8        52.400    19897592.680    82582511.801 9
        41.600
  23637257.891   126532246.889 5        40.900    23637266.293    98413916.554 8
        38.700
  21861983.242   116536716.188 5        40.500    21861990.898    90639718.289 8
        34.400
  21068027.281   112581128.022 7        48.400    21068032.910    87563196.669 9
        44.100
  23701357.000   126608489.794 4        37.700    23701363.922    98473269.873 8
        35.000
  23095779.750   123503401.467 5        39.200    23095790.316    96058302.642 9
        41.900
  20685275.805   110691144.566 8        49.300    20685281.406    86093119.094 9
        44.800
  21600311.445   115304155.375 7        47.800    21600314.992    89680863.687 9
        43.000
 15 11 13 15 48 30.0000000  0 19G02G03G06G07G09G16G17G23G26R04R05R06
                                R07R14R15R16R20R21R22
  22608778.406   118810004.173 7        47.800    22608780.973    92579268.259 8
        33.600
  23381195.594   122868965.149 6        45.100    23381201.762    95742158.378 7
        27.500
  20659975.117   108568895.488 7        50.800    20659982.379    84599257.630 9
        42.000
  23748399.852   124798782.286 6        44.500    23748405.355    97245867.991 7
        27.300
  20281648.563   106580902.175 7        51.200    20281653.535    83050138.772 9
        43.200
  25520635.133   134111849.481 3        35.500

  25064871.930   131716742.361 1        30.700

  21182898.359   111316983.147 7        51.900    21182899.840    86740557.475 8
        38.200
  25146786.055   132147293.807 4        37.600    25146794.352   102971929.246 5
        15.600
  24076224.656   128927401.785 4        37.700    24076228.063   100276724.116 8
        35.000
  20133504.789   107625999.861 7        45.400    20133508.172    83708531.792 9
        46.700
  19888076.148   106127012.093 8        52.700    19888077.988    82543020.866 9
        41.500
  23617722.836   126427682.280 5        40.200    23617732.523    98332588.746 8
        38.100
  21871321.797   116586493.383 5        40.800    21871328.629    90678433.895 8
        34.800
  21058037.695   112527748.163 7        48.000    21058043.922    87521679.041 9
        43.700
  23676307.742   126474677.373 5        40.600    23676314.984    98369193.762 8
        35.600
  23120992.602   123638224.247 4        39.000    23121002.781    96163164.676 8
        41.000
  20697065.844   110754233.459 8        49.600    20697070.121    86142188.189 9
        44.800
  21589388.078   115245844.050 7        47.900    21589391.090    89635510.462 9
        42.700
 15 11 13 15 49  0.0000000  0 19G02G03G06G07G09G16G17G23G26R04R05R06
                                R07R14R15R16R20R21R22
  22594203.234   118733410.451 7        47.900    22594205.270    92519584.881 8
        34.600
  23398916.828   122962091.878 6        45.300    23398923.449    95814724.679 7
        27.500
  20659678.422   108567335.632 8        52.300    20659685.273    84598042.181 9
        42.600
  23728295.711   124693132.062 6        44.000    23728301.898    97163543.242 7
        28.800
  20277755.672   106560443.410 8        52.200    20277760.496    83034196.905 9
        42.900
  25505491.563   134032274.381 1        30.700

  25084268.008   131818667.580 1        26.400

  21192250.367   111366131.751 7        51.500    21192252.637    86778855.109 8
        38.600
  25139063.781   132106705.200 4        38.400    25139070.992   102940301.772 5
        16.300
  24096225.680   129034512.894 3        36.500    24096230.227   100360032.798 8
        36.600
  20144800.820   107686385.254 7        45.800    20144804.688    83755498.229 9
        47.500
  19878631.281   106076613.046 8        52.300    19878633.469    82503821.639 9
        42.100
  23598204.063   126323192.492 6        41.600    23598211.039    98251319.024 8
        37.200
  21880804.469   116637042.922 6        41.100    21880812.766    90717750.208 8
        35.800
  21048194.148   112475142.443 7        48.200    21048199.359    87480763.516 9
        44.100
  23651268.953   126340926.830 5        40.900    23651276.426    98265165.790 8
        36.200
  23146235.328   123773197.934 5        39.400    23146242.340    96268144.105 8
        40.900
  20708993.930   110818063.200 8        49.300    20708998.676    86191833.523 9
        44.900
  21578601.922   115188273.543 7        46.800    21578606.805    89590733.447 9
        43.100
 15 11 13 15 49 30.0000000  0 19G02G03G05G06G07G09G17G23G26R04R05R06
                                R07R14R15R16R20R21R22
  22579694.391   118657167.231 7        47.600    22579697.188    92460174.613 8
        34.700
  23416668.125   123055374.650 6        45.200    23416675.203    95887412.567 7
        28.700
  25689650.820   135000061.810 1        28.900

  20659495.641   108566373.476 7        50.500    20659502.285    84597292.469 9
        43.500
  23708216.789   124587612.925 6        46.000    23708221.945    97081320.626 7
        29.300
  20273955.875   106540474.461 7        51.700    20273960.438    83018636.710 9
        43.300
  25103667.289   131920594.926 1        30.700

  21201674.266   111415652.614 7        51.400    21201676.207    86817442.796 8
        38.300
  25131428.852   132066590.346 4        37.600    25131436.926   102909043.423 5
        16.300
  24116230.891   129141643.334 3        36.000    24116236.609   100443356.529 8
        36.100
  20156159.430   107747108.432 7        46.000    20156164.195    83802727.372 9
        46.700
  19869257.047   106026589.945 8        52.500    19869259.141    82464914.819 9
        41.500
  23578699.070   126218778.161 6        42.200    23578706.449    98170108.022 8
        37.600
  21890432.016   116688362.209 5        40.400    21890439.477    90757665.209 8
        35.800
  21038494.555   112423313.439 7        48.500    21038499.863    87440452.112 9
        44.400
  23626242.102   126207242.251 5        39.300    23626250.063    98161189.151 8
        36.700
  23171502.719   123908318.184 4        38.600    23171510.898    96373237.572 8
        41.000
  20721059.945   110882631.009 8        50.000    20721064.852    86242052.910 9
        45.500
  21567956.945   115131446.651 7        45.900    21567961.008    89546534.790 9
        43.300
 15 11 13 15 50  0.0000000  0 18G02G03G05G06G07G09G23G26R04R05R06R07
                                R14R15R16R20R21R22
  22565253.141   118581277.159 7        47.500    22565255.227    92401039.545 8
        35.100
  23434449.289   123148812.900 6        43.800    23434456.398    95960221.592 7
        29.100
  25669972.758   134896654.215 2        33.900

  20659426.492   108566009.767 7        50.000    20659433.211    84597009.061 9
        42.800
  23688161.961   124482227.943 6        46.100    23688167.973    96999202.508 7
        29.100
  20270249.117   106520995.583 7        51.000    20270253.961    83003458.382 9
        42.900
  21211167.867   111465544.392 7        50.800    21211169.945    86856319.522 8
        38.300
  25123886.813   132026951.330 4        38.700    25123894.078   102878155.918 5
        16.300
  24136241.422   129248792.372 5        39.100    24136246.531   100526694.721 8
        37.100
  20167581.359   107808168.494 7        45.300    20167586.340    83850218.549 9
        47.300
  19859953.430   105976943.610 9        53.300    19859955.078    82426301.048 9
        42.400
  23559206.852   126114440.084 5        40.900    23559215.074    98088956.345 8
        38.700
  21900202.586   116740449.507 5        39.100    21900210.918    90798177.553 8
        36.000
  21028941.148   112372264.581 7        47.600    21028947.059    87400747.507 9
        43.900
  23601229.625   126073628.368 4        38.800    23601238.086    98057267.439 8
        37.300
  23196799.367   124043581.230 6        41.300    23196804.586    96478442.048 8
        39.800
  20733264.609   110947934.050 8        50.700    20733267.805    86292844.122 9
        44.400
  21557450.789   115075366.335 7        46.100    21557455.379    89502916.827 9
        43.800
 15 11 13 15 50 30.0000000  0 18G02G03G05G06G07G09G23G26R04R05R06R07
                                R14R15R16R20R21R22
  22550879.336   118505741.596 7        47.200    22550881.176    92342180.704 8
        34.700
  23452259.250   123242404.816 6        43.900    23452266.688    96033150.332 7
        29.100
  25650294.969   134793241.098 3        35.800    25650302.594   105033690.728 5
        17.400
  20659470.906   108566244.045 7        49.600    20659477.672    84597191.615 9
        42.700
  23668134.211   124376978.978 6        45.400    23668138.109    96917190.377 7
        27.000
  20266635.688   106502005.750 7        51.400    20266640.387    82988661.140 9
        43.700
  21220732.453   111515804.611 7        50.900    21220734.086    86895483.344 8
        38.300
  25116433.516   131987789.140 4        37.900    25116442.426   102847639.957 6
        18.600
  24156254.477   129355958.244 4        37.900    24156258.625   100610045.968 8
        36.900
  20179068.172   107869563.884 7        45.700    20179071.438    83897970.531 9
        47.000
  19850719.711   105927673.984 8        52.000    19850722.211    82387980.267 9
        41.800
  23539730.102   126010178.841 6        41.800    23539737.594    98007864.413 8
        38.100
  21910118.477   116793300.780 6        41.200    21910125.633    90839284.090 8
        36.300
  21019534.586   112321996.321 7        48.000    21019539.363    87361650.025 9
        43.500
  23576230.766   125940088.258 6        41.400    23576237.938    97953403.129 8
        37.500
  23222118.898   124178981.841 5        40.500    23222125.676    96583753.566 8
        40.500
  20745604.617   111013968.190 8        49.800    20745608.328    86344203.963 9
        45.100
  21547085.766   115020034.227 7        46.500    21547089.672    89459880.769 9
        43.400
 15 11 13 15 51  0.0000000  0 18G02G03G05G06G07G09G23G26R04R05R06R07
                                R14R15R16R20R21R22
  22536573.172   118430563.810 6        46.300    22536575.621    92283600.651 8
        34.300
  23470097.656   123336150.086 6        42.700    23470105.766    96106198.596 7
        29.700
  25630615.648   134689823.616 3        35.700    25630623.555   104953105.684 5
        16.900
  20659629.250   108567077.377 7        50.200    20659636.180    84597840.968 9
        42.200
  23648131.523   124271869.233 6        44.500    23648136.793    96835286.738 7
        28.100
  20263115.055   106483505.544 7        51.100    20263120.086    82974245.416 9
        44.000
  21230366.570   111566432.588 7        50.600    21230368.695    86934933.728 8
        38.100
  25109072.766   131949106.412 4        38.400    25109080.820   102817497.585 5
        17.800
  24176267.258   129463141.202 2        34.800    24176274.441   100693410.567 8
        35.900
  20190615.531   107931293.811 7        45.400    20190619.414    83945982.708 9
        46.700
  19841557.469   105878782.421 8        51.200    19841559.801    82349953.534 9
        41.600
  23520267.828   125905995.274 6        43.000    23520276.047    97926832.905 8
        39.500
  21920175.219   116846914.554 5        39.600    21920183.012    90880983.693 8
        37.200
  21010273.914   112272513.204 7        48.200    21010279.016    87323163.208 9
        43.900
  23551246.609   125806626.472 6        41.600    23551253.699    97849599.698 8
        37.700
  23247464.047   124314516.556 5        39.700    23247471.281    96689169.328 8
        40.200
  20758080.508   111080730.938 8        50.200    20758084.832    86396130.528 9
        44.900
  21536860.563   114965453.840 7        47.200    21536864.598    89417429.383 9
        43.400
 15 11 13 15 51 30.0000000  0 19G02G03G05G06G07G09G16G23G26R04R05R06
                                R07R14R15R16R20R21R22
  22522335.477   118355745.838 6        47.000    22522337.660    92225300.970 8
        35.200
  23487966.945   123430047.766 6        42.400    23487973.781    96179365.582 7
        28.900
  25610935.891   134586403.265 3        36.300    25610943.813   104872518.412 5
        16.300
  20659901.742   108568510.005 7        50.400    20659909.086    84598957.314 9
        42.800
  23628156.602   124166901.486 6        42.500    23628162.691    96753493.809 7
        28.100
  20259687.922   106465494.730 7        51.400    20259692.664    82960211.042 9
        43.100
  25430575.391   133638588.163 2        33.400

  21240070.484   111617426.426 7        50.000    21240072.320    86974669.200 8
        38.500
  25101803.773   131910904.737 4        38.300    25101810.977   102787730.046 5
        17.400
  24196287.148   129570340.426 3        36.500    24196293.008   100776787.767 8
        37.300
  20202225.633   107993357.344 7        45.800    20202229.695    83994254.348 9
        47.000
  19832466.430   105830269.937 8        52.300    19832469.340    82312221.635 9
        41.900
  23500821.297   125801890.519 6        42.000    23500828.266    97845862.694 8
        38.900
  21930374.617   116901288.356 4        38.000    21930383.848    90923274.461 8
        36.300
  21001160.578   112223817.883 7        47.500    21001166.547    87285289.111 9
        43.600
  23526276.969   125673247.643 6        41.500    23526284.734    97745860.766 8
        36.700
  23272831.742   124450181.192 4        37.500    23272842.922    96794686.198 9
        41.400
  20770692.367   111148219.221 8        49.900    20770696.324    86448621.374 9
        44.400
  21526777.109   114911627.531 7        47.300    21526781.430    89375564.495 9
        43.100
 15 11 13 15 52  0.0000000  0 19G02G03G05G06G07G09G16G23G26R04R05R06
                                R07R14R15R16R20R21R22
  22508167.445   118281289.886 7        47.100    22508169.730    92167283.399 8
        35.200
  23505862.938   123524096.775 5        41.800    23505870.770    96252650.540 7
        27.800
  25591253.883   134482980.067 4        37.900    25591263.230   104791928.880 5
        16.900
  20660288.422   108570542.175 7        49.600    20660295.746    84600540.832 9
        43.100
  23608209.766   124062077.984 6        42.900    23608215.793    96671813.305 7
        28.400
  20256353.313   106447973.051 7        51.800    20256358.367    82946557.809 9
        43.400
  25415754.680   133560709.133 1        32.500

  21249843.563   111668784.965 7        51.300    21249845.832    87014688.848 8
        38.400
  25094625.305   131873186.015 4        38.300    25094633.809   102758338.875 5
        16.300
  24216308.758   129677554.660 3        36.500    24216313.488   100860176.677 8
        35.100
  20213898.195   108055753.126 7        45.900    20213902.313    84042784.403 9
        46.800
  19823446.102   105782136.832 8        52.100    19823448.023    82274784.818 9
        41.600
  23481388.555   125697865.076 6        44.500    23481395.773    97764954.153 8
        39.200
  21940718.875   116956419.790 5        40.400    21940726.707    90966154.481 8
        36.700
  20992195.445   112175912.313 7        47.500    20992201.594    87248029.283 9
        44.000
  23501324.563   125539955.473 6        41.700    23501331.574    97642189.234 8
        37.500
  23298226.820   124585971.417 4        37.900    23298235.813    96900300.677 8
        40.300
  20783438.672   111216429.608 7        48.300    20783443.121    86501673.870 9
        44.800
  21516835.281   114858557.847 7        47.300    21516839.691    89334288.124 9
        43.600
 15 11 13 15 52 30.0000000  0 19G02G03G05G06G07G09G16G23G26R04R05R06
                                R07R14R15R16R20R21R22
  22494067.992   118207198.188 7        47.100    22494070.160    92109549.654 8
        34.700
  23523788.844   123618296.114 6        42.800    23523796.172    96326052.588 7
        28.100
  25571572.883   134379555.381 4        37.900    25571581.652   104711338.308 6
        19.600
  20660789.852   108573174.135 7        51.100    20660796.559    84602591.717 9
        42.700
  23588290.648   123957401.404 6        44.600    23588295.828    96590247.241 7
        30.800
  20253112.031   106430940.250 7        51.000    20253116.605    82933285.514 9
        43.500
  25400991.367   133483123.707 2        34.100

  21259685.938   111720506.393 7        52.000    21259688.051    87054991.267 8
        39.200
  25087539.938   131835951.833 4        38.000    25087547.598   102729325.221 5
        17.800
  24236331.594   129784783.505 2        34.700    24236338.473   100943576.943 8
        36.200
  20225631.547   108118479.894 7        46.000    20225636.863    84091571.897 9
        46.800
  19814497.359   105734383.805 8        52.400    19814499.152    82237643.601 9
        42.000
  23461968.828   125593919.625 6        43.800    23461977.641    97684107.897 8
        39.700
  21951203.422   117012305.750 5        40.800    21951210.395    91009621.320 8
        36.500
  20983379.758   112128799.320 7        48.100    20983385.207    87211385.881 9
        44.700
  23476389.156   125406754.074 5        40.700    23476395.953    97538588.241 8
        37.000
  23323643.828   124721882.935 5        40.200    23323652.355    97006009.537 8
        40.900
  20796318.602   111285358.714 8        49.700    20796323.871    86555285.387 9
        44.800
  21507036.500   114806247.016 7        48.300    21507039.770    89293601.952 9
        43.300
 15 11 13 15 53  0.0000000  0 19G02G03G05G06G07G09G16G23G26R04R05R06
                                R07R14R15R16R20R21R22
  22480038.563   118133473.188 7        47.500    22480040.563    92052101.658 8
        35.600
  23541742.602   123712644.995 6        43.200    23541749.574    96399571.187 7
        28.100
  25551890.547   134276129.403 3        35.700    25551899.988   104630746.762 5
        16.900
  20661404.078   108576406.335 7        50.000    20661411.789    84605110.326 9
        42.300
  23568399.664   123852874.897 6        45.200    23568405.211    96508798.134 7
        31.300
  20249963.633   106414396.334 7        50.400    20249968.383    82920394.176 9
        43.300
  25386284.180   133405834.890 2        33.900

  21269597.031   111772589.167 7        50.900    21269599.055    87095575.251 8
        39.000
  25080547.023   131799204.296 4        38.600    25080556.250   102700690.784 6
        18.300
  24256360.531   129892026.586 2        35.000    24256364.359   101026988.266 8
        34.800
  20237428.602   108181536.652 7        45.600    20237432.234    84140616.052 9
        46.400
  19805620.797   105687012.387 8        52.400    19805622.059    82200799.194 9
        42.300
  23442567.797   125490055.376 6        44.000    23442574.422    97603324.720 8
        39.400
  21961828.305   117068944.372 5        40.100    21961836.207    91053673.555 8
        37.400
  20974711.375   112082480.601 7        47.700    20974717.836    87175360.256 9
        44.400
  23451471.617   125273647.672 6        42.200    23451478.449    97435061.156 8
        37.600
  23349081.922   124857912.080 4        38.900    23349090.488    97111809.882 8
        40.500
  20809335.273   111355003.469 8        50.500    20809339.281    86609453.491 9
        44.900
  21497379.164   114754697.599 7        48.700    21497383.176    89253507.987 9
        43.800
 15 11 13 15 53 30.0000000  0 18G02G03G05G06G07G09G23G26R04R05R06R07
                                R14R15R16R20R21R22
  22466079.336   118060116.781 7        47.800    22466081.563    91994940.863 8
        35.800
  23559724.898   123807142.291 6        43.200    23559732.098    96473205.410 7
        26.800
  25532210.484   134172702.746 3        35.500    25532218.496   104550154.661 5
        16.900
  20662133.797   108580238.817 7        50.800    20662140.844    84608096.697 9
        42.100
  23548537.758   123748500.252 6        44.200    23548543.969    96427467.349 7
        30.900
  20246908.133   106398340.859 7        50.700    20246912.875    82907883.435 9
        43.000
  21279576.602   111825031.806 8        52.200    21279578.961    87136439.651 8
        39.400
  25073647.281   131762944.903 4        38.700    25073655.551   102672436.748 6
        18.600
  24276390.906   129999282.183 3        36.600    24276394.184   101110409.403 8
        34.700
  20249285.195   108244922.241 6        45.000    20249289.887    84189915.962 9
        46.400
  19796814.375   105640022.569 8        52.500    19796815.805    82164251.573 9
        41.700
  23423181.445   125386272.943 6        44.900    23423187.340    97522605.195 8
        39.700
  21972593.703   117126332.538 5        39.900    21972602.410    91098308.785 8
        36.800
  20966191.523   112036958.470 7        48.000    20966198.543    87139954.208 9
        44.900
  23426572.602   125140640.316 6        41.400    23426578.805    97331611.045 8
        37.100
  23374542.766   124994054.184 5        40.500    23374548.742    97217698.085 8
        40.000
  20822481.984   111425360.303 8        50.500    20822486.758    86664175.454 9
        44.500
  21487864.961   114703911.879 7        48.100    21487869.383    89214008.002 9
        44.000
 15 11 13 15 54  0.0000000  0 19G02G03G05G06G07G09G16G23G26R04R05R06
                                R07R14R15R16R20R21R22
  22452190.750   117987131.789 7        49.000    22452192.910    91938069.496 8
        36.500
  23577735.461   123901787.172 6        43.400    23577743.055    96546954.652 7
        26.900
  25512528.195   134069276.511 3        36.200    25512537.699   104469562.872 6
        18.300
  20662977.055   108584671.992 7        50.600    20662984.758    84611551.122 9
        42.400
  23528705.250   123644280.707 6        43.600    23528711.258    96346257.419 7
        27.200
  20243945.969   106382773.776 7        50.500    20243950.785    82895753.271 9
        43.100
  25357039.859   133252159.489 2        33.500

  21289624.477   111877832.705 7        51.900    21289626.555    87177583.212 8
        39.600
  25066840.531   131727175.320 4        37.600    25066848.727   102644564.368 6
        18.300
  24296422.266   130106549.781 2        35.000    24296425.809   101193839.835 8
        35.600
  20261205.117   108308635.758 6        45.000    20261208.711    84239470.899 9
        46.800
  19788079.781   105593414.697 8        52.700    19788081.344    82128001.026 9
        42.600
  23403806.688   125282572.919 6        44.700    23403814.352    97441949.828 8
        39.300
  21983498.859   117184467.327 5        40.200    21983508.238    91143524.726 8
        37.900
  20957823.680   111992236.322 7        48.500    20957829.473    87105170.352 9
        44.700
  23401691.945   125007736.572 5        40.500    23401698.496    97228241.543 8
        36.200
  23400021.953   125130305.233 5        39.500    23400029.441    97323671.022 8
        40.800
  20835763.117   111496426.122 8        50.700    20835767.301    86719448.827 9
        44.800
  21478494.141   114653892.287 7        48.100    21478498.832    89175103.917 9
        44.500
 15 11 13 15 54 30.0000000  0 19G02G03G05G06G07G09G16G23G26R04R05R06
                                R07R14R15R16R20R21R22
  22438373.703   117914520.343 7        48.800    22438375.359    91881489.206 8
        35.400
  23595773.406   123996578.937 6        43.100    23595780.879    96620818.315 6
        25.700
  25492847.539   133965851.838 4        37.600    25492856.711   104388972.350 5
        17.800
  20663935.172   108589706.246 7        51.700    20663942.539    84615473.918 9
        42.600
  23508903.289   123540219.197 6        44.600    23508908.625    96265170.659 7
        28.500
  20241076.422   106367695.029 7        51.100    20241081.148    82884003.614 9
        43.000
  25342504.391   133175779.196 2        33.900

  21299740.148   111930990.370 8        52.300    21299741.918    87219004.772 8
        39.700
  25060127.813   131691897.671 4        37.100    25060135.461   102617075.331 6
        18.300
  24316454.250   130213829.133 2        34.800    24316459.816   101277279.397 8
        36.000
  20273186.094   108372676.075 7        45.800    20273189.180    84289280.044 9
        46.800
  19779417.266   105547190.263 8        52.400    19779418.602    82092048.711 9
        42.300
  23384451.695   125178956.679 6        44.000    23384458.043    97361359.509 8
        39.600
  21994546.188   117243346.770 6        41.100    21994553.066    91189319.843 8
        37.200
  20949605.422   111948316.740 7        48.700    20949609.711    87071010.723 9
        44.800
  23376833.078   124874940.718 6        41.400    23376838.859    97124955.896 8
        36.900
  23425520.883   125266661.266 4        38.100    23425528.168    97429725.595 8
        39.700
  20849175.023   111568197.697 8        49.900    20849179.066    86775271.127 9
        44.300
  21469268.102   114604641.572 7        47.400    21469273.203    89136797.835 9
        44.800
 15 11 13 15 55  0.0000000  0 19G02G03G05G06G07G09G16G23G26R04R05R06
                                R07R14R15R16R20R21R22
  22424627.164   117842284.850 7        47.600    22424629.098    91825201.845 8
        35.400
  23613839.727   124091516.541 6        42.900    23613847.199    96694795.647 7
        26.900
  25473167.406   133862429.847 3        36.900    25473175.535   104308383.874 6
        18.300
  20665007.453   108595341.680 8        52.100    20665014.746    84619865.189 9
        42.900
  23489130.836   123436318.027 6        44.600    23489136.480    96184208.824 7
        28.100
  20238300.023   106353104.355 7        50.300    20238305.059    82872634.268 9
        43.100
  25328028.672   133099708.144 2        33.700

  21309923.164   111984503.591 8        52.600    21309924.773    87260703.380 8
        39.800
  25053508.391   131657113.610 4        37.900    25053516.156   102589970.891 6
        19.000
  24336490.719   130321119.685 2        34.600    24336495.254   101360727.626 8
        35.100
  20285226.242   108437042.090 7        45.800    20285230.309    84339342.505 9
        46.900
  19770826.586   105501350.056 8        52.100    19770828.688    82056395.251 9
        41.400
  23365110.438   125075424.724 6        44.300    23365117.344    97280834.806 8
        40.700
  22005730.664   117302967.743 6        42.100    22005738.043    91235691.694 8
        36.900
  20941536.609   111905201.559 7        48.300    20941542.227    87037476.741 9
        44.700
  23351992.570   124742256.747 4        39.000    23352000.305    97021757.287 8
        35.800
  23451039.461   125403118.300 5        39.800    23451047.352    97535858.744 8
        39.600
  20862718.859   111640671.435 8        50.800    20862723.168    86831639.561 9
        44.900
  21460185.820   114556161.766 7        47.000    21460190.816    89099091.362 9
        45.100
 15 11 13 15 55 30.0000000  0 19G02G03G05G06G07G09G16G23G26R04R05R06
                                R07R14R15R16R20R21R22
  22410953.258   117770427.527 6        46.800    22410955.480    91769209.171 8
        33.800
  23631933.367   124186598.911 6        43.200    23631940.594    96768885.789 7
        26.900
  25453487.008   133759010.608 4        37.900    25453495.047   104227797.514 6
        18.600
  20666194.648   108601578.443 7        50.800    20666201.629    84624725.016 9
        42.600
  23469391.328   123332579.935 6        46.800    23469396.449    96103374.058 7
        30.800
  20235616.359   106339001.366 7        50.900    20235621.094    82861644.944 9
        43.400
  25313612.734   133023949.352 2        34.300

  21320173.469   112038370.634 7        51.400    21320175.711    87302677.702 8
        39.500
  25046983.336   131622824.681 4        38.400    25046991.359   102563252.243 6
        18.600
  24356528.727   130428420.351 3        36.400    24356532.836   101444183.770 8
        34.500
  20297327.992   108501732.584 7        45.400    20297332.109    84389657.328 9
        47.400
  19762308.359   105455894.344 8        52.800    19762310.316    82021040.841 9
        41.800
  23345784.852   124971978.157 6        44.300    23345793.078    97200376.541 8
        40.200
  22017054.320   117363327.194 6        41.400    22017061.574    91282637.927 8
        36.700
  20933618.672   111862893.225 7        48.200    20933624.996    87004570.311 9
        44.600
  23327176.227   124609688.828 5        39.900    23327184.184    96918648.903 8
        37.900
  23476575.000   125539672.078 4        37.500    23476583.137    97642067.157 8
        40.600
  20876392.898   111713843.944 8        50.200    20876397.348    86888551.472 9
        44.200
  21451248.805   114508455.178 7        47.100    21451254.313    89061986.265 9
        44.600
 15 11 13 15 56  0.0000000  0 19G02G03G05G06G07G09G16G23G26R04R05R06
                                R07R14R15R16R20R21R22
  22397351.047   117698950.816 6        46.000    22397353.734    91713513.071 8
        34.300
  23650053.734   124281825.383 6        43.100    23650061.289    96843088.235 7
        27.100
  25433807.563   133655595.539 3        36.200    25433815.590   104147214.448 5
        17.800
  20667495.242   108608416.893 8        52.300    20667502.277    84630053.690 9
        42.100
  23449681.742   123229008.037 7        47.200    23449686.309    96022668.779 7
        30.400
  20233025.859   106325386.058 7        51.500    20233030.137    82851035.635 9
        43.000
  25299256.492   132948506.176 2        34.900

  21330491.086   112092589.904 7        51.900    21330493.066    87344926.483 8
        39.100
  25040552.336   131589032.868 4        37.400    25040560.480   102536920.971 6
        19.000
  24376566.438   130535730.553 2        34.200    24376572.031   101527647.340 8
        33.400
  20309489.305   108566746.833 6        45.000    20309494.168    84440223.953 9
        48.000
  19753862.438   105410824.408 8        51.500    19753864.703    81985986.485 9
        41.700
  23326476.336   124868617.451 6        44.100    23326483.340    97119984.986 8
        39.800
  22028515.617   117424422.919 6        41.400    22028522.984    91330156.808 8
        37.500
  20925852.320   111821393.382 7        47.600    20925858.098    86972292.698 9
        44.900
  23302381.445   124477241.567 6        41.700    23302388.594    96815634.358 8
        37.400
  23502129.031   125676318.653 4        37.500    23502135.953    97748347.720 8
        39.300
  20890196.305   111787712.007 8        50.800    20890201.004    86946004.375 9
        44.900
  21442457.594   114461524.165 7        48.000    21442461.441    89025484.408 9
        44.700
 15 11 13 15 56 30.0000000  0 19G02G03G05G06G07G09G16G23G26R04R05R06
                                R07R14R15R16R20R21R22
  22383822.719   117627856.936 6        46.400    22383824.766    91658115.304 8
        34.600
  23668202.703   124377195.005 6        42.400    23668209.551    96917402.207 7
        26.500
  25414128.453   133552185.755 2        35.000    25414138.582   104066635.514 5
        17.800
  20668911.391   108615857.099 7        51.400    20668918.539    84635851.265 9
        42.300
  23430004.281   123125604.354 6        45.200    23430009.762    95942094.602 7
        31.600
  20230527.703   106312258.092 7        51.900    20230532.242    82840806.064 9
        42.900
  25284960.438   132873381.088 2        34.000

  21340875.734   112147159.978 7        51.600    21340877.352    87387448.618 8
        39.200
  25034218.242   131555739.642 4        37.700    25034226.184   102510978.259 6
        19.900
  24396606.164   130643049.476 1        32.300    24396613.125   101611117.693 8
        33.100
  20321712.594   108632083.517 7        45.300    20321716.809    84491041.369 9
        47.400
  19745488.492   105366140.569 8        50.900    19745490.684    81951232.430 9
        42.600
  23307184.195   124765343.872 6        44.500    23307191.383    97039661.214 8
        40.600
  22040113.906   117486251.885 6        41.300    22040122.074    91378245.985 8
        37.400
  20918238.695   111780705.220 7        48.500    20918243.902    86940646.403 9
        45.400
  23277612.406   124344919.136 6        43.600    23277618.238    96712716.955 8
        38.500
  23527699.813   125813053.830 5        39.500    23527707.023    97854697.194 8
        39.300
  20904130.133   111862272.127 8        50.400    20904134.367    87003995.533 9
        44.500
  21433811.266   114415371.199 7        48.500    21433815.766    88989587.698 9
        45.100
 15 11 13 15 57  0.0000000  0 19G02G03G05G06G07G09G16G23G26R04R05R06
                                R07R14R15R16R20R21R22
  22370367.289   117557148.033 6        45.500    22370369.137    91603017.505 8
        34.700
  23686377.445   124472706.797 5        40.000    23686384.477    96991826.971 6
        25.100
  25394450.695   133448782.140 2        33.400    25394460.664   103986061.377 5
        17.400
  20670441.852   108623899.157 7        48.700    20670448.805    84642117.821 9
        41.700
  23410359.078   123022371.688 5        42.000    23410363.957    95861653.689 7
        28.200
  20228122.313   106299617.167 7        50.000    20228126.664    82830956.010 9
        42.800
  25270725.320   132798577.594 2        33.800

  21351326.094   112202079.344 7        48.900    21351328.203    87430242.927 8
        38.100
  25027976.742   131522946.767 4        37.200    25027984.895   102485425.338 6
        18.300
  24416651.531   130750051.713 2        34.800    24416655.090   101694594.538 8
        33.300
  20333994.805   108697741.877 6        44.700    20334000.094    84542108.972 9
        47.600
  19737187.523   105321843.986 8        52.200    19737189.820    81916779.572 9
        41.600
  23287907.852   124662158.214 6        44.900    23287914.895    96959405.850 8
        40.900
  22051850.797   117548811.153 6        41.200    22051858.230    91426903.170 8
        37.100
  20910775.773   111740830.488 7        48.700    20910782.102    86909632.770 9
        44.800
  23252864.703   124212725.744 6        42.500    23252871.617    96609899.931 8
        38.800
  23553285.766   125949873.438 4        37.100    23553292.406    97961112.359 8
        39.100
  20918191.273   111937520.654 8        50.100    20918196.883    87062522.156 9
        45.100
  21425312.633   114369998.205 8        49.100    21425316.180    88954297.613 9
        45.000
 15 11 13 15 57 30.0000000  0 18G02G03G06G07G09G16G23G26R04R05R06R07
                                R14R15R16R20R21R22
  22356985.852   117486826.625 6        45.400    22356987.852    91548221.660 8
        34.900
  23704579.523   124568359.985 5        40.700    23704586.918    97066361.891 6
        25.000
  20672087.063   108632543.319 7        47.600    20672093.758    84648853.547 9
        42.400
  23390747.688   122919313.336 5        41.800    23390753.391    95781348.624 7
        27.200
  20225809.602   106287463.158 7        49.900    20225813.625    82821485.374 9
        43.100
  25256552.750   132724098.933 2        33.700

  21361843.023   112257346.652 7        48.800    21361845.262    87473308.361 8
        38.200
  25021832.102   131490655.903 3        36.200    25021840.668   102460263.717 5
        17.800
  24436695.711   130857386.736 1        32.200    24436698.801   101778077.375 8
        33.100
  20346337.953   108763720.660 7        45.200    20346342.559    84593425.798 9
        47.700
  19728959.242   105277935.044 8        52.500    19728961.008    81882628.199 9
        42.000
  23268648.422   124559061.168 6        43.900    23268655.477    96879219.411 8
        40.000
  22063723.430   117612098.207 5        40.900    22063730.758    91476126.430 8
        37.300
  20903467.039   111701771.867 8        49.100    20903472.484    86879253.885 9
        45.200
  23228142.617   124080666.003 6        42.700    23228149.426    96507186.927 8
        40.200
  23578887.047   126086773.794 5        39.300    23578894.285    98067590.323 9
        41.200
  20932382.148   112013454.314 8        49.800    20932386.742    87121581.617 9
        44.100
  21416958.594   114325407.526 7        49.000    21416962.699    88919616.005 9
        44.400
 15 11 13 15 58  0.0000000  0 19G02G03G05G06G07G09G16G23G26R04R05R06
                                R07R14R15R16R20R21R22
  22343677.297   117416894.681 6        45.700    22343679.844    91493729.285 8
        35.000
  23722808.656   124664153.444 5        39.600    23722815.293    97141006.147 6
        24.000
  25355101.727   133241997.134 3        36.000    25355110.352   103824930.481 6
        18.300
  20673846.242   108641789.553 7        48.800    20673853.176    84656058.408 9
        42.200
  23371170.391   122816431.475 6        43.000    23371174.184    95701181.052 7
        27.100
  20223589.438   106275795.619 7        51.400    20223593.230    82812393.812 9
        43.200
  25242442.750   132649948.005 1        32.900    25242447.109   103363599.394 5
        13.900
  21372425.789   112312959.955 7        50.200    21372428.020    87516643.404 8
        38.100
  25015782.641   131458868.621 4        37.400    25015791.617   102435494.470 6
        19.000
  24456740.352   130964728.687 3        35.300    24456744.938   101861565.580 8
        35.200
  20358740.359   108830018.728 6        44.900    20358744.953    84644990.946 9
        47.800
  19720803.211   105234414.598 8        52.400    19720805.621    81848778.993 9
        41.800
  23249407.805   124456053.685 7        46.200    23249413.434    96799102.611 8
        40.900
  22075730.750   117676109.841 5        40.900    22075738.961    91525913.237 8
        36.800
  20896311.297   111663530.679 8        49.300    20896316.316    86849510.784 9
        45.100
  23203445.203   123948743.697 6        42.600    23203453.660    96404580.830 8
        39.600
  23604503.094   126223750.295 5        39.500    23604510.168    98174127.470 8
        39.400
  20946699.641   112090069.336 8        49.500    20946704.688    87181171.049 9
        44.900
  21408751.547   114281601.198 7        47.300    21408755.289    88885544.442 9
        44.200
 15 11 13 15 58 30.0000000  0 19G02G03G05G06G07G09G16G23G26R04R05R06
                                R07R14R15R16R20R21R22
  22330444.320   117347354.785 6        46.700    22330447.070    91439542.404 8
        35.900
  23741064.195   124760086.339 6        43.700    23741070.828    97215759.028 7
        26.500
  25335428.836   133138617.281 3        35.500    25335438.051   103744374.890 6
        19.300
  20675720.078   108651637.822 7        51.700    20675727.223    84663732.397 9
        42.800
  23351627.195   122713728.688 6        46.000    23351630.539    95621152.956 7
        28.500
  20221461.578   106264614.245 7        51.900    20221465.746    82803681.084 9
        44.300
  25228393.430   132576127.723 2        33.600    25228399.152   103306077.032 5
        14.800
  21383074.508   112368917.893 7        50.900    21383075.926    87560246.991 8
        37.900
  25009830.523   131427586.440 4        39.000    25009839.066   102411118.783 6
        19.900
  24476787.109   131072076.625 1        32.400    24476791.090   101945058.507 7
        31.200
  20371202.219   108896634.976 6        44.900    20371207.313    84696803.577 9
        47.300
  19712720.602   105191283.811 8        51.600    19712722.418    81815232.862 9
        42.500
  23230180.156   124353136.586 6        44.900    23230187.492    96719056.180 8
        40.900
  22087875.867   117740843.462 6        41.400    22087882.832    91576261.586 8
        37.200
  20889307.492   111626108.599 7        48.900    20889312.938    86820404.758 9
        44.900
  23178775.711   123816963.268 6        41.800    23178783.602    96302085.137 8
        39.400
  23630129.359   126360799.048 4        37.700    23630138.129    98280720.897 8
        38.200
  20961142.703   112167362.087 8        50.000    20961148.391    87241287.606 9
        45.300
  21400692.367   114238581.165 7        47.800    21400695.582    88852084.453 9
        42.700
 15 11 13 15 59  0.0000000  0 20G02G03G05G06G07G09G16G23G26G30R04R05
                                R06R07R14R15R16R20R21R22
  22317286.633   117278209.179 6        46.900    22317289.363    91385662.762 8
        35.000
  23759345.922   124856157.742 6        43.400    23759352.566    97290619.844 6
        24.700
  25315759.227   133035247.564 3        36.800    25315767.422   103663827.144 6
        19.900
  20677709.172   108662088.334 7        51.500    20677716.492    84671875.669 9
        42.500
  23332117.781   122611207.784 6        45.500    23332121.418    95541266.600 7
        28.800
  20219426.203   106253918.810 8        52.100    20219430.277    82795347.004 9
        43.200
  25214410.969   132502641.669 3        35.800    25214415.113   103248815.312 5
        15.600
  21393788.102   112425219.104 7        50.800    21393789.813    87604118.069 8
        38.000
  25003974.023   131396811.021 5        39.700    25003982.289   102387138.007 6
        20.100
  25755863.219   135347973.033 3        36.900    25755875.848   105466011.566 5
        14.800
  24496835.539   131179430.315 3        35.200    24496837.535   102028555.915 7
        32.700
  20383723.680   108963568.306 7        45.400    20383728.469    84748862.834 9
        47.300
  19704710.094   105148542.829 8        52.100    19704713.000    81781989.908 9
        42.400
  23210971.461   124250310.818 6        45.000    23210978.125    96639080.733 8
        39.400
  22100153.328   117806295.815 5        40.300    22100161.039    91627168.989 8
        36.200
  20882458.273   111589507.807 8        49.900    20882464.164    86791937.522 9
        44.600
  23154133.023   123685329.019 6        42.000    23154140.945    96199703.135 8
        39.000
  23655771.125   126497916.312 4        38.500    23655780.602    98387367.543 8
        40.000
  20975713.680   112245329.178 8        50.700    20975718.379    87301928.616 9
        43.800
  21392781.352   114196349.609 7        48.400    21392784.414    88819237.727 9
        42.400
 15 11 13 15 59 30.0000000  0 20G02G03G05G06G07G09G16G23G26G30R04R05
                                R06R07R14R15R16R20R21R22
  22304204.453   117209460.420 6        46.500    22304206.379    91332092.367 8
        35.000
  23777654.117   124952367.055 6        43.600    23777660.770    97365588.126 6
        23.000
  25296090.789   132931889.446 5        40.300    25296098.633   103583288.470 6
        20.100
  20679812.484   108673141.351 7        51.200    20679819.789    84680488.428 9
        42.500
  23312643.750   122508871.565 6        45.100    23312648.137    95461524.163 7
        30.200
  20217483.539   106243709.257 7        50.700    20217487.664    82787391.534 9
        43.300
  25200491.352   132429493.151 4        37.200    25200495.121   103191816.402 5
        14.800
  21404567.430   112481862.209 7        50.300    21404568.656    87648255.553 8
        37.800
  24998214.648   131366544.288 5        39.700    24998222.879   102363553.615 6
        20.600
  25734324.617   135234785.613 5        40.400    25734336.289   105377814.036 5
        16.300
  24516881.570   131286789.406 1        30.700    24516886.477   102112057.474 7
        31.900
  20396303.898   109030818.288 6        44.300    20396308.406    84801168.365 9
        47.100
  19696773.938   105106193.155 8        51.900    19696776.422    81749051.315 9
        42.100
  23191779.766   124147577.412 7        45.100    23191785.770    96559177.160 8
        39.200
  22112566.961   117872464.228 5        40.300    22112574.500    91678633.318 8
        36.600
  20875763.320   111553731.582 7        48.700    20875768.328    86764111.605 9
        44.900
  23129520.430   123553845.605 6        43.000    23129526.480    96097438.410 8
        38.900
  23681424.695   126635098.109 2        34.500    23681433.863    98494064.354 8
        39.100
  20990409.727   112323967.205 8        49.600    20990413.402    87363091.501 9
        44.200
  21385018.594   114154908.914 7        48.900    21385021.438    88787006.093 9
        42.300
