     2.11           OBSERVATION DATA    M (MIXED)           RINEX VERSION / TYPE
teqc  2013Mar15                         20151113 17:10:37UTCPGM / RUN BY / DATE
Linux2.6.32-279.el6.x86_64|x86_64|gcc|Win64-MinGW64|=       COMMENT
TPP 3.8.0                               13-NOV-15 14:00     COMMENT
The APPROX POSITION XYZ coordinates are NOT APPROXIMATE     COMMENT
APPROX POSITION XYZ replaced with ETRS89 station coords     COMMENT
                                                            COMMENT
STRA                                                        MARKER NAME
Stratford                                                   MARKER NUMBER
OS Net              Ordnance Survey                         OBSERVER / AGENCY
5302K56524          TRIMBLE NETR9       5.01                REC # / TYPE / VERS
30436573            TRM55971.00     NONE                    ANT # / TYPE
  3974813.0408      661.0574  4971513.6274                  APPROX POSITION XYZ
        0.0000        0.0000        0.0000                  ANTENNA: DELTA H/E/N
     1     1                                                WAVELENGTH FACT L1/2
     6    C1    L1    S1    P2    L2    S2                  # / TYPES OF OBSERV
    30.0000                                                 INTERVAL
     0                                                      RCV CLOCK OFFS APPL
    17                                                      LEAP SECONDS
Forced Modulo Decimation to 30 seconds                      COMMENT
  2015    11    13    14     0    0.0000000     GPS         TIME OF FIRST OBS
                                                            END OF HEADER
 15 11 13 14  0  0.0000000  0 22G01G03G06G09G11G12G17G19G23G25G31G32
                                R03R04R05R06R12R13R14R19R20R21
  22317025.633   117276744.494 6        45.900    22317034.688    91384521.878 8
        34.500
  20540861.070   107942922.631 7        51.800    20540868.020    84111479.636 9
        42.400
  22965124.031   120682504.384 6        46.300    22965131.426    94038426.389 7
        31.900
  23120427.023   121498733.933 7        47.800    23120433.414    94674412.711 7
        32.300
  24210886.867   127229031.227 5        41.000    24210891.320    99139509.649 6
        21.700
  24892316.273   130809987.343 6        44.900    24892324.152   101929893.921 6
        25.400
  21838651.063   114762892.129 7        48.000    21838656.434    89425649.474 8
        37.300
  23887182.547   125527946.630 6        43.000    23887188.816    97813982.673 7
        27.100
  21182776.906   111316334.648 7        51.500    21182778.773    86740049.476 8
        39.000
  25572410.367   134383901.254 3        35.200

  23554831.797   123781345.369 6        44.900    23554837.496    96453165.027 7
        27.000
  22939117.969   120545913.364 6        46.800    22939123.223    93931919.987 8
        33.300
  24552658.930   131432095.668 2        33.700    24552664.777   102225193.186 8
        34.200
  20182842.625   108078528.053 8        51.000    20182845.746    84060936.167 9
        47.300
  19522154.086   104357975.181 7        46.600    19522158.406    81166733.217 9
        47.300
  23327567.758   124480741.157 6        42.900    23327573.840    96818127.470 7
        29.900
  24235525.313   129461817.136 1        32.500    24235533.277   100692541.860 8
        35.200
  22585611.305   120606031.767 5        40.100    22585616.992    93804644.545 8
        40.800
  23281028.617   124100975.723 4        37.600    23281037.641    96523020.896 7
        28.200
  21664820.609   115892041.531 7        46.700    21664824.984    90138350.141 9
        42.300
  19603610.164   104829232.106 6        44.700    19603615.219    81533958.613 9
        47.400
  21656790.039   115889894.427 7        48.900    21656794.770    90136587.512 9
        42.400
 15 11 13 14  0 30.0000000  0 22G01G03G06G09G11G12G17G19G23G25G31G32
                                R03R04R05R06R12R13R14R19R20R21
  22334355.766   117367812.746 7        47.600    22334364.234    91455484.090 8
        34.900
  20547981.391   107980339.918 7        51.200    20547988.203    84140635.950 9
        42.100
  22947157.891   120588092.962 6        45.700    22947166.105    93964859.102 7
        32.400
  23100159.078   121392228.280 7        47.200    23100165.883    94591421.291 7
        32.800
  24233335.758   127347006.443 5        41.100    24233342.004    99231438.249 6
        21.300
  24894884.086   130823481.325 6        44.600    24894892.434   101940408.777 6
        25.200
  21844979.148   114796142.629 7        48.800    21844984.031    89451558.926 8
        37.900
  23908296.031   125638885.280 7        47.200    23908299.090    97900428.242 7
        28.900
  21172839.180   111264111.361 7        51.200    21172841.043    86699356.030 8
        39.000
  25565292.070   134346492.251 3        35.200

  23557307.820   123794359.771 6        44.600    23557313.844    96463306.117 7
        26.500
  22956824.242   120638964.397 6        46.200    22956830.023    94004427.246 7
        31.300
  24574291.195   131547891.73211        31.800    24574295.727   102315256.93217
        28.400
  20196516.773   108151751.080 8        51.500    20196519.699    84117887.386 9
        47.400
  19515290.141   104321287.399 7        46.400    19515295.078    81138198.278 9
        47.800
  23306795.141   124369888.758 6        43.400    23306800.578    96731909.108 7
        30.700
  24251356.938   129546391.669 2        34.100    24251366.164   100758322.145 8
        33.400
  22584021.477   120597538.884 5        39.400    22584027.219    93798038.953 9
        41.200
  23261561.250   123997208.216 4        37.500    23261571.414    96442312.881 7
        28.900
  21687846.188   116015218.831 7        46.300    21687852.395    90234154.598 9
        42.300
  19605995.914   104841995.172 6        44.900    19606001.660    81543885.413 9
        47.700
  21638022.289   115789464.955 7        48.800    21638027.129    90058475.773 9
        43.200
 15 11 13 14  1  0.0000000  0 22G01G03G06G09G11G12G17G19G23G25G31G32
                                R03R04R05R06R12R13R14R19R20R21
  22351739.070   117459161.168 6        45.700    22351747.441    91526664.618 8
        35.100
  20555169.555   108018113.580 7        51.800    20555176.227    84170069.961 9
        42.300
  22929230.555   120493883.436 6        46.500    22929238.172    93891449.152 7
        32.200
  23079932.867   121285943.119 6        46.700    23079939.699    94508601.687 7
        31.300
  24255804.281   127465075.696 5        40.900    24255810.813    99323440.156 6
        21.700
  24897562.539   130837553.475 6        45.100    24897570.352   101951374.093 6
        25.300
  21851414.992   114829963.287 7        47.900    21851420.117    89477912.651 8
        37.700
  23929432.328   125749962.968 6        45.300    23929437.395    97986982.100 7
        29.300
  21162989.117   111212349.882 7        51.300    21162991.262    86659022.425 8
        39.800
  25558272.453   134309605.266 2        33.200

  23559897.781   123807966.931 6        45.800    23559903.082    96473909.098 7
        27.500
  22974555.602   120732142.052 6        44.400    22974561.129    94077033.182 7
        31.600
  24595912.102   131663631.920 2        33.300    24595917.727   102405277.292 7
        32.900
  20210255.789   108225325.096 8        51.700    20210258.715    84175111.592 9
        47.800
  19508523.273   104285114.571 7        46.100    19508527.715    81110063.869 9
        47.300
  23286051.633   124259199.171 6        43.900    23286056.449    96645817.247 7
        28.700
  24267290.867   129631502.369 3        35.200    24267298.605   100824519.370 8
        33.500
  22582581.352   120589852.710 5        40.100    22582587.180    93792060.811 8
        40.700
  23242166.375   123893823.807 4        38.600    23242175.031    96361902.843 7
        27.900
  21710942.359   116138764.511 7        46.200    21710947.148    90330245.575 9
        41.800
  19608538.195   104855584.112 7        45.400    19608542.273    81554454.575 9
        47.400
  21619347.844   115689531.954 8        49.100    21619352.695    89980750.184 9
        43.800
 15 11 13 14  1 30.0000000  0 22G01G03G06G09G11G12G17G19G23G25G31G32
                                R03R04R05R06R12R13R14R19R20R21
  22369175.172   117550788.284 7        47.500    22369183.633    91598062.316 8
        34.900
  20562425.367   108056242.857 8        52.700    20562432.090    84199781.082 9
        41.800
  22911341.953   120399877.954 6        46.200    22911349.473    93818198.177 7
        32.400
  23059749.695   121179880.557 6        46.100    23059757.301    94425955.564 7
        31.900
  24278290.734   127583237.308 6        42.200    24278295.820    99415513.990 6
        22.500
  24900349.898   130852203.100 6        45.100    24900357.602   101962789.365 6
        24.600
  21857958.594   114864352.860 7        48.100    21857964.074    89504709.693 8
        37.700
  23950594.758   125861176.917 6        44.300    23950600.105    98073642.244 7
        28.500
  21153227.336   111161051.183 7        51.700    21153230.125    86619049.439 8
        39.800
  25551352.625   134273242.046 2        34.400

  23562599.773   123822166.690 6        45.100    23562604.672    96484973.819 7
        28.000
  22992310.086   120825445.132 6        44.300    22992316.129    94149736.835 7
        30.400
  24617524.117   131779315.591 2        34.300    24617527.582   102495253.565 8
        34.100
  20224060.617   108299247.734 8        51.300    20224063.629    84232606.965 9
        48.000
  19501852.594   104249456.922 7        45.800    19501857.473    81082330.157 9
        47.400
  23265339.359   124148673.811 6        44.400    23265345.090    96559853.217 7
        30.600
  24283323.766   129717145.298 2        34.600    24283331.266   100891130.589 8
        34.100
  22581292.695   120582973.933 5        40.000    22581298.945    93786710.650 9
        41.200
  23222843.563   123790826.628 4        38.600    23222853.188    96281793.938 7
        27.900
  21734107.070   116262674.865 7        47.200    21734110.266    90426620.194 8
        40.700
  19611232.117   104869998.883 6        44.100    19611238.672    81565666.058 9
        47.400
  21600765.734   115590099.521 8        49.300    21600770.934    89903413.914 9
        43.600
 15 11 13 14  2  0.0000000  0 22G01G03G06G09G11G12G17G19G23G25G31G32
                                R03R04R05R06R12R13R14R19R20R21
  22386664.047   117642692.633 7        47.200    22386672.531    91669676.032 8
        35.200
  20569748.742   108094726.821 8        52.300    20569755.246    84229768.576 9
        42.300
  22893491.938   120306078.525 6        46.400    22893499.629    93745107.770 7
        31.600
  23039609.016   121074042.792 6        45.400    23039617.254    94343484.622 7
        32.400
  24300793.102   127701488.676 5        40.900    24300798.605    99507657.760 6
        22.300
  24903247.992   130867429.255 6        45.000    24903255.406   101974653.859 6
        25.700
  21864611.164   114899309.640 7        48.600    21864615.988    89531948.725 8
        36.700
  23971784.531   125972524.347 6        46.000    23971789.387    98160406.336 7
        28.700
  21143554.086   111110216.313 7        51.800    21143556.473    86579437.881 8
        39.800
  25544533.281   134237403.718 2        34.200

  23565413.844   123836958.836 6        44.800    23565419.730    96496500.114 7
        27.100
  23010089.000   120918872.167 6        44.500    23010094.914    94222537.099 7
        28.700
  24639122.898   131894941.251 3        35.200    24639127.828   102585184.901 7
        32.900
  20237929.773   108373516.429 8        51.200    20237932.680    84290371.480 9
        47.900
  19495278.961   104214314.561 7        46.400    19495283.684    81054997.223 9
        47.700
  23244658.250   124038314.522 6        43.800    23244663.395    96474018.379 7
        32.100
  24299455.336   129803316.357 2        34.700    24299462.727   100958152.589 8
        35.000
  22580155.578   120576903.155 5        40.300    22580162.156    93781988.925 8
        40.700
  23203594.836   123688221.285 4        38.800    23203605.656    96201989.887 7
        29.400
  21757338.500   116386946.489 7        47.600    21757342.063    90523275.809 9
        41.200
  19614083.672   104885239.548 6        44.900    19614089.039    81577519.877 9
        47.600
  21582278.531   115491171.549 7        48.600    21582284.133    89826469.989 9
        44.400
 15 11 13 14  2 30.0000000  0 22G01G03G06G09G11G12G17G19G23G25G31G32
                                R03R04R05R06R12R13R14R19R20R21
  22404205.445   117734872.772 6        46.600    22404213.934    91741504.640 8
        34.000
  20577139.320   108133564.575 8        52.100    20577145.543    84260031.755 9
        42.100
  22875682.203   120212487.287 6        46.900    22875690.879    93672179.589 8
        33.200
  23019512.656   120968431.946 6        45.500    23019519.629    94261190.485 7
        32.200
  24323310.836   127819828.082 5        39.900    24323318.395    99599870.162 6
        20.900
  24906255.125   130883231.148 6        44.900    24906262.578   101986966.940 6
        24.900
  21871370.719   114934832.681 7        48.400    21871376.422    89559629.003 8
        37.300
  23992998.539   126084002.572 6        44.300    23993002.285    98247272.327 7
        28.700
  21133968.625   111059846.270 8        52.100    21133970.699    86540188.516 8
        39.400
  25537812.805   134202091.974 2        33.200

  23568342.023   123852343.196 6        45.100    23568347.625    96508487.913 7
        27.300
  23027890.102   121012421.886 6        43.700    23027896.375    94295432.932 7
        28.300
  24660711.109   132010507.685 2        34.300    24660715.977   102675070.020 7
        31.700
  20251862.641   108448129.148 8        51.000    20251865.645    84348403.568 9
        47.100
  19488801.172   104179687.344 7        46.200    19488805.945    81028064.957 9
        48.600
  23224006.711   123928121.267 6        42.400    23224012.844    96388312.704 7
        29.500
  24315683.813   129890012.095 2        34.000    24315692.176   101025582.754 8
        34.500
  22579170.367   120571641.179 5        40.400    22579176.547    93777896.271 8
        40.100
  23184421.461   123586012.611 4        38.500    23184431.727    96122494.366 7
        30.300
  21780636.734   116511575.518 7        48.200    21780640.340    90620209.412 9
        41.300
  19617087.594   104901305.748 6        44.700    19617093.539    81590015.790 9
        47.900
  21563886.195   115392752.130 7        47.800    21563891.617    89749921.646 9
        44.800
 15 11 13 14  3  0.0000000  0 22G01G03G06G09G11G12G17G19G23G25G31G32
                                R03R04R05R06R12R13R14R19R20R21
  22421798.484   117827327.217 6        46.700    22421807.465    91813547.021 8
        34.800
  20584597.164   108172755.283 7        50.700    20584603.484    84290569.963 9
        42.000
  22857912.750   120119106.371 6        46.300    22857920.512    93599415.300 7
        32.600
  22999459.086   120863050.198 6        46.100    22999466.961    94179074.903 7
        32.800
  24345847.742   127938253.214 5        41.700    24345854.754    99692149.333 6
        22.200
  24909370.555   130899607.954 6        43.900    24909378.809   101999728.014 6
        24.400
  21878237.875   114970920.667 7        48.900    21878243.953    89587749.469 8
        37.000
  24014235.078   126195608.653 6        43.100    24014240.602    98334238.016 7
        27.100
  21124472.055   111009942.178 7        50.200    21124474.289    86501302.218 8
        39.100
  25531194.086   134167307.913 2        33.500

  23571381.727   123868319.313 6        44.000    23571386.801    96520936.815 7
        27.500
  23045715.180   121106093.053 6        43.900    23045721.477    94368423.384 7
        27.600
  24682291.844   132126014.386 1        30.300    24682294.027   102764908.788 8
        33.400
  20265859.773   108523083.560 8        50.800    20265863.547    84406701.418 9
        47.500
  19482419.883   104145575.484 7        45.900    19482424.582    81001533.534 9
        47.900
  23203388.922   123818096.443 6        43.100    23203393.844    96302737.901 7
        30.100
  24332012.531   129977228.763 3        36.400    24332019.160   101093417.998 8
        34.800
  22578337.164   120567188.446 6        41.200    22578343.203    93774433.041 8
        40.400
  23165321.781   123484204.681 4        37.300    23165332.086    96043310.571 7
        31.800
  21804001.125   116636558.245 7        47.800    21804004.484    90717418.106 9
        41.500
  19620246.211   104918197.457 6        43.900    19620252.309    81603153.778 9
        47.300
  21545589.125   115294845.269 7        46.900    21545595.680    89673771.923 9
        44.400
 15 11 13 14  3 30.0000000  0 21G01G03G06G09G11G12G17G19G23G25G31G32
                                R04R05R06R12R13R14R19R20R21
  22439443.563   117920054.609 6        45.800    22439453.570    91885802.076 8
        34.400
  20592121.719   108212298.128 7        51.600    20592128.027    84321382.564 9
        42.800
  22840182.664   120025938.120 6        45.900    22840192.105    93526816.701 7
        32.600
  22979449.492   120757899.805 6        46.000    22979458.313    94097139.567 8
        33.300
  24368399.625   128056761.849 5        42.000    24368404.875    99784493.548 6
        20.400
  24912596.172   130916559.129 6        43.300    24912604.523   102012936.625 7
        26.200
  21885212.844   115007572.421 7        49.100    21885217.797    89616309.242 8
        37.900
  24035498.555   126307339.861 6        46.400    24035502.891    98421301.149 7
        27.800
  21115064.398   110960505.045 7        50.500    21115067.051    86462779.787 8
        40.100
  25524674.953   134133053.508 2        34.400

  23574535.258   123884886.603 6        45.200    23574540.199    96533846.360 7
        28.700
  23063563.359   121199884.417 6        43.900    23063569.586    94441507.537 7
        26.500
  20279920.391   108598377.461 8        50.600    20279924.145    84465263.324 9
        47.800
  19476134.883   104111978.750 7        47.000    19476139.242    80975402.751 9
        48.500
  23182801.625   123708241.047 6        43.500    23182807.063    96217294.972 7
        31.200
  24348436.672   130064962.519 2        34.800    24348443.102   101161655.420 8
        33.100
  22577655.492   120563545.379 6        41.500    22577660.012    93771599.551 8
        40.000
  23146300.555   123382802.590 4        37.500    23146309.500    95964442.414 7
        31.600
  21827431.141   116761890.825 7        48.100    21827434.883    90814898.875 9
        42.500
  19623559.836   104935914.407 6        43.800    19623565.105    81616933.608 9
        48.000
  21527390.352   115197454.977 7        48.200    21527395.715    89598023.975 9
        44.300
 15 11 13 14  4  0.0000000  0 21G01G03G06G09G11G12G17G19G23G25G31G32
                                R04R05R06R12R13R14R19R20R21
  22457140.680   118013053.494 6        46.000    22457150.488    91958268.655 8
        33.900
  20599713.117   108252192.301 7        50.900    20599720.156    84352468.932 9
        42.000
  22822494.336   119932984.538 6        45.600    22822503.254    93454385.410 8
        33.600
  22959484.594   120652982.854 6        46.000    22959491.773    94015386.155 7
        32.000
  24390965.758   128175352.192 5        41.300    24390972.734    99876901.496 6
        21.300
  24915931.477   130934083.244 6        42.600    24915939.063   102026591.706 6
        25.300
  21892294.836   115044786.581 7        49.700    21892299.160    89645307.266 8
        37.300
  24056782.203   126419193.720 6        43.100    24056787.547    98508459.840 7
        26.200
  21105746.461   110911536.192 7        50.000    21105749.012    86424622.267 8
        40.400
  25518258.031   134099330.201 2        34.600

  23577799.367   123902044.873 6        44.900    23577804.887    96547216.394 7
        28.600
  23081433.594   121293794.772 6        43.900    23081439.879    94514684.399 7
        26.400
  20294044.172   108674008.778 8        51.000    20294047.629    84524087.647 9
        47.000
  19469946.445   104078897.444 7        46.900    19469951.480    80949672.867 9
        48.300
  23162245.719   123598556.530 6        42.400    23162251.523    96131984.923 7
        30.100
  24364955.281   130153209.992 3        35.100    24364962.859   101230292.443 7
        32.900
  22577123.977   120560712.640 6        41.400    22577129.941    93769396.338 8
        39.800
  23127354.375   123281810.384 4        38.000    23127363.074    95885893.055 7
        32.000
  21850925.258   116887569.874 7        47.200    21850929.938    90912649.111 9
        43.100
  19627028.242   104954456.524 6        44.700    19627033.027    81631355.238 9
        48.100
  21509288.523   115100585.383 7        48.800    21509293.012    89522680.994 9
        44.600
 15 11 13 14  4 30.0000000  0 21G01G03G06G09G11G12G17G19G23G25G31G32
                                R04R05R06R12R13R14R19R20R21
  22474889.922   118106322.312 6        45.300    22474898.758    92030945.582 8
        33.800
  20607371.875   108292436.825 7        49.100    20607378.563    84383828.296 9
        42.000
  22804847.031   119840247.781 6        45.700    22804855.996    93382123.048 8
        33.200
  22939564.172   120548301.438 6        46.000    22939572.672    93933816.296 8
        33.100
  24413549.359   128294022.048 6        43.400    24413553.746    99969371.411 6
        21.300
  24919374.852   130952179.938 5        41.600    24919383.250   102040692.954 6
        22.500
  21899482.883   115082561.471 6        46.300    21899487.574    89674742.208 8
        37.100
  24078090.367   126531167.200 6        43.200    24078095.828    98595711.838 7
        27.300
  21096516.680   110863036.399 7        50.300    21096519.418    86386830.233 8
        39.800
  25511942.547   134066138.945 2        34.000

  23581177.117   123919793.562 6        44.700    23581183.301    96561046.519 7
        29.000
  23099326.445   121387822.716 6        43.900    23099332.984    94587952.889 7
        26.900
  20308230.313   108749975.085 8        51.000    20308233.539    84583172.535 9
        47.000
  19463854.344   104046331.680 7        45.900    19463859.332    80924343.963 9
        48.300
  23141723.422   123489043.785 6        41.500    23141729.109    96046808.516 7
        30.900
  24381571.133   130241967.098 3        35.500    24381577.582   101299325.879 7
        32.500
  22576745.672   120558690.522 6        41.400    22576750.965    93767823.605 8
        39.700
  23108486.148   123181233.113 3        36.500    23108494.715    95807666.442 7
        32.400
  21874484.094   117013591.528 7        48.200    21874488.398    91010665.829 9
        42.300
  19630650.000   104973823.250 6        44.500    19630654.684    81646418.231 9
        47.900
  21491284.680   115004240.351 7        48.800    21491289.000    89447746.011 9
        44.600
 15 11 13 14  5  0.0000000  0 21G01G03G06G09G11G12G17G19G23G25G31G32
                                R04R05R06R12R13R14R19R20R21
  22492689.484   118199859.396 6        45.800    22492698.527    92103831.553 8
        33.500
  20615096.406   108333030.593 7        51.600    20615103.426    84415459.794 9
        42.700
  22787241.297   119747729.715 6        45.700    22787250.398    93310031.106 7
        32.400
  22919689.258   120443857.447 6        45.300    22919697.797    93852431.422 7
        32.000
  24436146.109   128412769.242 5        41.800    24436152.840   100061901.516 6
        22.300
  24922927.398   130970847.764 5        41.100    24922935.223   102055239.241 6
        22.800
  21906778.078   115120895.706 7        50.000    21906782.910    89704613.029 8
        37.900
  24099422.219   126643257.439 6        45.500    24099427.355    98683054.671 7
        28.700
  21087376.648   110815006.737 7        50.500    21087379.133    86349404.541 8
        39.300
  25505727.844   134033481.264 1        32.200

  23584667.273   123938132.279 6        44.700    23584672.754    96575336.403 7
        28.000
  23117242.695   121481966.703 6        45.400    23117247.758    94661311.807 7
        26.600
  20322477.867   108826273.523 8        51.000    20322481.738    84642515.751 9
        47.100
  19457858.313   104014280.700 7        47.500    19457862.969    80899415.440 9
        48.800
  23121233.594   123379704.265 6        43.800    23121238.418    95961766.797 7
        31.600
  24398281.953   130331229.958 3        35.800    24398288.648   101368752.714 7
        32.900
  22576519.250   120557479.133 6        41.400    22576524.273    93766881.435 8
        39.600
  23089694.648   123081074.931 3        36.300    23089704.996    95729765.753 7
        32.000
  21898105.758   117139951.669 7        47.800    21898110.188    91108945.830 9
        41.500
  19634424.234   104994013.989 6        44.500    19634430.195    81662122.126 9
        47.700
  21473377.758   114908423.599 7        48.800    21473383.063    89373221.924 9
        45.300
 15 11 13 14  5 30.0000000  0 21G01G03G06G09G11G12G17G19G23G25G31G32
                                R04R05R06R12R13R14R19R20R21
  22510539.141   118293663.195 6        45.800    22510548.371    92176925.368 8
        33.500
  20622887.625   108373972.696 7        51.600    20622894.395    84447362.720 9
        42.400
  22769677.859   119655432.492 6        45.800    22769686.684    93238111.236 8
        34.000
  22899859.375   120339652.969 6        46.800    22899867.938    93771233.203 8
        33.800
  24458756.078   128531591.453 5        40.800    24458762.648   100154490.166 6
        21.100
  24926587.883   130990085.874 5        41.100    24926596.348   102070229.960 6
        22.000
  21914178.773   115159787.875 7        49.300    21914183.703    89734918.589 8
        37.500
  24120772.328   126755461.690 6        42.500    24120778.445    98770486.419 7
        27.800
  21078326.797   110767447.750 7        49.500    21078328.973    86312345.607 8
        38.900
  25499614.016   134001358.145 1        32.300

  23588269.516   123957060.389 6        45.300    23588274.723    96590085.578 7
        29.300
  23135179.000   121576225.516 6        44.700    23135184.512    94734760.192 7
        28.100
  20336788.273   108902902.427 8        50.800    20336792.133    84702115.974 9
        47.200
  19451959.633   103982744.758 7        46.200    19451963.816    80874887.506 9
        48.700
  23100776.375   123270539.030 6        43.800    23100780.457    95876860.654 7
        30.300
  24415083.617   130420994.464 2        34.300    24415092.215   101438569.831 8
        33.600
  22576443.930   120557079.015 6        41.800    22576449.340    93766570.278 8
        39.300
  23070986.273   122981339.930 4        37.200    23070994.953    95652194.185 7
        32.100
  21921790.203   117266646.657 7        47.900    21921793.496    91207486.285 8
        40.600
  19638354.477   105015028.308 6        44.300    19638360.195    81678466.594 9
        48.300
  21455571.617   114813139.179 7        48.800    21455576.734    89299111.894 9
        44.600
 15 11 13 14  6  0.0000000  0 21G01G03G06G09G11G12G17G19G23G25G31G32
                                R04R05R06R12R13R14R19R20R21
  22528440.164   118387732.394 6        45.700    22528448.910    92250225.983 7
        32.200
  20630744.930   108415262.373 7        51.900    20630751.418    84479536.488 9
        42.600
  22752156.625   119563358.409 6        45.800    22752165.391    93166365.252 8
        33.200
  22880076.555   120235690.339 6        46.400    22880084.688    93690223.410 8
        34.100
  24481382.047   128650486.933 5        42.000    24481389.832   100247135.788 6
        22.800
  24930357.609   131009893.221 5        40.900    24930365.820   102085664.255 6
        22.900
  21921685.594   115199236.750 7        49.000    21921690.641    89765657.933 8
        36.800
  24142146.156   126867777.007 6        43.500    24142153.133    98858004.697 7
        29.000
  21069366.383   110720360.957 7        49.900    21069368.461    86275654.611 8
        39.000
  25493605.133   133969771.309 1        33.000

  23591983.555   123976577.548 6        44.100    23591988.445    96605293.722 7
        29.100
  23153137.711   121670598.061 6        45.700    23153143.418    94808297.215 7
        27.800
  20351159.305   108979859.237 8        50.800    20351163.023    84761971.248 9
        47.000
  19446155.953   103951723.903 7        46.400    19446160.293    80850760.198 9
        49.300
  23080351.898   123161549.365 6        44.000    23080355.883    95792091.051 7
        30.200
  24431980.977   130511257.132 3        35.400    24431988.848   101508774.339 8
        34.300
  22576521.438   120557490.299 6        41.800    22576526.809    93766890.189 8
        38.900
  23052357.344   122882033.044 4        39.000    23052365.117    95574955.624 7
        32.900
  21945535.453   117393672.807 7        46.400    21945540.266    91306284.320 8
        40.900
  19642438.117   105036866.063 6        43.900    19642443.867    81695451.488 9
        48.100
  21437865.352   114718391.086 8        49.100    21437871.102    89225418.989 9
        44.400
 15 11 13 14  6 30.0000000  0 21G01G03G06G09G11G12G17G19G23G25G31G32
                                R04R05R06R12R13R14R19R20R21
  22546391.195   118482065.505 6        45.900    22546400.047    92323732.233 7
        31.900
  20638667.563   108456898.775 7        50.700    20638674.621    84511980.423 9
        42.400
  22734677.891   119471509.654 6        45.700    22734687.000    93094794.858 7
        33.000
  22860339.383   120131971.611 6        46.300    22860347.160    93609403.697 8
        34.400
  24504020.898   128769453.332 5        41.700    24504027.277   100339836.728 6
        21.500
  24934235.125   131030269.059 5        42.000    24934242.625   102101541.534 6
        23.900
  21929298.000   115239240.716 7        49.200    21929302.770    89796829.819 8
        36.700
  24163540.563   126980200.972 6        44.000    24163545.301    98945607.645 7
        27.400
  21060496.273   110673747.197 7        50.400    21060497.977    86239332.213 8
        38.600
  25487696.141   133938721.938 2        34.400

  23595809.742   123996683.492 6        45.800    23595814.457    96620960.681 7
        29.300
  23171118.023   121765083.111 6        46.000    23171123.004    94881921.881 7
        28.100
  20365591.945   109057141.800 8        51.100    20365595.438    84822079.874 9
        47.300
  19440448.563   103921218.198 7        46.700    19440454.094    80827033.559 9
        48.600
  23059959.297   123052736.564 6        43.900    23059964.461    95707458.995 7
        31.500
  24448970.641   130602014.266 3        36.300    24448978.609   101579363.482 8
        34.000
  22576749.797   120558713.289 6        41.700    22576755.152    93767841.442 8
        38.900
  23033807.141   122783158.668 4        37.700    23033816.363    95498053.409 7
        32.300
  21969342.180   117521026.555 7        45.900    21969347.801    91405337.121 9
        42.000
  19646676.164   105059526.786 6        44.500    19646681.938    81713076.500 9
        48.200
  21420260.344   114624183.391 7        48.900    21420265.691    89152146.410 9
        44.400
 15 11 13 14  7  0.0000000  0 21G01G03G06G09G11G12G17G19G23G25G31G32
                                R04R05R06R12R13R14R19R20R21
  22564392.156   118576660.747 7        47.200    22564400.930    92397442.735 8
        33.500
  20646656.883   108498880.798 7        51.100    20646663.836    84544693.676 9
        42.800
  22717242.852   119379888.107 6        45.300    22717251.559    93023401.502 7
        32.600
  22840649.586   120028498.706 6        46.000    22840656.500    93528775.526 8
        33.800
  24526671.867   128888488.175 6        42.600    24526680.109   100432590.997 6
        22.500
  24938220.023   131051211.932 5        40.700    24938228.754   102117860.647 6
        22.800
  21937015.727   115279798.060 7        47.600    21937020.750    89828432.923 8
        36.600
  24184952.930   127092730.820 6        42.500    24184959.637    99033293.006 6
        25.700
  21051715.836   110627607.249 7        49.500    21051717.645    86203379.016 8
        38.700
  25481889.641   133908211.043 1        32.900

  23599747.055   124017377.014 6        45.900    23599752.730    96637085.485 7
        29.300
  23189118.547   121859679.119 6        46.900    23189125.258    94955633.025 7
        29.600
  20380083.234   109134747.590 8        50.500    20380087.531    84882439.924 9
        46.900
  19434838.586   103891227.045 7        46.200    19434843.324    80803707.114 9
        48.200
  23039602.094   122944102.235 6        43.800    23039606.598    95622965.695 7
        30.800
  24466052.438   130693261.868 2        34.900    24466060.379   101650334.183 7
        32.900
  22577132.180   120560748.129 6        42.200    22577136.230    93769424.112 8
        38.700
  23015340.109   122684721.443 4        38.400    23015349.645    95421491.196 7
        32.600
  21993211.313   117648703.938 7        45.900    21993216.586    91504641.615 9
        42.400
  19651067.844   105083009.658 6        44.200    19651073.023    81731340.935 9
        48.100
  21402756.734   114530519.837 8        49.800    21402762.684    89079297.024 9
        45.100
 15 11 13 14  7 30.0000000  0 21G01G03G06G09G11G12G17G19G23G25G31G32
                                R04R05R06R12R13R14R19R20R21
  22582442.875   118671516.876 6        46.600    22582451.785    92471356.542 8
        33.400
  20654711.422   108541207.708 7        49.300    20654718.266    84577675.675 9
        42.900
  22699851.750   119288496.238 6        45.100    22699860.504    92952187.108 8
        33.400
  22821006.148   119925273.939 6        46.800    22821013.777    93448340.705 8
        33.700
  24549337.906   129007589.836 6        44.200    24549343.332   100525397.349 6
        22.900
  24942312.961   131072720.532 5        41.400    24942321.867   102134620.568 6
        23.400
  21944838.813   115320907.341 7        47.600    21944843.813    89860466.094 8
        36.900
  24206386.289   127205363.578 6        43.000    24206392.051    99121058.688 6
        25.800
  21043025.898   110581942.275 7        49.200    21043027.734    86167795.923 8
        39.000
  25476186.742   133878240.604 2        34.700

  23603796.773   124038658.050 6        44.700    23603802.793    96653668.100 7
        29.300
  23207140.922   121954385.012 6        46.100    23207147.230    95029429.784 7
        30.000
  20394635.453   109212674.725 8        50.300    20394639.824    84943049.892 9
        46.900
  19429323.969   103861750.855 7        46.000    19429328.730    80780781.202 9
        48.300
  23019278.945   122835647.058 6        45.000    23019282.184    95538611.792 7
        32.900
  24483224.750   130784995.999 3        36.100    24483232.938   101721683.266 8
        33.600
  22577663.641   120563594.923 6        41.300    22577669.824    93771638.320 8
        39.100
  22996957.008   122586725.627 5        39.200    22996965.676    95345272.294 7
        32.900
  22017139.156   117776701.248 7        46.600    22017144.027    91604194.963 9
        42.500
  19655612.398   105107314.264 6        44.300    19655618.734    81750244.507 9
        47.900
  21385356.734   114437404.483 8        50.300    21385361.945    89006874.015 9
        45.100
 15 11 13 14  8  0.0000000  0 21G01G03G06G09G11G12G17G19G23G25G31G32
                                R04R05R06R12R13R14R19R20R21
  22600543.633   118766632.213 7        47.800    22600551.336    92545472.311 7
        33.000
  20662831.031   108583878.508 7        49.100    20662838.000    84610925.624 9
        42.000
  22682504.398   119197336.001 6        46.300    22682513.426    92881153.247 8
        33.600
  22801410.992   119822299.318 6        45.400    22801417.488    93368100.796 8
        33.900
  24572013.734   129126756.261 5        42.000    24572020.574   100618254.103 6
        19.900
  24946513.742   131094794.147 5        41.400    24946522.223   102151820.735 6
        22.900
  21952766.039   115362567.116 6        46.100    21952771.059    89892928.232 8
        35.800
  24227839.641   127318096.668 6        43.900    24227844.723    99208902.465 6
        25.900
  21034426.906   110536753.015 7        49.100    21034428.680    86132583.523 8
        38.800
  25470586.742   133848811.302 1        31.600

  23607958.477   124060525.841 6        46.200    23607964.219    96670707.934 7
        29.900
  23225183.539   122049199.369 6        46.800    23225190.008    95103311.055 7
        29.600
  20409248.242   109290920.629 8        50.700    20409251.723    85003907.785 9
        45.900
  19423905.820   103832788.693 7        46.600    19423910.859    80758255.089 9
        47.700
  22998985.563   122727372.412 6        44.400    22998991.828    95454398.202 8
        33.400
  24500487.375   130877212.630 3        35.400    24500496.570   101793407.535 7
        32.600
  22578349.523   120567253.885 5        41.000    22578354.828    93774484.199 8
        37.900
  22978656.914   122489176.130 5        39.600    22978666.637    95269400.559 7
        32.200
  22041126.766   117905014.597 7        46.100    22041132.293    91703994.094 9
        41.100
  19660310.656   105132440.062 6        44.600    19660315.961    81769786.787 9
        46.800
  21368058.586   114344841.047 8        49.300    21368063.977    88934880.292 9
        44.400
 15 11 13 14  8 30.0000000  0 21G01G03G06G09G11G12G17G19G23G25G31G32
                                R04R05R06R12R13R14R19R20R21
  22618692.305   118862005.316 7        48.000    22618699.875    92619788.977 8
        33.200
  20671016.719   108626892.434 7        49.300    20671023.598    84644442.949 9
        42.500
  22665202.125   119106409.710 6        46.300    22665211.047    92810301.640 8
        35.300
  22781862.195   119719577.066 6        44.600    22781870.387    93288057.537 8
        33.400
  24594701.961   129245985.296 5        41.500    24594708.617   100711159.773 6
        21.100
  24950821.625   131117431.943 5        41.000    24950830.387   102169460.588 6
        24.700
  21960798.203   115404775.915 6        46.600    21960803.465    89925818.160 8
        36.600
  24249310.094   127430927.233 6        43.600    24249314.621    99296822.233 6
        25.500
  21025918.430   110492040.625 7        48.900    21025920.934    86097742.712 8
        39.900
  25465087.523   133819924.745 1        27.300

  23612231.203   124082979.806 6        45.300    23612236.723    96688204.504 7
        29.800
  23243246.867   122144121.235 6        46.200    23243252.926    95177276.093 7
        29.400
  20423918.625   109369483.516 8        50.000    20423922.859    85065012.232 9
        45.700
  19418584.422   103804341.413 7        46.800    19418589.348    80736129.446 9
        47.700
  22978730.047   122619279.734 6        44.100    22978735.891    95370326.234 8
        34.100
  24517841.945   130969907.944 3        35.200    24517848.758   101865504.064 7
        32.000
  22579187.563   120571725.017 6        41.800    22579192.098    93777961.773 8
        38.700
  22960441.984   122392076.939 5        40.200    22960450.148    95193879.058 7
        33.000
  22065171.633   118033640.621 6        44.700    22065176.656    91804036.438 8
        40.700
  19665163.000   105158386.244 6        44.100    19665168.797    81789967.143 9
        47.000
  21350865.156   114252833.805 8        49.700    21350870.531    88863319.157 9
        44.200
 15 11 13 14  9  0.0000000  0 21G01G03G06G09G11G12G17G19G23G25G31G32
                                R04R05R06R12R13R14R19R20R21
  22636889.875   118957634.692 7        48.000    22636898.262    92694305.314 8
        33.500
  20679266.695   108670248.432 7        49.300    20679273.758    84678226.826 9
        42.200
  22647944.477   119015719.444 6        45.700    22647952.492    92739633.977 8
        34.300
  22762363.906   119617109.124 6        44.900    22762371.840    93208212.464 8
        34.100
  24617402.867   129365274.709 6        42.500    24617409.359   100804112.383 6
        20.400
  24955236.047   131140632.525 5        41.100    24955245.191   102187538.969 6
        22.600
  21968934.438   115447532.018 6        46.600    21968940.039    89959134.565 8
        36.900
  24270799.758   127543852.493 6        44.300    24270803.602    99384815.791 6
        23.900
  21017501.047   110447805.731 7        49.400    21017503.434    86063273.985 8
        39.900
  25459696.672   133791581.724 1        31.900

  23616614.648   124106019.286 6        46.300    23616620.281    96706157.339 7
        30.400
  23261329.555   122239149.259 6        46.300    23261335.750    95251323.863 7
        30.500
  20438649.313   109448360.932 8        50.300    20438652.816    85126361.306 9
        46.200
  19413359.281   103776408.339 7        46.400    19413363.266    80714403.738 9
        48.000
  22958507.555   122511370.354 6        43.100    22958513.430    95286396.772 7
        32.800
  24535282.703   131063078.365 3        36.600    24535290.289   101937970.125 7
        33.000
  22580176.961   120577008.354 5        40.500    22580181.098    93782071.053 8
        38.600
  22942311.672   122295432.395 5        40.400    22942319.758    95118711.186 7
        31.700
  22089275.523   118162575.139 6        44.400    22089279.105    91904318.721 8
        40.000
  19670168.242   105185152.232 6        43.800    19670174.215    81810785.125 9
        48.100
  21333776.703   114161386.555 8        50.200    21333781.301    88792193.568 9
        44.800
 15 11 13 14  9 30.0000000  0 21G01G03G06G09G11G12G17G19G23G25G31G32
                                R04R05R06R12R13R14R19R20R21
  22655136.063   119053518.779 6        46.700    22655144.457    92769020.128 7
        32.300
  20687581.953   108713945.766 7        50.100    20687589.043    84712276.671 9
        42.100
  22630731.609   118925267.475 6        46.200    22630740.738    92669151.989 8
        34.600
  22742913.492   119514897.683 6        45.200    22742921.496    93128567.274 8
        34.100
  24640113.055   129484622.381 5        40.900    24640120.309   100897110.451 6
        20.100
  24959758.383   131164394.557 5        41.600    24959766.488   102206054.812 6
        22.800
  21977174.125   115490833.998 6        45.700    21977180.117    89992876.341 8
        35.800
  24292306.492   127656869.638 6        44.600    24292310.102    99472880.964 6
        23.800
  21009174.758   110404049.316 7        50.000    21009176.395    86029178.088 8
        39.900
  25454406.141   133763783.591 1        32.600

  23621110.375   124129643.487 6        46.500    23621115.742    96724565.770 7
        30.000
  23279432.953   122334282.219 6        46.200    23279439.230    95325453.385 7
        30.100
  20453437.578   109527550.834 8        51.200    20453440.844    85187953.429 9
        46.100
  19408229.578   103748989.361 7        46.300    19408234.523    80693077.877 9
        48.200
  22938319.445   122403645.393 6        42.600    22938325.316    95202610.771 8
        33.400
  24552812.688   131156720.197 2        34.600    24552819.703   102010802.849 8
        33.100
  22581317.297   120583103.909 6        41.800    22581322.016    93786812.065 8
        37.900
  22924266.992   122199247.223 5        40.100    22924276.426    95043900.609 7
        32.700
  22113435.047   118291814.658 7        45.800    22113438.820    92004838.234 8
        40.200
  19675327.438   105212737.438 6        44.100    19675332.871    81832240.272 9
        47.200
  21316792.766   114070502.994 8        50.100    21316797.207    88721506.410 9
        43.700
 15 11 13 14 10  0.0000000  0 21G01G03G06G09G11G12G17G19G23G25G31G32
                                R04R05R06R12R13R14R19R20R21
  22673430.359   119149656.158 6        46.100    22673439.340    92843932.329 7
        32.200
  20695962.641   108757983.550 7        50.000    20695969.477    84746591.805 9
        42.200
  22613565.313   118835056.038 6        46.700    22613573.395    92598857.427 8
        33.600
  22723512.930   119412944.941 6        45.900    22723519.852    93049123.687 8
        34.800
  24662836.023   129604026.503 5        41.800    24662842.383   100990152.514 6
        19.900
  24964387.305   131188716.862 5        41.700    24964395.063   102225007.201 6
        22.600
  21985518.453   115534680.476 7        47.600    21985523.691    90027042.401 8
        36.100
  24313829.570   127769976.068 6        43.700    24313835.172    99561015.692 6
        25.700
  21000939.141   110360772.454 7        49.600    21000941.223    85995455.873 8
        40.100
  25449220.422   133736531.734 2        33.400

  23625717.344   124153851.951 6        45.900    23625722.422    96743429.524 7
        30.700
  23297555.867   122429518.943 6        45.100    23297562.469    95399663.767 7
        29.900
  20468283.523   109607050.970 8        50.500    20468286.660    85249786.857 9
        45.800
  19403197.633   103722084.671 7        46.400    19403201.477    80672152.019 9
        48.400
  22918166.609   122296106.026 6        41.800    22918173.555    95118969.217 8
        35.300
  24570430.492   131250830.112 2        35.000    24570437.168   102083999.763 7
        31.600
  22582611.516   120590011.827 6        41.600    22582615.867    93792184.891 8
        37.600
  22906309.750   122103526.129 4        38.800    22906318.742    94969451.015 7
        32.200
  22137650.328   118421355.411 7        45.800    22137655.199    92105592.070 8
        40.700
  19680639.508   105241140.949 6        44.300    19680644.242    81854331.878 9
        47.700
  21299914.031   113980187.236 8        49.500    21299919.188    88651260.877 9
        44.100
 15 11 13 14 10 30.0000000  0 21G01G03G06G09G11G12G17G19G23G25G31G32
                                R04R05R06R12R13R14R19R20R21
  22691772.008   119246045.122 6        45.200    22691781.297    92919040.513 7
        31.900
  20704407.039   108802360.690 7        50.300    20704414.035    84781171.374 9
        41.700
  22596444.195   118745087.077 6        46.300    22596452.438    92528751.794 8
        34.000
  22704161.461   119311252.718 6        45.900    22704169.504    92969883.055 8
        34.400
  24685567.430   129723485.260 5        42.000    24685574.211   101083237.092 6
        20.100
  24969121.953   131213598.535 5        40.200    24969130.254   102244395.476 6
        21.700
  21993965.422   115579069.260 7        47.200    21993970.699    90061631.015 8
        36.600
  24335370.320   127883168.612 6        44.700    24335374.094    99649217.533 7
        26.400
  20992794.766   110317975.326 7        49.700    20992797.453    85962107.481 8
        39.900
  25444139.539   133709826.888 3        35.200

  23630435.398   124178643.667 6        46.300    23630440.719    96762747.729 7
        30.900
  23315697.969   122524857.973 6        46.300    23315704.867    95473953.860 7
        29.200
  20483186.438   109686858.800 8        51.700    20483190.777    85311859.603 9
        46.700
  19398259.586   103695693.730 7        46.200    19398264.402    80651625.753 9
        48.200
  22898046.711   122188753.568 5        40.600    22898054.551    95035473.047 8
        33.700
  24588134.430   131345403.543 3        36.600    24588141.289   102157557.047 8
        34.100
  22584057.430   120597731.463 6        41.100    22584061.762    93798189.086 8
        37.600
  22888439.656   122008273.026 4        38.700    22888448.551    94895365.427 7
        31.900
  22161922.531   118551193.414 7        46.600    22161928.289    92206577.059 9
        41.700
  19686104.016   105270361.804 6        44.300    19686109.309    81877059.207 9
        47.800
  21283144.273   113890442.947 8        50.000    21283148.680    88581459.802 9
        43.400
 15 11 13 14 11  0.0000000  0 21G01G03G06G09G11G12G17G19G23G25G31G32
                                R04R05R06R12R13R14R19R20R21
  22710161.992   119342684.141 6        46.500    22710170.574    92994343.576 7
        31.500
  20712916.430   108847076.356 7        49.700    20712922.996    84816014.735 9
        42.100
  22579370.008   118655362.944 6        46.000    22579379.098    92458836.930 8
        33.400
  22684859.742   119209823.230 7        47.100    22684867.266    92890847.183 8
        34.600
  24708309.234   129842995.677 5        40.900    24708316.422   101176361.915 6
        19.000
  24973961.773   131239038.111 5        40.600    24973970.699   102264218.501 6
        22.900
  22002515.734   115623998.814 7        47.800    22002520.219    90096641.015 8
        36.800
  24356925.969   127996445.262 6        44.300    24356931.746    99737484.889 7
        28.200
  20984742.328   110275659.150 7        49.000    20984745.359    85929133.858 8
        39.400
  25439161.094   133683670.207 2        34.200

  23635263.828   124204018.051 7        47.100    23635270.121    96782519.976 7
        30.500
  23333859.648   122620298.409 6        44.900    23333866.836    95548322.980 7
        28.600
  20498147.328   109766972.230 8        51.000    20498151.430    85374170.026 9
        46.400
  19393419.086   103669816.170 7        46.000    19393423.793    80631498.774 9
        48.000
  22877965.711   122081589.460 6        41.800    22877971.730    94952123.319 8
        34.000
  24605924.852   131440436.536 3        36.300    24605930.898   102231471.867 7
        33.000
  22585654.547   120606263.016 5        40.700    22585659.953    93804824.743 8
        37.300
  22870658.305   121913492.438 4        37.800    22870667.645    94821647.322 7
        31.000
  22186249.383   118681325.104 7        45.800    22186256.281    92307790.447 9
        43.000
  19691720.750   105300399.109 6        44.200    19691726.527    81900421.544 9
        47.400
  21266480.344   113801274.085 8        49.300    21266485.586    88512106.299 9
        43.800
 15 11 13 14 11 30.0000000  0 21G01G03G06G09G11G12G17G19G23G25G31G32
                                R04R05R06R12R13R14R19R20R21
  22728599.258   119439571.798 6        45.900    22728608.227    93069840.393 7
        31.200
  20721489.727   108892129.734 7        49.200    20721496.230    84851121.244 9
        41.300
  22562343.281   118565885.872 6        46.200    22562351.695    92389114.583 8
        33.600
  22665608.875   119108658.565 6        46.900    22665616.168    92812017.672 8
        34.400
  24731061.898   129962556.070 6        42.600    24731067.699   101269525.759 6
        20.900
  24978909.445   131265034.473 5        41.600    24978917.707   102284475.408 6
        22.800
  22011167.500   115669467.601 6        46.300    22011172.152    90132071.211 8
        36.100
  24378496.852   128109803.320 6        42.800    24378501.656    99825815.715 7
        26.200
  20976781.109   110233825.085 7        48.900    20976783.918    85896535.912 8
        39.500
  25434288.641   133658063.052 3        35.200

  23640203.289   124229974.638 6        46.300    23640208.840    96802745.892 7
        31.900
  23352040.359   122715839.022 6        44.400    23352046.813    95622770.144 7
        29.100
  20513164.781   109847389.246 8        50.300    20513168.770    85436716.582 9
        46.700
  19388674.063   103644452.365 7        46.900    19388679.031    80611771.390 9
        48.600
  22857919.320   121974614.775 6        42.900    22857924.391    94868920.982 8
        33.600
  24623799.070   131535925.608 3        35.800    24623806.602   102305741.444 7
        31.400
  22587403.781   120615606.329 6        41.500    22587409.105    93812091.762 8
        38.000
  22852968.859   121819189.249 4        38.700    22852975.891    94748300.531 7
        30.800
  22210629.914   118811746.540 7        45.400    22210636.738    92409229.217 9
        42.000
  19697490.406   105331252.369 7        45.100    19697495.695    81924418.528 9
        47.600
  21249924.344   113712684.715 7        48.900    21249929.785    88443203.507 9
        44.000
 15 11 13 14 12  0.0000000  0 21G01G03G06G09G11G12G17G19G23G25G31G32
                                R04R05R06R12R13R14R19R20R21
  22747083.711   119536706.379 6        46.500    22747092.461    93145529.626 7
        31.000
  20730127.078   108937519.829 7        48.900    20730133.809    84886490.137 9
        41.100
  22545364.094   118476658.033 6        46.800    22545372.559    92319586.451 8
        34.200
  22646408.539   119007760.767 6        46.000    22646416.656    92733396.117 8
        34.500
  24753822.766   130082164.474 5        40.700    24753829.688   101362726.893 6
        18.600
  24983962.531   131291586.299 5        41.300    24983969.355   102305165.163 6
        23.900
  22019922.453   115715473.977 6        46.600    22019926.195    90167920.286 8
        35.800
  24400083.391   128223239.529 6        42.900    24400089.266    99914207.387 7
        27.800
  20968912.609   110192473.724 7        49.900    20968914.914    85864314.097 8
        39.800
  25429520.938   133633006.389 3        36.400

  23645252.594   124256512.263 6        45.400    23645258.961    96823424.560 7
        30.800
  23370239.578   122811478.504 6        44.500    23370246.789    95697294.355 7
        28.500
  20528238.305   109928107.602 8        50.500    20528242.398    85499497.489 9
        46.500
  19384025.211   103619601.767 7        45.900    19384029.781    80592443.154 9
        48.600
  22837906.344   121867830.514 6        42.700    22837912.281    94785866.689 7
        32.500
  24641760.711   131631866.511 3        35.800    24641766.367   102380362.510 7
        32.700
  22589306.352   120625761.059 6        41.300    22589311.199    93819989.883 8
        37.900
  22835366.594   121725367.256 4        38.600    22835376.852    94675328.031 7
        32.900
  22235065.398   118942454.135 7        46.400    22235070.035    92510890.547 8
        40.900
  19703412.063   105362920.315 6        43.700    19703417.746    81949049.141 9
        47.700
  21233479.023   113624678.515 7        48.800    21233483.438    88374754.303 9
        44.200
 15 11 13 14 12 30.0000000  0 20G01G03G06G09G11G12G17G19G23G25G31G32
                                R04R05R06R13R14R19R20R21
  22765614.258   119634086.560 6        45.800    22765623.664    93221410.219 7
        31.900
  20738827.898   108983245.937 7        48.400    20738834.836    84922120.858 9
        41.600
  22528432.445   118387681.786 6        45.900    22528440.188    92250254.354 8
        34.100
  22627259.305   118907132.026 6        45.200    22627267.004    92654984.207 8
        34.900
  24776591.328   130201818.845 5        39.300    24776598.922   101455963.965 6
        19.000
  24989120.766   131318692.006 5        41.900    24989128.328   102326286.440 6
        23.000
  22028779.031   115762016.222 6        46.800    22028783.672    90204186.940 8
        35.900
  24421684.039   128336751.569 6        43.600    24421689.219   100002658.158 7
        26.800
  20961135.266   110151605.901 7        50.200    20961138.105    85832469.066 8
        39.200
  25424857.750   133608501.409 4        37.400

  23650414.078   124283630.570 6        45.900    23650419.414    96844555.724 7
        30.700
  23388458.914   122907215.789 6        44.100    23388465.027    95771894.780 7
        27.900
  20543367.695   110009125.041 8        51.300    20543371.859    85562511.045 9
        47.400
  19379472.438   103595264.336 7        45.500    19379477.543    80573514.056 9
        48.900
  22817931.563   121761238.545 6        42.200    22817937.484    94702961.977 8
        34.400
  22591358.875   120636727.204 6        42.000    22591364.656    93828519.128 8
        38.300
  22817856.742   121632031.551 5        39.800    22817866.762    94602733.729 8
        34.300
  22259552.211   119073444.151 7        46.900    22259558.234    92612771.536 9
        41.200
  19709486.281   105395402.372 6        44.700    19709491.898    81974312.952 9
        46.900
  21217142.398   113537259.502 7        48.900    21217147.211    88306761.791 9
        44.200
 15 11 13 14 13  0.0000000  0 20G01G03G06G09G11G12G17G19G23G25G31G32
                                R04R05R06R13R14R19R20R21
  22784191.297   119731710.813 6        44.200    22784200.730    93297480.997 7
        31.300
  20747593.625   109029307.128 7        48.700    20747599.953    84958012.689 9
        41.900
  22511548.922   118298959.342 6        46.100    22511557.316    92181120.024 8
        34.600
  22608161.711   118806774.423 6        46.200    22608168.902    92576783.575 8
        35.100
  24799369.602   130321517.353 5        40.400    24799376.180   101549235.355 5
        17.800
  24994383.852   131346350.918 5        40.900    24994392.078   102347838.844 6
        24.400
  22037737.313   115809092.681 6        46.900    22037741.832    90240869.869 8
        35.600
  24443298.961   128450336.681 6        43.700    24443303.098   100091165.907 7
        27.100
  20953450.727   110111222.462 7        49.800    20953453.375    85801001.480 8
        39.400
  25420300.938   133584549.220 3        35.700

  23655684.156   124311328.569 6        45.100    23655689.848    96866138.596 7
        31.000
  23406695.672   123003049.877 6        45.000    23406701.160    95846570.652 7
        27.700
  20558553.148   110090439.678 8        51.400    20558556.895    85625755.747 9
        47.000
  19375015.367   103571439.683 7        46.300    19375020.410    80554983.780 9
        48.900
  22797993.133   121654839.511 6        44.200    22797998.184    94620207.305 8
        33.100
  22593565.391   120648504.252 6        41.300    22593570.277    93837679.083 8
        37.900
  22800439.719   121539185.856 4        38.500    22800448.754    94530520.570 8
        33.300
  22284092.203   119204712.911 7        47.700    22284096.328    92714869.349 8
        40.700
  19715712.477   105428697.243 6        45.000    19715718.125    82000208.953 9
        47.500
  21200916.867   113450431.490 7        48.100    21200922.016    88239228.943 9
        44.700
 15 11 13 14 13 30.0000000  0 20G01G03G06G09G11G12G17G19G23G25G31G32
                                R04R05R06R13R14R19R20R21
  22802814.477   119829577.298 6        44.800    22802824.016    93373740.483 7
        30.200
  20756422.234   109075702.159 7        50.300    20756428.949    84994164.644 8
        40.900
  22494714.273   118210492.570 6        47.000    22494722.211    92112184.921 8
        34.500
  22589115.977   118706689.698 6        46.200    22589123.789    92498795.590 8
        35.000
  24822156.367   130441257.392 4        39.000    24822161.973   101642539.181 6
        19.600
  24999752.109   131374561.071 5        41.100    24999760.043   102369820.742 6
        22.000
  22046797.664   115856701.573 7        49.200    22046802.461    90277967.684 8
        36.600
  24464926.977   128563991.902 6        42.600    24464932.938   100179728.218 7
        26.800
  20945858.195   110071323.744 7        49.200    20945861.324    85769911.586 8
        40.100
  25415847.109   133561150.564 4        37.600

  23661065.258   124339604.902 6        45.000    23661070.934    96888172.127 7
        30.200
  23424950.391   123098979.086 6        44.900    23424955.965    95921320.624 7
        27.300
  20573791.859   110172048.895 8        51.100    20573796.535    85689229.579 9
        46.900
  19370655.117   103548127.476 7        46.000    19370659.355    80536852.077 9
        48.600
  22778090.164   121548634.530 6        45.000    22778094.379    94537603.561 7
        32.300
  22595923.336   120661091.678 6        41.200    22595927.406    93847469.319 8
        38.300
  22783115.430   121446834.692 5        39.200    22783123.813    94458692.019 8
        33.600
  22308682.586   119336256.155 7        46.000    22308688.457    92817180.646 9
        41.700
  19722090.734   105462803.654 6        44.500    19722096.238    82026736.155 9
        47.800
  21184801.719   113364197.945 7        48.800    21184807.020    88172158.433 9
        44.800
 15 11 13 14 14  0.0000000  0 20G01G03G06G09G11G12G17G19G23G25G31G32
                                R04R05R06R13R14R19R20R21
  22821484.422   119927684.386 6        46.000    22821493.254    93450187.491 7
        31.400
  20765314.641   109122430.193 7        50.700    20765320.688    85030576.099 9
        41.100
  22477928.867   118122283.760 6        45.700    22477936.660    92043450.840 8
        34.600
  22570122.344   118606879.912 6        45.500    22570130.051    92421021.819 8
        35.000
  24844949.016   130561037.055 5        40.500    24844955.250   101735873.854 6
        18.300
  25005225.234   131403321.364 5        41.200    25005233.535   102392231.313 6
        23.200
  22055957.867   115904840.752 6        46.300    22055963.293    90315478.695 8
        37.300
  24486567.102   128677714.286 5        40.700    24486572.668   100268342.942 7
        26.200
  20938358.500   110031910.777 7        50.200    20938361.012    85739200.210 8
        40.200
  25411499.414   133538306.467 3        36.800

  23666555.156   124368459.061 6        45.200    23666561.566    96910655.906 7
        30.900
  23443222.680   123195002.357 6        45.500    23443228.707    95996143.900 7
        27.100
  20589087.297   110253950.667 8        51.800    20589091.203    85752930.935 9
        46.900
  19366389.766   103525327.465 7        46.600    19366394.211    80519118.752 9
        48.700
  22758223.078   121442625.068 6        43.100    22758229.453    94455151.887 8
        34.400
  22598431.469   120674489.038 5        40.600    22598436.074    93857889.496 8
        37.100
  22765883.031   121354982.360 5        39.400    22765892.746    94387251.429 8
        34.000
  22333324.273   119468070.229 7        46.200    22333329.340    92919702.574 8
        41.000
  19728620.023   105497720.417 7        45.800    19728625.605    82053893.629 9
        48.000
  21168797.805   113278562.661 7        47.600    21168804.570    88105553.256 9
        45.500
 15 11 13 14 14 30.0000000  0 20G01G03G06G09G11G12G17G19G23G25G31G32
                                R04R05R06R13R14R19R20R21
  22840199.406   120026030.511 6        45.300    22840207.805    93526820.778 7
        32.400
  20774269.336   109169490.324 7        51.000    20774275.594    85067246.335 8
        40.800
  22461192.445   118034335.182 6        45.700    22461201.219    91974919.539 8
        34.700
  22551182.875   118507347.213 6        46.600    22551189.609    92343463.984 8
        34.300
  24867749.930   130680854.148 5        40.700    24867756.211   101829237.713 6
        19.000
  25010802.195   131432630.212 5        41.700    25010809.680   102415069.365 6
        22.800
  22065218.938   115953508.627 7        48.100    22065223.938    90353401.684 8
        36.000
  24508221.016   128791501.381 6        42.600    24508225.125   100357008.041 6
        25.500
  20930950.953   109992984.067 7        51.000    20930953.582    85708867.734 8
        40.800
  25407258.156   133516017.611 3        35.700

  23672155.961   124397889.858 6        45.000    23672161.965    96933589.025 7
        30.600
  23461513.102   123291118.546 6        44.100    23461519.594    96071039.584 6
        26.000
  20604435.805   110336142.608 8        50.700    20604440.289    85816857.992 9
        47.100
  19362219.828   103503039.310 7        46.100    19362224.605    80501783.531 9
        48.300
  22738394.773   121336811.980 6        43.500    22738400.141    94372852.923 8
        35.400
  22601091.742   120688696.061 5        40.600    22601096.859    93868939.447 8
        37.600
  22748746.883   121263633.136 5        39.100    22748756.246    94316202.160 8
        34.800
  22358014.969   119600151.578 7        45.900    22358021.043    93022432.371 9
        41.800
  19735301.992   105533446.699 6        44.700    19735307.211    82081680.724 9
        47.700
  21152907.563   113193529.514 8        49.100    21152913.086    88039416.400 9
        45.100
 15 11 13 14 15  0.0000000  0 20G01G03G06G09G11G12G17G19G23G25G31G32
                                R04R05R06R13R14R19R20R21
  22858959.570   120124614.396 7        47.700    22858967.148    93603639.324 7
        32.200
  20783288.047   109216881.837 7        50.600    20783294.078    85104174.782 8
        40.600
  22444506.445   117946649.207 6        46.100    22444514.969    91906592.858 8
        34.800
  22532295.141   118408093.758 6        46.400    22532301.789    92266123.725 8
        33.500
  24890557.711   130800707.021 5        41.800    24890563.961   101922629.405 6
        19.900
  25016484.781   131462486.183 5        41.800    25016491.785   102438333.659 6
        25.500
  22074580.469   116002703.413 7        47.300    22074586.141    90391735.255 8
        37.300
  24529885.656   128905350.704 6        43.100    24529890.402   100445721.669 6
        25.500
  20923636.500   109954544.991 7        50.600    20923639.074    85678915.232 8
        40.200
  25403123.766   133494285.504 4        38.300

  23677865.672   124427896.849 6        44.200    23677872.047    96956971.130 7
        30.700
  23479820.688   123387326.715 6        46.200    23479827.230    96146006.931 7
        26.900
  20619838.977   110418623.056 8        51.700    20619842.188    85881009.435 9
        46.200
  19358146.188   103481263.239 7        45.500    19358150.727    80484846.601 9
        48.000
  22718602.992   121231196.844 6        44.200    22718607.879    94290707.945 8
        35.800
  22603903.844   120703712.248 5        40.400    22603908.297    93880618.712 8
        36.900
  22731704.781   121172791.861 4        38.600    22731714.180    94245547.950 8
        34.300
  22382755.328   119732496.545 7        45.700    22382761.645    93125367.220 8
        40.900
  19742133.703   105569981.320 6        43.900    19742138.945    82110096.542 9
        47.800
  21137130.305   113109102.516 7        48.800    21137135.648    87973751.013 9
        45.400
 15 11 13 14 15 30.0000000  0 20G01G03G06G09G11G12G17G19G23G25G31G32
                                R04R05R06R13R14R19R20R21
  22877763.313   120223434.060 6        46.700    22877772.473    93680641.607 7
        32.400
  20792369.086   109264603.498 7        49.900    20792375.609    85141360.486 8
        40.700
  22427870.859   117859227.811 6        46.100    22427878.695    91838472.336 8
        34.800
  22513460.852   118309121.268 6        44.300    22513468.141    92189002.396 8
        33.700
  24913371.102   130920592.947 5        40.700    24913377.707   102016046.942 6
        19.000
  25022269.352   131492887.905 5        39.400    25022277.313   102462023.329 6
        22.300
  22084041.563   116052423.229 6        46.500    22084047.195    90430477.937 8
        36.300
  24551561.969   129019259.269 6        42.300    24551568.352   100534481.416 6
        25.500
  20916414.656   109916593.369 7        49.900    20916417.016    85649342.574 8
        39.900
  25399093.484   133473110.505 3        36.600

  23683685.844   124458478.644 6        46.000    23683691.488    96980801.120 7
        30.900
  23498145.914   123483625.324 6        46.200    23498152.305    96221044.769 7
        27.500
  20635295.180   110501389.308 8        51.500    20635298.684    85945383.178 9
        46.500
  19354168.367   103459998.354 7        45.500    19354172.691    80468307.258 9
        48.500
  22698845.617   121125780.530 6        42.600    22698852.762    94208717.610 8
        35.500
  22606866.766   120719536.891 5        40.100    22606872.000    93892926.806 8
        37.300
  22714759.391   121082462.190 4        38.600    22714768.316    94175291.659 8
        34.300
  22407545.648   119865100.578 7        46.000    22407549.527    93228503.540 8
        39.500
  19749116.539   105607322.914 6        43.800    19749122.078    82139139.977 9
        47.300
  21121468.523   113025285.229 8        49.900    21121472.680    87908559.841 9
        44.900
 15 11 13 14 16  0.0000000  0 20G01G03G06G09G11G12G17G19G23G25G31G32
                                R04R05R06R13R14R19R20R21
  22896613.773   120322488.090 6        46.700    22896622.078    93757826.478 8
        33.500
  20801512.961   109312654.488 7        48.000    20801519.641    85178802.815 8
        40.900
  22411285.711   117772073.272 6        46.200    22411293.883    91770559.742 8
        35.200
  22494681.063   118210431.884 6        45.500    22494688.402    92112101.686 8
        33.500
  24936190.641   131040510.542 5        40.700    24936197.770   102109489.108 6
        20.900
  25028156.523   131523833.676 4        38.300    25028165.563   102486136.838 6
        19.900
  22093602.461   116102666.124 6        45.200    22093607.813    90469628.176 8
        35.400
  24573249.414   129133224.575 5        41.700    24573253.957   100623285.408 6
        25.200
  20909285.313   109879130.088 7        49.100    20909287.770    85620150.422 8
        40.600
  25395170.688   133452493.634 4        38.300

  23689614.664   124489634.251 6        44.500    23689620.637    97005078.227 7
        31.200
  23516488.008   123580013.294 6        44.500    23516494.523    96296152.218 7
        26.700
  20650803.039   110584439.583 8        49.200    20650807.281    86009977.812 9
        46.600
  19350285.820   103439244.389 7        45.700    19350290.656    80452165.292 9
        49.000
  22679130.172   121020564.746 7        45.300    22679135.730    94126883.256 8
        36.100
  22609981.188   120736169.497 5        39.800    22609986.621    93905863.275 8
        38.000
  22697910.523   120992648.641 4        38.600    22697919.348    94105436.762 8
        34.200
  22432380.969   119997960.509 7        45.600    22432387.141    93331838.923 8
        39.100
  19756251.391   105645470.157 6        44.900    19756255.723    82168810.049 9
        47.500
  21105919.250   112942081.226 8        49.500    21105924.488    87843845.663 9
        45.500
 15 11 13 14 16 30.0000000  0 22G01G02G03G06G09G11G12G17G19G23G25G31
                                G32R04R05R06R13R14R15R19R20R21
  22915507.719   120421775.303 7        48.100    22915516.324    93835193.052 8
        34.000
  25970596.938   136476403.390 5        39.700    25970603.918   106345289.219 5
        16.900
  20810718.813   109361034.391 7        48.500    20810726.305    85216501.442 8
        40.300
  22394752.070   117685188.349 6        45.600    22394760.063    91702857.260 8
        35.600
  22475954.984   118112028.157 6        45.100    22475962.793    92035423.546 8
        34.600
  24959015.031   131160457.938 5        39.600    24959023.199   102202954.409 6
        19.000
  25034149.883   131555322.869 4        38.200    25034157.758   102510673.829 6
        21.700
  22103263.320   116153430.880 6        47.000    22103268.086    90509185.083 8
        35.500
  24594946.070   129247244.051 5        40.800    24594951.902   100712131.619 6
        24.900
  20902249.477   109842156.443 7        49.100    20902251.477    85591339.820 8
        40.400
  25391352.805   133432436.394 4        37.900    25391362.008   103973385.508 5
        13.900
  23695651.836   124521363.387 6        43.900    23695658.168    97029802.259 7
        29.900
  23534847.039   123676490.090 6        45.400    23534853.328    96371328.896 6
        26.000
  20666365.609   110667772.077 8        50.500    20666369.406    86074791.953 9
        46.500
  19346498.586   103419001.786 6        45.000    19346503.566    80436421.067 9
        48.600
  22659450.852   120915550.540 6        44.600    22659455.770    94045205.693 8
        35.400
  22613248.484   120753609.804 5        39.900    22613252.668    93919427.965 8
        37.500
  22681159.703   120903355.934 5        39.400    22681168.637    94035986.996 8
        33.600
  24582660.938   131362194.959 1        31.600    24582670.938   102170675.425 7
        31.800
  22457265.055   120131072.881 7        45.500    22457270.555    93435370.658 8
        40.100
  19763535.727   105684422.346 7        45.100    19763540.461    82199106.181 9
        47.700
  21090486.133   112859495.018 8        49.100    21090491.270    87779611.993 9
        45.300
 15 11 13 14 17  0.0000000  0 22G01G02G03G06G09G11G12G17G19G23G25G31
                                G32R04R05R06R13R14R15R19R20R21
  22934445.219   120521294.080 6        46.200    22934454.109    93912740.093 8
        33.600
  25950879.703   136372790.306 3        36.300

  20819987.633   109409742.151 7        50.200    20819994.844    85254455.540 8
        40.800
  22378270.664   117598575.096 6        46.200    22378278.742    91635366.469 8
        35.100
  22457284.461   118013911.896 6        45.900    22457292.004    91958969.420 8
        34.600
  24981845.813   131280432.861 4        38.900    24981853.430   102296441.291 6
        19.600
  25040244.594   131587353.562 4        37.400    25040253.066   102535632.735 6
        20.400
  22113022.328   116204715.293 7        48.100    22113027.207    90549146.933 8
        36.300
  24616653.625   129361315.144 5        40.900    24616659.180   100801017.999 6
        26.000
  20895306.852   109805672.953 7        50.500    20895308.887    85562911.148 8
        41.000
  25387643.359   133412939.148 4        38.100    25387651.691   103958192.774 5
        15.600
  23701799.266   124553664.941 6        45.300    23701804.789    97054972.337 7
        30.500
  23553222.680   123773054.343 6        44.300    23553229.242    96446573.694 7
        26.400
  20681980.109   110751384.615 8        51.600    20681983.477    86139823.882 9
        46.200
  19342807.148   103399269.776 6        45.000    19342811.895    80421073.967 9
        48.800
  22639808.867   120810739.569 6        44.700    22639813.766    93963686.167 8
        35.500
  22616665.000   120771857.185 5        40.000    22616669.652    93933620.382 8
        37.800
  22664508.047   120814588.120 4        38.500    22664515.336    93966945.458 8
        33.100
  24558927.859   131235377.298 4        37.300    24558938.105   102072039.498 8
        34.600
  22482195.461   120264433.871 6        43.500    22482200.918    93539095.716 8
        40.800
  19770969.766   105724177.841 6        44.900    19770975.031    82230027.109 9
        47.700
  21075168.781   112777530.095 8        50.600    21075173.379    87715861.553 9
        45.900
 15 11 13 14 17 30.0000000  0 22G01G02G03G06G09G11G12G17G19G23G25G31
                                G32R04R05R06R13R14R15R19R20R21
  22953427.203   120621042.204 7        47.200    22953435.336    93990465.820 7
        32.900
  25931157.813   136269152.936 4        38.900    25931165.074   106183781.726 5
        16.300
  20829318.789   109458776.301 7        50.700    20829325.547    85292663.965 9
        41.100
  22361840.094   117512235.260 6        46.000    22361848.891    91568088.714 8
        36.000
  22438668.609   117916084.635 6        45.300    22438676.293    91882740.476 8
        34.700
  25004681.898   131400432.854 5        40.400    25004688.707   102389947.631 6
        18.300
  25046442.813   131619923.937 4        37.900    25046451.762   102561012.163 6
        21.100
  22122879.711   116256516.651 7        48.400    22122884.656    90589511.599 8
        36.200
  24638369.094   129475434.501 5        41.000    24638375.652   100889942.023 7
        26.100
  20888457.586   109769679.727 7        50.200    20888459.484    85534864.499 8
        40.300
  25384040.047   133394002.537 4        38.900    25384048.582   103943436.912 5
        16.300
  23708054.602   124586537.278 6        44.400    23708060.328    97080587.170 7
        29.400
  23571615.344   123869704.394 6        46.200    23571620.902    96521885.375 7
        27.900
  20697645.336   110835274.353 8        51.300    20697649.094    86205071.429 9
        46.000
  19339211.570   103380047.457 6        44.900    19339216.094    80406123.296 9
        48.700
  22620205.938   120706131.597 7        45.500    22620209.547    93882324.619 8
        34.800
  22620232.180   120790910.421 5        39.800    22620238.328    93948439.569 8
        38.800
  22647952.047   120726349.230 4        39.000    22647962.051    93898315.309 8
        33.400
  24535192.148   131108556.956 1        29.400    24535205.441   101973401.505 7
        32.200
  22507171.031   120398039.092 6        43.200    22507178.238    93643010.687 8
        41.000
  19778553.617   105764734.883 6        44.500    19778559.168    82261571.457 9
        48.200
  21059968.180   112696189.398 8        49.900    21059973.086    87652596.611 9
        45.900
 15 11 13 14 18  0.0000000  0 22G01G02G03G06G09G11G12G17G19G23G25G31
                                G32R04R05R06R13R14R15R19R20R21
  22972451.195   120721018.170 6        46.700    22972460.332    94068369.114 7
        32.200
  25911431.711   136165493.183 4        38.900    25911438.836   106103007.945 6
        19.000
  20838711.656   109508136.024 7        50.500    20838718.988    85331126.077 9
        41.100
  22345462.625   117426171.157 7        47.100    22345470.992    91501025.832 8
        36.200
  22420107.875   117818548.428 6        46.800    22420115.465    91806738.324 8
        35.200
  25027519.016   131520455.978 3        36.300    25027528.527   102483471.977 5
        16.900
  25052743.359   131653032.475 4        37.500    25052752.102   102586810.975 6
        22.000
  22132835.109   116308833.435 7        48.200    22132840.547    90630277.884 8
        36.200
  24660095.023   129589599.489 5        41.600    24660100.859   100978901.557 6
        25.300
  20881701.688   109734177.420 7        51.400    20881703.949    85507200.396 8
        40.400
  25380542.758   133375627.342 5        39.200    25380551.840   103929118.694 5
        15.600
  23714418.914   124619979.366 6        45.300    23714424.527    97106645.961 7
        29.900
  23590023.414   123966439.304 6        45.200    23590029.504    96597263.155 7
        27.100
  20713362.820   110919439.235 8        51.900    20713366.535    86270532.973 9
        46.000
  19335710.602   103361334.893 6        44.400    19335715.559    80391569.098 9
        48.600
  22600639.867   120601728.558 7        46.300    22600644.195    93801122.399 8
        36.200
  22623950.969   120810768.597 5        39.800    22623956.945    93963884.828 8
        38.200
  22631500.516   120638643.403 5        39.900    22631508.027    93830099.743 8
        33.500
  24511461.461   130981735.873 4        37.200    24511473.309   101874762.873 8
        35.700
  22532193.328   120531884.815 6        44.100    22532199.168    93747112.763 9
        41.100
  19786287.797   105806091.990 7        45.100    19786292.906    82293738.084 9
        47.300
  21044885.547   112615476.979 8        50.100    21044890.555    87589820.318 9
        46.200
 15 11 13 14 18 30.0000000  0 22G01G02G03G06G09G11G12G17G19G23G25G31
                                G32R04R05R06R13R14R15R19R20R21
  22991519.234   120821220.253 6        46.000    22991528.555    94146448.580 7
        30.400
  25891702.445   136061811.463 4        38.600    25891708.301   106022217.250 5
        17.400
  20848166.414   109557820.226 7        50.700    20848173.273    85369841.039 9
        41.300
  22329138.273   117340384.883 7        47.900    22329146.094    91434179.432 8
        36.200
  22401602.945   117721305.120 6        46.400    22401610.344    91730964.382 8
        33.900
  25050364.523   131640499.937 4        38.300    25050372.156   102577012.673 5
        17.800
  25059145.242   131686677.398 4        37.900    25059154.086   102613027.762 6
        22.200
  22142888.813   116361663.678 7        47.900    22142894.316    90671444.243 8
        36.500
  24681828.156   129703807.417 6        42.400    24681834.223   101067894.573 7
        26.500
  20875038.984   109699166.201 7        50.200    20875041.445    85479918.954 8
        40.500
  25377153.305   133357814.059 5        39.500    25377159.957   103915238.146 5
        15.600
  23720890.297   124653989.882 6        44.600    23720895.762    97133147.682 7
        29.100
  23608446.625   124063257.635 6        44.200    23608453.637    96672705.957 7
        27.200
  20729131.570   111003877.190 8        51.900    20729134.809    86336206.912 9
        46.500
  19332304.766   103343131.412 7        45.200    19332310.336    80377410.868 9
        48.300
  22581113.555   120497531.661 7        46.300    22581117.793    93720080.515 8
        34.900
  22627821.305   120831430.931 5        39.300    22627826.125    93979955.538 8
        38.600
  22615147.289   120551474.635 5        39.400    22615156.008    93762301.917 8
        34.100
  24487731.836   130854919.665 3        35.500    24487741.012   101776128.134 8
        33.100
  22557260.000   120665967.240 7        46.800    22557263.410    93851398.940 8
        39.100
  19794171.445   105848247.788 7        45.200    19794176.992    82326525.916 9
        47.200
  21029920.570   112535396.229 8        50.700    21029924.902    87527535.345 9
        45.900
 15 11 13 14 19  0.0000000  0 22G01G02G03G06G09G11G12G17G19G23G25G31
                                G32R04R05R06R13R14R15R19R20R21
  23010630.164   120921647.016 6        46.700    23010639.480    94224703.140 7
        31.500
  25871968.680   135958109.687 4        38.600    25871974.785   105941410.754 5
        15.600
  20857682.148   109607828.244 7        50.300    20857689.551    85408808.315 9
        41.500
  22312866.828   117254878.941 7        47.700    22312874.750    91367551.480 8
        35.500
  22383153.953   117624356.964 6        46.300    22383161.121    91655420.443 8
        34.000
  25073211.875   131760562.946 5        39.500    25073219.531   102670568.145 6
        18.600
  25065650.227   131720857.204 4        38.600    25065657.898   102639661.303 6
        21.500
  22153039.805   116415005.612 7        49.200    22153044.953    90713009.349 8
        36.400
  24703568.516   129818055.801 5        40.900    24703574.230   101156919.134 6
        22.300
  20868470.328   109664647.317 7        49.900    20868472.914    85453021.144 9
        41.100
  25373870.688   133340563.698 5        39.500    25373878.145   103901796.331 5
        17.400
  23727469.867   124688567.983 6        44.300    23727475.984    97160091.679 7
        29.300
  23626886.523   124160158.693 6        43.200    23626893.629    96748213.202 7
        27.900
  20744949.539   111088586.121 8        50.300    20744953.328    86402091.591 9
        45.400
  19328995.500   103325436.670 6        44.200    19329000.109    80363648.310 9
        47.900
  22561625.086   120393541.983 6        44.900    22561630.738    93639199.774 8
        35.000
  22631841.430   120852896.884 4        38.500    22631846.063    93996651.272 8
        38.400
  22598894.633   120464847.292 4        38.800    22598903.617    93694925.164 7
        32.800
  24464000.195   130728111.883 2        33.900    24464011.398   101677499.893 7
        32.000
  22582369.773   120800282.801 7        47.700    22582371.910    93955866.465 8
        37.300
  19802203.813   105891200.768 7        45.100    19802208.500    82359933.778 9
        46.600
  21015074.336   112455950.944 8        50.500    21015079.156    87465744.615 9
        45.900
 15 11 13 14 19 30.0000000  0 22G01G02G03G06G09G11G12G17G19G23G25G31
                                G32R04R05R06R13R14R15R19R20R21
  23029783.430   121022296.782 6        47.000    23029792.441    94303131.483 7
        31.500
  25852230.750   135854389.133 4        38.300    25852236.473   105860589.730 5
        17.400
  20867260.289   109658159.032 7        50.300    20867266.582    85448027.099 8
        40.900
  22296649.133   117169655.487 7        47.200    22296657.313    91301143.637 8
        36.100
  22364761.789   117527705.702 6        45.900    22364769.660    91580107.834 8
        35.200
  25096062.039   131880642.654 4        37.200    25096070.586   102764136.643 5
        16.900
  25072255.289   131755570.373 4        38.800    25072263.785   102666710.441 6
        21.700
  22163287.141   116468857.229 7        50.300    22163292.336    90754971.624 8
        36.200
  24725316.664   129932341.885 5        42.000    24725321.461   101245973.104 6
        23.500
  20861995.438   109630621.078 7        50.700    20861997.992    85426507.217 9
        41.300
  25370695.180   133323876.908 4        37.100    25370702.102   103888793.617 5
        16.300
  23734158.656   124723712.687 6        45.400    23734163.324    97187477.158 7
        29.400
  23645341.680   124257141.115 6        43.500    23645348.199    96823783.864 7
        27.000
  20760818.297   111173564.147 8        50.600    20760822.254    86468185.573 9
        45.100
  19325780.367   103308250.741 7        45.300    19325784.777    80350281.502 9
        48.100
  22542176.203   120289760.955 7        45.600    22542181.090    93558481.344 8
        35.500
  22636011.500   120875165.453 4        38.100    22636015.680    94013971.267 8
        38.500
  22582747.242   120378765.709 4        38.300    22582756.027    93627972.886 7
        32.600
  24440272.781   130601316.662 1        32.300    24440283.039   101578881.513 7
        33.000
  22607520.648   120934827.402 7        46.900    22607524.055    94060512.150 8
        37.800
  19810384.930   105934949.489 6        44.500    19810389.879    82393960.545 9
        46.700
  21000346.727   112377144.934 8        50.400    21000352.070    87404451.100 9
        45.900
 15 11 13 14 20  0.0000000  0 22G01G02G03G06G09G11G12G17G19G23G25G31
                                G32R04R05R06R13R14R15R19R20R21
  23048977.492   121123168.088 6        45.300    23048987.340    94381732.423 7
        30.000
  25832490.078   135750651.331 5        39.300    25832496.090   105779755.157 5
        17.800
  20876899.063   109708811.799 7        49.300    20876905.715    85487496.774 8
        41.000
  22280485.945   117084716.817 7        48.000    22280493.492    91234957.700 8
        34.800
  22346426.016   117431353.659 6        44.900    22346433.883    91505028.385 8
        34.600
  25118917.289   132000737.511 5        40.300    25118923.691   102857716.993 6
        19.300
  25078962.156   131790815.272 5        39.900    25078971.359   102694173.871 6
        22.000
  22173631.148   116523216.232 7        47.300    22173636.008    90797329.227 8
        36.700
  24747071.141   130046663.250 5        41.600    24747077.988   101335054.516 6
        23.500
  20855614.086   109597088.231 7        49.500    20855616.609    85400377.755 8
        40.900
  25367626.711   133307754.407 4        37.500    25367634.840   103876230.672 5
        16.300
  23740953.188   124759422.572 6        43.500    23740958.539    97215303.061 7
        27.800
  23663812.250   124354203.909 6        43.900    23663819.012    96899417.138 7
        27.000
  20776737.273   111258809.114 8        51.000    20776741.730    86534487.185 9
        44.400
  19322660.039   103291572.567 7        46.100    19322665.102    80337309.608 9
        48.200
  22522767.086   120186189.125 7        45.300    22522772.035    93477925.614 8
        35.600
  22640331.711   120898235.745 4        38.700    22640336.645    94031914.827 8
        38.900
  22566701.797   120293234.332 5        40.300    22566710.570    93561448.533 7
        32.200
  24416548.602   130474537.658 2        33.600    24416556.734   101480275.764 7
        31.400
  22632714.000   121069597.654 7        45.100    22632718.637    94165333.327 8
        38.300
  19818713.844   105979492.370 7        45.700    19818719.449    82428604.984 9
        46.800
  20985739.414   112298981.553 8        49.100    20985745.121    87343657.410 9
        45.700
 15 11 13 14 20 30.0000000  0 22G01G02G03G06G09G11G12G17G19G23G25G31
                                G32R04R05R06R13R14R15R19R20R21
  23068214.430   121224259.258 6        44.900    23068224.363    94460504.668 7
        29.100
  25812745.578   135646897.533 4        37.100    25812752.512   105698908.124 5
        13.900
  20886598.883   109759785.578 7        49.400    20886605.508    85527216.594 8
        40.900
  22264376.859   117000065.295 7        47.200    22264384.859    91168995.521 8
        34.800
  22328148.148   117335302.698 6        45.400    22328156.000    91430183.553 8
        35.200
  25141772.047   132120845.399 4        38.400    25141779.492   102951307.352 5
        16.900
  25085770.039   131826590.335 5        39.900    25085779.074   102722050.477 6
        21.100
  22184071.820   116578080.554 7        47.500    22184076.344    90840080.612 8
        36.300
  24768832.141   130161017.024 5        41.400    24768835.965   101424161.225 6
        21.800
  20849327.055   109564049.335 7        50.500    20849329.277    85374633.181 8
        40.400
  25364666.867   133292197.301 4        38.600    25364676.223   103864108.257 5
        16.900
  23747855.727   124795696.654 6        44.100    23747861.141    97243568.571 7
        28.200
  23682297.813   124451346.041 6        44.500    23682304.598    96975112.231 7
        26.900
  20792706.055   111344319.089 8        50.400    20792709.332    86600994.886 9
        45.500
  19319635.891   103275402.270 7        46.200    19319639.938    80324732.723 9
        47.800
  22503397.578   120082828.326 7        45.700    22503402.168    93397534.015 8
        35.400
  22644801.938   120922106.982 4        38.600    22644806.699    94050481.358 8
        38.800
  22550759.516   120208256.995 5        40.100    22550768.605    93495355.108 8
        33.100
  24392828.078   130347780.798 3        36.100    24392837.262   101381687.106 7
        31.800
  22657949.805   121204589.650 6        44.900    22657954.254    94270326.968 8
        39.200
  19827193.531   106024827.812 7        45.600    19827198.047    82463865.869 9
        46.800
  20971254.234   112221464.703 8        49.100    20971259.469    87283366.589 9
        46.300
 15 11 13 14 21  0.0000000  0 22G01G02G03G06G09G11G12G17G19G23G25G31
                                G32R04R05R06R13R14R15R19R20R21
  23087493.547   121325568.681 6        44.500    23087502.895    94539446.989 7
        31.000
  25792999.922   135543129.177 5        40.800    25793004.813   105618049.739 6
        19.300
  20896359.844   109811079.527 7        51.200    20896366.266    85567185.889 9
        41.200
  22248323.477   116915703.137 7        47.200    22248330.711    91103258.831 8
        34.800
  22309928.016   117239554.867 6        44.700    22309935.430    91355574.905 8
        35.400
  25164628.609   132240964.023 2        34.600    25164636.102   103044906.287 5
        16.900
  25092679.617   131862893.967 5        40.200    25092687.660   102750338.985 6
        21.100
  22194607.547   116633448.480 7        47.700    22194612.500    90883224.406 8
        35.600
  24790598.398   130275400.449 5        39.800    24790604.219   101513291.048 6
        22.200
  20843133.836   109531504.885 7        49.900    20843136.563    85349273.901 9
        41.100
  25361813.883   133277205.897 4        38.800    25361822.797   103852426.589 5
        17.400
  23754865.961   124832533.902 6        43.200    23754871.684    97272272.929 7
        27.900
  23700797.586   124548566.408 6        43.200    23700804.715    97050868.293 6
        25.300
  20808723.945   111430092.113 8        49.900    20808727.352    86667707.190 9
        45.500
  19316705.375   103259739.441 7        45.700    19316709.879    80312550.540 9
        48.100
  22484066.438   119979679.322 6        44.800    22484073.035    93317307.134 8
        36.500
  22649421.570   120946778.140 4        37.400    22649426.590    94069670.043 8
        39.000
  22534924.242   120123838.084 5        40.600    22534931.598    93429696.022 7
        32.900
  24369110.055   130221048.203 2        33.700    24369118.926   101283117.513 7
        31.100
  22683226.852   121339799.511 7        46.600    22683231.422    94375490.024 8
        40.900
  19835818.977   106070954.230 7        46.100    19835823.367    82499741.963 9
        46.800
  20956890.352   112144597.976 8        50.300    20956894.488    87223581.415 9
        46.200
 15 11 13 14 21 30.0000000  0 22G01G02G03G06G09G11G12G17G19G23G25G31
                                G32R04R05R06R13R14R15R19R20R21
  23106813.922   121427094.803 7        47.100    23106822.648    94618558.182 7
        30.800
  25773250.336   135439347.860 5        40.700    25773257.109   105537181.223 6
        19.900
  20906181.508   109862692.733 7        50.300    20906188.379    85607403.964 8
        41.000
  22232324.930   116831632.671 7        47.700    22232333.027    91037749.436 8
        35.000
  22291766.578   117144112.108 6        45.800    22291773.430    91281203.987 8
        34.700
  25187490.344   132361091.766 5        39.100    25187496.813   103138512.158 5
        17.800
  25099688.148   131899724.643 5        41.300    25099696.258   102779038.146 6
        22.300
  22205239.227   116689318.086 6        46.700    22205244.090    90926759.112 8
        35.700
  24812370.492   130389811.095 5        39.400    24812376.953   101602442.037 6
        22.900
  20837035.180   109499455.452 7        50.200    20837037.281    85324300.350 8
        40.900
  25359069.492   133262780.878 5        39.400    25359078.387   103841186.279 6
        18.600
  23761982.672   124869932.974 6        43.200    23761988.008    97301415.077 7
        27.900
  23719312.711   124645864.034 6        42.500    23719320.266    97126684.565 6
        25.700
  20824789.992   111516125.795 8        50.100    20824793.805    86734622.233 9
        45.500
  19313870.164   103244583.624 7        45.600    19313874.227    80300762.705 9
        47.700
  22464777.305   119876743.732 7        46.700    22464782.285    93237246.257 8
        36.800
  22654191.547   120972248.061 4        37.900    22654196.262    94089480.007 8
        38.600
  22519192.211   120039981.721 5        40.600    22519200.324    93364474.446 8
        33.400
  24345399.016   130094345.176 2        33.800    24345408.359   101184570.726 7
        31.000
  22708542.984   121475223.930 7        47.000    22708548.746    94480819.976 9
        41.500
  19844592.828   106117870.023 7        45.500    19844597.602    82536232.017 9
        47.700
  20942647.711   112068384.871 8        50.200    20942652.074    87164304.624 9
        47.000
 15 11 13 14 22  0.0000000  0 22G01G02G03G06G09G11G12G17G19G23G25G31
                                G32R04R05R06R13R14R15R19R20R21
  23126174.359   121528835.530 6        46.600    23126183.395    94697836.626 7
        30.800
  25753499.781   135335554.675 4        38.400    25753504.961   105456303.485 5
        17.800
  20916063.977   109914623.899 7        49.800    20916070.359    85647869.794 9
        41.200
  22216382.945   116747855.768 7        47.900    22216390.703    90972468.784 8
        35.700
  22273663.000   117048976.029 6        45.600    22273669.973    91207072.015 8
        35.800
  25210349.664   132481226.256 2        34.400    25210357.844   103232123.364 5
        15.600
  25106797.055   131937079.993 5        40.500    25106805.738   102808146.080 6
        20.600
  22215965.984   116745686.801 7        47.300    22215971.625    90970682.729 8
        36.100
  24834146.234   130504246.062 5        39.200    24834152.727   101691611.973 6
        22.300
  20831030.414   109467901.065 7        50.000    20831033.176    85299712.547 8
        40.800
  25356431.852   133248922.523 4        38.000    25356440.941   103830387.588 5
        17.800
  23769206.344   124907892.368 6        43.600    23769211.867    97330993.825 7
        27.300
  23737842.773   124743237.342 6        42.700    23737849.570    97202559.816 6
        24.800
  20840904.055   111602417.796 8        50.800    20840908.129    86801738.214 9
        45.000
  19311129.602   103229933.871 7        45.300    19311134.047    80289368.461 9
        48.300
  22445527.203   119774022.178 7        46.800    22445532.566    93157351.866 8
        36.700
  22659111.328   120998515.435 4        37.700    22659115.680    94109910.204 8
        38.900
  22503567.883   119956691.329 5        40.000    22503575.734    93299693.074 8
        33.500
  24321694.719   129967674.582 4        37.900    24321702.508   101086049.296 7
        29.000
  22733898.234   121610858.156 7        47.200    22733902.988    94586313.068 8
        40.200
  19853512.633   106165572.805 6        44.700    19853518.414    82573334.165 9
        47.800
  20928527.844   111992828.559 8        50.400    20928532.488    87105538.650 9
        46.000
 15 11 13 14 22 30.0000000  0 22G01G02G03G06G09G11G12G17G19G23G25G31
                                G32R04R05R06R13R14R15R19R20R21
  23145575.047   121630789.761 6        45.800    23145584.688    94777281.410 7
        31.800
  25733746.055   135231751.514 5        40.000    25733751.465   105375417.940 6
        18.600
  20926005.891   109966872.494 7        49.900    20926012.777    85688582.977 9
        41.400
  22200497.336   116664375.093 7        47.800    22200505.254    90907418.957 8
        36.400
  22255617.406   116954148.966 7        47.600    22255624.766    91133180.829 8
        34.900
  25233212.125   132601365.585 4        37.500    25233219.676   103325738.364 5
        17.400
  25114005.711   131974958.856 5        40.200    25114013.660   102837661.977 6
        21.700
  22226787.414   116802553.137 6        46.700    22226792.672    91014994.109 8
        36.800
  24855927.430   130618703.044 4        38.700    24855934.750   101780799.033 6
        22.900
  20825120.273   109436842.541 7        50.800    20825122.703    85275511.133 9
        41.500
  25353903.578   133235631.799 5        40.500    25353911.840   103820031.195 6
        19.000
  23776536.094   124946411.124 6        42.200    23776541.367    97361008.430 7
        27.400
  23756386.555   124840685.714 6        42.300    23756393.430    97278493.535 6
        24.400
  20857066.344   111688966.417 8        50.300    20857070.551    86869053.766 9
        45.600
  19308483.633   103215790.018 7        45.400    19308488.316    80278367.709 9
        48.300
  22426318.164   119671515.842 7        47.400    22426322.059    93077624.838 8
        35.900
  22664178.820   121025579.601 5        39.200    22664184.395    94130960.122 8
        38.900
  22488049.086   119873972.081 5        40.000    22488057.613    93235355.955 8
        34.100
  24297998.461   129841041.997 3        36.200    24298005.859   100987557.401 7
        27.500
  22759292.156   121746699.328 7        46.000    22759297.500    94691967.176 8
        40.800
  19862579.922   106214061.453 6        44.600    19862586.195    82611047.548 9
        47.900
  20914532.500   111917933.171 8        51.200    20914536.348    87047286.720 9
        46.300
 15 11 13 14 23  0.0000000  0 22G01G02G03G06G09G11G12G17G19G23G25G31
                                G32R04R05R06R13R14R15R19R20R21
  23165016.836   121732955.722 6        45.600    23165026.195    94856891.163 7
        31.900
  25713991.203   135127939.866 5        39.700    25713997.094   105294525.907 6
        19.000
  20936009.383   110019437.526 7        50.100    20936015.875    85729542.732 8
        40.900
  22184668.523   116581192.827 7        48.400    22184676.355    90842601.675 8
        36.600
  22237631.484   116859632.802 6        46.400    22237640.113    91059531.906 8
        36.400
  25256074.766   132721507.921 4        37.700    25256081.137   103419355.659 5
        16.300
  25121313.055   132013359.070 5        39.800    25121321.566   102867584.040 6
        20.100
  22237702.914   116859914.392 7        48.000    22237708.852    91059691.160 8
        36.900
  24877710.914   130733178.977 4        38.400    24877718.301   101870000.900 6
        23.600
  20819304.742   109406280.319 7        50.000    20819306.813    85251696.436 8
        40.800
  25351481.602   133222909.173 4        38.600    25351490.207   103810117.455 6
        18.300
  23783972.695   124985487.883 6        42.700    23783977.570    97391457.861 6
        26.000
  23774944.742   124938208.022 5        41.200    23774951.215    97354484.886 6
        22.900
  20873276.875   111775769.821 8        50.400    20873280.684    86936567.475 9
        46.000
  19305932.469   103202151.957 7        46.000    19305937.023    80267760.336 9
        48.500
  22407148.813   119569226.002 7        47.800    22407152.871    92998066.194 8
        36.700
  22669397.438   121053439.197 5        39.100    22669401.055    94152628.710 8
        39.100
  22472638.891   119791827.542 5        40.900    22472647.418    93171465.813 8
        34.200
  24274307.539   129714452.166 4        37.900    24274317.281   100889098.615 7
        32.200
  22784724.469   121882743.436 7        45.500    22784729.047    94797779.109 8
        39.400
  19871794.586   106263334.054 7        45.600    19871800.363    82649370.654 9
        47.500
  20900660.461   111843701.987 8        51.300    20900664.293    86989551.384 9
        44.900
 15 11 13 14 23 30.0000000  0 22G01G02G03G06G09G11G12G17G19G23G25G31
                                G32R04R05R06R13R14R15R19R20R21
  23184498.773   121835331.855 6        45.400    23184508.453    94936664.683 7
        32.300
  25694235.266   135024121.036 5        39.900    25694241.398   105213628.207 6
        18.600
  20946072.125   110072318.165 7        48.200    20946078.684    85770748.419 8
        40.200
  22168896.516   116498311.443 7        48.000    22168903.773    90778018.823 8
        36.200
  22219705.406   116765429.590 6        46.300    22219712.816    90986126.845 8
        36.000
  25278935.906   132841650.994 4        37.100    25278944.797   103512973.590 5
        17.400
  25128719.266   132052279.316 5        40.600    25128727.641   102897911.534 6
        22.200
  22248712.367   116917768.646 7        47.300    22248718.172    91104772.340 8
        36.500
  24899499.688   130847671.992 5        41.400    24899506.496   101959216.029 6
        24.800
  20813583.398   109376215.082 7        49.100    20813585.520    85228269.002 8
        40.700
  25349168.648   133210755.230 5        39.900    25349176.965   103800646.860 5
        17.800
  23791513.891   125025121.653 6        43.000    23791519.598    97422341.324 6
        25.300
  23793516.156   125035803.300 5        41.100    23793522.797    97430533.087 6
        22.800
  20889533.492   111862825.971 8        49.400    20889538.191    87004277.796 9
        46.100
  19303475.891   103189018.977 7        45.600    19303480.031    80257545.794 9
        48.000
  22388019.961   119467154.063 7        47.300    22388024.473    92918677.033 8
        36.200
  22674761.266   121082093.258 4        38.400    22674767.066    94174915.201 8
        39.000
  22457337.844   119710261.871 5        40.900    22457345.820    93108025.919 8
        34.500
  24250626.531   129587907.573 3        37.000    24250636.063   100790675.117 6
        25.300
  22810194.453   122018986.679 7        45.200    22810198.789    94903745.870 8
        39.300
  19881154.688   106313388.847 7        45.500    19881160.504    82688302.151 9
        47.300
  20886913.344   111770138.499 8        49.600    20886917.023    86932335.372 9
        46.100
 15 11 13 14 24  0.0000000  0 22G01G02G03G06G09G11G12G17G19G23G25G31
                                G32R04R05R06R13R14R15R19R20R21
  23204019.969   121937916.211 6        45.700    23204029.555    95016600.451 7
        31.900
  25674478.789   134920296.604 5        40.300    25674483.426   105132726.211 6
        18.600
  20956194.586   110125513.150 7        50.100    20956201.098    85812199.038 8
        40.000
  22153182.031   116415732.757 7        47.300    22153190.180    90713671.859 8
        35.700
  22201838.766   116671540.883 6        45.900    22201845.914    90912966.860 8
        36.000
  25301799.711   132961792.842 4        38.300    25301806.637   103606590.505 5
        16.900
  25136223.461   132091717.361 5        40.500    25136232.145   102928642.390 6
        22.000
  22259815.398   116976113.648 7        48.200    22259820.637    91150235.950 8
        37.800
  24921289.219   130962178.952 5        41.600    24921296.895   102048442.028 6
        24.800
  20807956.789   109346646.761 7        50.000    20807958.859    85205228.775 8
        40.600
  25346965.031   133199170.246 5        40.300    25346972.934   103791619.591 5
        17.800
  23799162.250   125065310.616 6        42.200    23799167.488    97453657.399 6
        25.300
  23812102.367   125133470.038 6        42.400    23812108.059    97506637.021 6
        22.200
  20905837.625   111950132.610 8        50.400    20905841.398    87072182.926 9
        45.700
  19301113.164   103176390.381 7        45.300    19301117.410    80247723.573 9
        47.500
  22368932.648   119365301.038 7        46.500    22368937.160    92839458.145 8
        36.200
  22680276.703   121111539.968 4        38.800    22680281.527    94197818.210 8
        38.800
  22442145.867   119629278.855 5        40.000    22442153.570    93045039.212 8
        35.000
  24226953.727   129461413.049 3        36.100    24226965.516   100692290.528 8
        34.100
  22835699.938   122155425.103 6        44.600    22835704.297    95009864.482 8
        40.400
  19890661.570   106364223.517 7        45.500    19890666.918    82727840.218 9
        47.800
  20873291.164   111697246.001 8        50.500    20873295.891    86875641.247 9
        45.300
 15 11 13 14 24 30.0000000  0 22G01G02G03G06G09G11G12G17G19G23G25G31
                                G32R04R05R06R13R14R15R19R20R21
  23223580.367   122040707.418 6        45.900    23223589.473    95096697.410 7
        32.500
  25654719.313   134816468.229 4        38.100    25654725.395   105051821.105 5
        16.900
  20966376.883   110179021.835 7        49.900    20966383.527    85853894.106 8
        40.500
  22137525.344   116333459.379 6        46.400    22137533.543    90649562.775 8
        35.000
  22184032.703   116577968.990 6        45.800    22184039.504    90840053.740 8
        36.500
  25324660.586   133081931.630 3        36.800    25324669.766   103700205.007 5
        16.900
  25143826.336   132131671.901 5        39.700    25143834.449   102959775.728 6
        21.800
  22271010.133   117034947.623 7        47.600    22271016.629    91196080.573 8
        36.800
  24943081.430   131076696.693 6        42.400    24943088.398   102137676.486 6
        25.900
  20802424.617   109317576.275 7        51.200    20802427.293    85182576.462 9
        41.100
  25344869.453   133188154.927 5        40.700    25344876.813   103783036.230 5
        17.400
  23806915.250   125106053.839 6        43.000    23806920.738    97485405.362 6
        25.600
  23830700.094   125231207.553 5        41.800    23830706.965    97582796.078 6
        22.500
  20922187.672   112037687.607 8        50.700    20922191.953    87140281.238 9
        45.800
  19298844.297   103164266.006 7        45.400    19298849.551    80238293.506 9
        48.000
  22349886.273   119263667.998 7        46.600    22349891.855    92760410.387 8
        36.800
  22685937.750   121141778.590 4        38.200    22685944.184    94221337.142 8
        38.700
  22427062.883   119548882.735 5        40.800    22427071.215    92982508.998 8
        34.400
  24203294.414   129334973.728 5        39.600    24203303.844   100593948.919 7
        31.900
  22861240.563   122292055.215 6        44.200    22861245.527    95116132.193 8
        39.400
  19900313.414   106415836.582 7        45.700    19900318.441    82767983.708 9
        47.700
  20859795.383   111625028.214 8        50.200    20859800.125    86819471.878 9
        45.300
 15 11 13 14 25  0.0000000  0 22G01G02G03G06G09G11G12G17G19G23G25G31
                                G32R04R05R06R13R14R15R19R20R21
  23243180.727   122143703.736 6        46.200    23243189.281    95176954.197 7
        31.800
  25634961.563   134712637.179 5        39.500    25634967.883   104970913.973 5
        17.800
  20976618.867   110232843.259 7        49.800    20976625.871    85895832.872 8
        40.300
  22121928.500   116251493.505 6        47.000    22121936.133    90585693.308 8
        35.600
  22166287.703   116484715.687 6        46.300    22166294.742    90767388.869 8
        36.600
  25347522.391   133202065.049 4        38.400    25347529.473   103793815.401 5
        17.800
  25151527.344   132172140.241 5        40.200    25151535.219   102991309.433 6
        21.300
  22282299.227   117094268.104 7        47.900    22282304.820    91242304.280 8
        37.600
  24964874.664   131191223.367 5        40.300    24964881.438   102226917.871 6
        23.000
  20796987.789   109289003.919 7        49.600    20796989.691    85160312.319 8
        40.900
  25342880.305   133177709.737 4        38.200    25342889.273   103774897.107 5
        16.300
  23814772.734   125147349.698 6        42.200    23814779.129    97517583.961 6
        25.300
  23849312.156   125329014.785 6        42.400    23849318.859    97659009.468 6
        21.800
  20938585.313   112125489.299 8        50.900    20938588.605    87208571.406 9
        46.200
  19296671.094   103152645.374 7        45.600    19296675.551    80229255.244 9
        48.000
  22330881.664   119162256.391 7        46.000    22330886.199    92681534.802 8
        35.400
  22691749.570   121172807.688 3        36.500    22691755.121    94245470.880 8
        39.400
  22412092.805   119469077.924 6        41.400    22412099.770    92920438.676 8
        35.000
  24179642.938   129208593.743 5        39.500    24179653.500   100495653.520 7
        30.500
  22886816.422   122428873.269 6        43.700    22886823.840    95222546.049 8
        40.200
  19910110.789   106468225.885 7        46.400    19910115.621    82808730.937 9
        47.400
  20846426.188   111553488.508 8        49.300    20846431.145    86763829.928 9
        44.900
 15 11 13 14 25 30.0000000  0 22G01G02G03G06G09G11G12G17G19G23G25G31
                                G32R04R05R06R13R14R15R19R20R21
  23262818.820   122246903.426 6        45.400    23262827.664    95257369.459 7
        30.500
  25615202.703   134608805.010 5        39.600    25615209.156   104890005.928 6
        19.000
  20986920.227   110286976.353 7        50.300    20986926.402    85938014.495 8
        40.500
  22106389.641   116169837.309 7        48.400    22106397.531    90522065.148 8
        35.900
  22148602.391   116391782.777 6        46.900    22148610.484    90694973.680 8
        36.500
  25370380.836   133322191.439 4        38.300    25370388.773   103887420.226 5
        17.400
  25159325.813   132213121.507 4        38.700    25159334.371   103023242.927 6
        20.400
  22293680.070   117154072.837 7        48.100    22293685.293    91288905.325 8
        37.100
  24986669.984   131305756.299 5        41.800    24986676.664   102316164.169 6
        22.800
  20791645.320   109260929.836 7        50.500    20791647.488    85138436.417 8
        40.900
  25341001.414   133167834.906 5        39.600    25341010.785   103767202.415 5
        17.400
  23822736.992   125189196.835 6        42.700    23822742.223    97550192.146 6
        24.500
  23867937.438   125426890.490 5        41.800    23867944.180    97735276.215 6
        22.600
  20955026.094   112213535.351 8        49.900    20955030.516    87277051.660 9
        45.800
  19294591.969   103141527.745 7        46.300    19294595.914    80220608.204 9
        48.100
  22311919.703   119061066.991 7        47.400    22311924.055    92602832.078 8
        36.400
  22697708.523   121204625.631 4        38.600    22697713.922    94270218.178 8
        40.000
  22397232.070   119389868.104 5        41.000    22397240.781    92858831.139 8
        35.000
  24156005.813   129082276.905 5        39.500    24156014.871   100397407.142 7
        30.400
  22912429.219   122565875.423 7        45.300    22912434.379    95329103.066 8
        37.600
  19920053.016   106521389.630 7        45.900    19920057.879    82850080.489 9
        47.300
  20833184.500   111482630.136 8        49.200    20833189.637    86708717.897 9
        44.800
 15 11 13 14 26  0.0000000  0 22G01G02G03G06G09G11G12G17G19G23G25G31
                                G32R04R05R06R13R14R15R19R20R21
  23282494.891   122350304.813 6        45.000    23282504.531    95337941.883 7
        30.600
  25595443.797   134504973.383 4        38.400    25595450.316   104809098.299 6
        18.300
  20997280.953   110341420.136 7        51.000    20997286.664    85980438.220 8
        40.700
  22090910.227   116088492.997 7        48.400    22090917.840    90458679.999 8
        35.700
  22130979.477   116299172.196 6        45.800    22130987.246    90622809.640 8
        37.100
  25393239.023   133442308.538 4        38.600    25393246.813   103981017.845 6
        19.300
  25167221.273   132254613.612 5        40.300    25167228.777   103055574.457 6
        21.100
  22305152.156   117214359.825 7        47.200    22305157.605    91335882.162 8
        37.000
  25008464.930   131420292.484 5        39.800    25008473.418   102405412.940 6
        22.200
  20786397.789   109233354.440 7        50.200    20786400.066    85116949.119 9
        41.400
  25339231.469   133158530.975 5        40.000    25339239.816   103759952.745 6
        18.300
  23830804.359   125231593.819 6        43.600    23830810.391    97583228.747 6
        24.300
  23886575.344   125524833.613 5        41.200    23886582.285    97811595.464 6
        22.900
  20971512.727   112301823.704 8        49.700    20971517.387    87345720.357 9
        45.100
  19292606.016   103130912.365 7        45.100    19292609.906    80212351.798 9
        47.700
  22292998.047   118960100.525 7        47.800    22293002.133    92524302.694 8
        36.300
  22703814.820   121237231.255 3        36.900    22703820.055    94295578.090 8
        39.800
  22382485.039   119311256.725 6        41.300    22382493.578    92797689.043 8
        34.900
  24132379.883   128956027.071 5        40.400    24132388.348   100299212.893 7
        30.800
  22938073.234   122703057.684 6        44.700    22938079.074    95435800.189 8
        38.100
  19930138.750   106575325.341 7        46.100    19930143.449    82892030.485 9
        47.400
  20820071.852   111412456.406 8        50.800    20820075.645    86654138.357 9
        44.900
 15 11 13 14 26 30.0000000  0 22G01G02G03G06G09G11G12G17G19G23G25G31
                                G32R04R05R06R13R14R15R19R20R21
  23302209.875   122453906.349 6        45.200    23302219.301    95418670.282 7
        30.400
  25575686.734   134401143.797 5        40.200    25575692.305   104728192.169 6
        18.300
  21007699.938   110396173.892 7        50.900    21007706.195    86023103.482 8
        40.800
  22075490.242   116007463.128 7        48.500    22075499.016    90395539.868 8
        37.100
  22113418.414   116206885.932 7        47.200    22113425.461    90550898.336 8
        37.300
  25416093.547   133562414.376 4        37.200    25416101.770   104074606.736 5
        15.600
  25175213.414   132296614.466 5        39.600    25175221.828   103088302.426 6
        20.100
  22316715.336   117275126.593 7        47.500    22316720.785    91383232.846 8
        36.700
  25030261.008   131534829.713 5        40.400    25030267.301   102494662.546 6
        20.100
  20781245.359   109206278.102 7        50.500    20781247.570    85095850.692 9
        41.300
  25337568.750   133149798.319 5        39.200    25337577.012   103753148.003 5
        17.800
  23838975.891   125274539.249 6        42.800    23838982.336    97616692.750 6
        24.700
  23905226.523   125622843.351 6        42.100    23905233.395    97887966.637 6
        23.500
  20988045.742   112390352.768 8        50.500    20988049.188    87414576.263 9
        45.400
  19290713.688   103120798.900 7        45.800    19290718.352    80204485.785 9
        48.500
  22274119.188   118859358.723 7        46.700    22274123.500    92445948.085 8
        36.300
  22710067.484   121270623.184 3        36.500    22710073.488    94321549.596 8
        40.100
  22367849.586   119233248.048 6        41.500    22367858.938    92737015.697 8
        35.200
  24108765.695   128829849.923 5        39.700    24108774.535   100201075.189 7
        30.100
  22963751.555   122840416.548 6        44.100    22963756.973    95542634.753 8
        38.900
  19940369.828   106630031.417 7        46.000    19940374.266    82934579.642 9
        47.800
  20807086.422   111342970.902 8        50.800    20807090.543    86600094.097 9
        43.600
 15 11 13 14 27  0.0000000  0 22G01G02G03G06G09G11G12G17G19G23G25G31
                                G32R04R05R06R13R14R15R19R20R21
  23321962.570   122557706.357 6        45.500    23321972.102    95499553.323 7
        31.400
  25555928.242   134297317.773 4        38.800    25555935.152   104647288.791 6
        18.600
  21018178.313   110451236.554 7        51.300    21018183.910    86066009.441 8
        40.900
  22060131.609   115926749.812 7        48.100    22060139.746    90332646.414 8
        37.100
  22095918.258   116114925.853 6        46.700    22095925.516    90479241.193 8
        36.900
  25438947.297   133682506.949 4        37.400    25438955.090   104168185.199 6
        19.000
  25183302.719   132339122.168 5        40.200    25183310.961   103121425.364 6
        19.000
  22328369.648   117336370.813 7        48.400    22328376.113    91430955.578 8
        36.300
  25052056.859   131649364.982 5        40.000    25052061.945   102583910.679 6
        20.400
  20776187.703   109179701.247 7        50.700    20776190.250    85075141.477 9
        41.400
  25336016.836   133141637.247 5        39.900    25336024.090   103746788.786 6
        18.300
  23847253.289   125318032.013 6        44.100    23847258.598    97650583.223 6
        24.700
  23923890.156   125720918.515 6        42.400    23923896.164    97964388.802 6
        22.600
  21004622.836   112479120.224 8        50.300    21004626.035    87483617.601 9
        45.200
  19288915.492   103111186.989 7        45.200    19288919.777    80197009.854 9
        48.000
  22255280.703   118758842.554 7        46.000    22255286.094    92367768.927 8
        36.500
  22716467.289   121304799.761 4        37.100    22716472.695    94348131.403 8
        40.000
  22353330.133   119155846.222 6        41.500    22353337.719    92676814.358 8
        34.300
  24085167.453   128703749.758 5        39.200    24085177.273   100102997.305 7
        32.800
  22989462.250   122977948.284 7        45.700    22989466.199    95649603.723 8
        37.200
  19950742.578   106685505.723 7        45.700    19950748.254    82977726.304 9
        47.400
  20794230.141   111274176.985 8        50.900    20794234.715    86546587.745 9
        44.200
 15 11 13 14 27 30.0000000  0 22G01G02G03G06G09G11G12G17G19G23G25G31
                                G32R04R05R06R13R14R15R19R20R21
  23341752.797   122661703.253 6        44.300    23341762.129    95580589.786 7
        29.100
  25536171.570   134193497.114 5        39.300    25536178.066   104566389.541 6
        18.600
  21028714.742   110506607.371 7        50.300    21028721.258    86109155.523 8
        40.900
  22044832.875   115846355.483 7        48.600    22044841.277    90270001.520 8
        37.300
  22078481.320   116023293.997 6        46.400    22078488.242    90407839.804 8
        36.300
  25461797.359   133802584.450 4        37.100    25461804.785   104261751.942 5
        16.900
  25191488.500   132382134.471 4        38.200    25191496.441   103154941.410 5
        17.800
  22340114.563   117398090.566 6        47.000    22340120.098    91479048.850 8
        36.300
  25073850.195   131763895.990 5        39.900    25073857.441   102673155.431 6
        21.300
  20771225.383   109153624.242 7        50.300    20771228.016    85054821.754 9
        41.600
  25334573.086   133134048.225 5        39.400    25334579.723   103740875.262 6
        19.300
  23855633.258   125362070.507 6        43.700    23855638.371    97684898.937 6
        25.700
  23942565.063   125819058.150 5        41.700    23942571.645    98040861.189 6
        24.800
  21021244.016   112568124.547 8        49.800    21021247.480    87552843.162 9
        45.300
  19287210.992   103102076.131 6        44.900    19287215.844    80189923.641 9
        48.300
  22236487.305   118658553.322 7        47.600    22236491.949    92289766.288 8
        36.000
  22723013.188   121339759.697 3        36.700    22723020.438    94375322.454 8
        39.700
  22338925.188   119079055.318 6        42.000    22338932.496    92617088.159 8
        34.800
  24061584.430   128577730.002 4        37.400    24061594.570   100004982.013 8
        33.700
  23015204.141   123115649.092 6        44.700    23015209.340    95756704.137 8
        38.600
  19961259.750   106741746.025 7        45.500    19961265.902    83021468.738 9
        47.100
  20781504.828   111206077.958 8        51.400    20781508.027    86493621.861 9
        44.200
 15 11 13 14 28  0.0000000  0 22G01G02G03G06G09G11G12G17G19G23G25G31
                                G32R04R05R06R13R14R15R19R20R21
  23361579.477   122765895.306 6        44.300    23361589.172    95661778.334 7
        29.200
  25516417.219   134089683.450 5        39.200    25516423.879   104485495.845 6
        18.300
  21039309.875   110562285.367 7        49.600    21039316.734    86152540.967 8
        40.000
  22029595.273   115766282.367 7        48.100    22029603.844    90207606.930 8
        37.400
  22061107.039   115931992.096 7        47.800    22061114.086    90336695.549 8
        36.400
  25484644.453   133922644.963 4        37.600    25484652.113   104355305.454 5
        16.900
  25199768.594   132425650.066 4        37.300    25199777.133   103188849.628 5
        17.800
  22351949.664   117460283.574 7        47.900    22351954.418    91527510.886 8
        35.900
  25095644.773   131878420.018 4        38.800    25095650.590   102762394.756 6
        20.100
  20766358.633   109128047.650 7        51.300    20766360.758    85034891.961 9
        41.500
  25333236.461   133127031.611 4        38.200    25333245.254   103735407.783 6
        18.600
  23864117.109   125406653.227 6        42.800    23864122.516    97719638.704 6
        22.600
  23961252.547   125917261.252 5        40.900    23961259.242    98117383.034 6
        24.700
  21037908.031   112657363.582 8        49.700    21037912.598    87622251.280 9
        45.300
  19285600.953   103093465.875 6        44.300    19285605.004    80183226.801 9
        48.200
  22217736.383   118558491.852 7        47.500    22217741.488    92211940.780 8
        37.000
  22729707.719   121375501.240 3        36.900    22729713.363    94403121.435 8
        39.100
  22324634.625   119002878.605 6        42.600    22324641.734    92557839.657 8
        33.700
  24038018.258   128451795.584 4        37.900    24038027.512    99907033.143 8
        35.100
  23040977.031   123253515.265 6        42.400    23040981.027    95863933.222 8
        38.900
  19971920.539   106798750.249 7        45.900    19971925.520    83065805.330 9
        47.500
  20768909.953   111138677.117 8        51.600    20768913.609    86441199.002 9
        44.400
 15 11 13 14 28 30.0000000  0 22G01G02G03G06G09G11G12G17G19G23G25G31
                                G32R04R05R06R13R14R15R19R20R21
  23381443.398   122870280.744 6        44.600    23381453.645    95743117.546 7
        28.500
  25496663.859   133985878.476 5        39.100    25496670.336   104404608.960 6
        18.300
  21049963.711   110618269.414 7        50.200    21049970.000    86196164.890 8
        40.600
  22014419.578   115686532.635 7        48.000    22014427.758    90145464.321 8
        37.200
  22043796.039   115841021.917 6        47.000    22043803.758    90265809.774 8
        37.700
  25507487.609   134042686.224 5        40.400    25507494.867   104448843.909 6
        19.000
  25208145.375   132469666.491 4        37.500    25208153.176   103223148.039 5
        15.600
  22363874.266   117522947.174 7        48.700    22363879.891    91576339.638 8
        36.700
  25117435.773   131992934.468 5        39.600    25117441.484   102851626.639 6
        19.900
  20761586.688   109102971.254 7        51.400    20761588.961    85015351.931 9
        41.400
  25332011.328   133120587.551 5        40.200    25332018.887   103730386.431 6
        19.900
  23872704.438   125451778.256 6        42.900    23872709.457    97754801.067 6
        22.800
  23979952.609   126015526.731 5        41.100    23979958.746    98193953.478 6
        23.900
  21054616.570   112746835.063 8        50.000    21054620.242    87691840.187 9
        45.400
  19284082.438   103085355.114 6        44.900    19284087.723    80176918.449 9
        48.200
  22199027.727   118458659.562 7        47.200    22199031.414    92134293.540 8
        36.500
  22736546.336   121412022.767 3        36.900    22736552.699    94431527.067 8
        39.100
  22310459.664   118927320.296 6        41.300    22310467.051    92499072.147 8
        33.400
  24014467.992   128325951.878 4        38.600    24014478.191    99809154.880 8
        35.800
  23066779.109   123391542.962 6        44.300    23066785.152    95971287.930 8
        40.200
  19982721.828   106856515.797 6        44.700    19982727.578    83110734.068 9
        47.600
  20756445.039   111071977.651 8        51.000    20756448.762    86389321.668 9
        44.700
 15 11 13 14 29  0.0000000  0 22G01G02G03G06G09G11G12G17G19G23G25G31
                                G32R04R05R06R13R14R15R19R20R21
  23401343.773   122974857.797 6        44.500    23401353.352    95824606.077 7
        27.700
  25476912.656   133882083.372 5        39.900    25476917.988   104323729.832 6
        18.300
  21060674.664   110674558.580 7        50.200    21060681.590    86240026.570 8
        40.600
  21999305.875   115607108.505 7        48.900    21999313.441    90083575.418 8
        36.800
  22026548.773   115750385.349 7        48.300    22026556.242    90195183.955 8
        38.700
  25530325.672   134162706.254 4        37.300    25530333.801   104542365.816 5
        15.600
  25216615.078   132514182.108 2        34.800    25216624.379   103257835.414 5
        13.900
  22375888.188   117586079.206 7        47.900    22375893.016    91625533.390 8
        36.400
  25139225.242   132107436.875 5        40.300    25139230.898   102940849.094 6
        19.600
  20756909.805   109078395.395 7        49.900    20756912.559    84996201.935 8
        41.000
  25330893.219   133114716.127 5        39.500    25330901.184   103725811.249 6
        19.900
  23881392.977   125497444.471 5        41.300    23881399.871    97790385.108 6
        22.300
  23998662.602   126113853.531 5        40.000    23998669.309    98270571.726 6
        25.300
  21071367.891   112836536.947 8        50.200    21071371.055    87761608.292 9
        45.500
  19282659.320   103077743.388 6        44.900    19282663.449    80170998.214 9
        48.500
  22180362.477   118359057.460 7        48.300    22180367.219    92056825.338 8
        37.100
  22743533.742   121449322.702 4        37.800    22743538.195    94460538.132 8
        38.900
  22296400.930   118852383.975 6        43.200    22296409.242    92440788.396 7
        32.300
  23990936.844   128200202.078 4        38.100    23990945.500    99711349.643 8
        34.900
  23092612.758   123529728.513 7        46.000    23092617.375    96078765.403 8
        39.300
  19993667.406   106915040.756 7        45.200    19993672.383    83156253.457 9
        47.300
  20744112.094   111005982.871 8        50.700    20744115.957    86337992.426 9
        45.300
 15 11 13 14 29 30.0000000  0 22G01G02G03G06G09G11G12G17G19G23G25G31
                                G32R04R05R06R13R14R15R19R20R21
  23421281.141   123079624.881 6        45.200    23421290.023    95906242.682 7
        29.200
  25457161.164   133778300.099 4        38.100    25457168.539   104242859.937 6
        18.300
  21071443.883   110731151.964 7        48.900    21071450.762    86284125.298 8
        40.900
  21984254.563   115528012.326 7        48.300    21984262.293    90021942.070 8
        37.600
  22009365.211   115660084.183 7        47.900    22009372.645    90124819.495 8
        38.400
  25553161.078   134282703.295 5        39.500    25553169.539   104635869.813 6
        18.600
  25225181.172   132559194.308 3        36.100    25225189.125   103292909.973 5
        16.300
  22387990.227   117649677.336 7        47.300    22387996.430    91675090.332 8
        36.900
  25161012.086   132221924.471 5        40.900    25161017.777   103030060.026 6
        20.400
  20752328.156   109054320.373 7        50.200    20752331.129    84977442.194 8
        41.000
  25329884.438   133109417.719 4        37.500    25329893.879   103721682.607 6
        18.300
  23890186.539   125543650.192 6        42.500    23890191.461    97826389.543 6
        22.000
  24017384.398   126212240.549 5        39.500    24017392.156    98347236.882 6
        24.300
  21088161.734   112926467.718 8        49.500    21088165.129    87831554.435 9
        44.800
  19281328.469   103070630.273 7        45.200    19281332.902    80165465.812 9
        48.500
  22161739.852   118259686.163 7        46.700    22161744.824    91979536.591 8
        37.700
  22750663.492   121487399.241 3        36.800    22750667.879    94490153.213 8
        38.000
  22282461.820   118778073.798 6        41.700    22282468.473    92382991.633 7
        33.000
  23967420.242   128074550.015 4        37.400    23967430.180    99613620.466 8
        34.400
  23118472.492   123668068.049 6        43.600    23118478.574    96186362.608 8
        39.100
  20004753.328   106974322.735 7        45.300    20004759.492    83202361.642 9
        47.700
  20731911.305   110940695.856 8        50.600    20731915.848    86287213.681 9
        45.600
 15 11 13 14 30  0.0000000  0 23G01G02G03G06G09G11G12G17G19G23G25G31
                                G32R04R05R06R13R14R15R19R20R21R22
  23441253.391   123184580.223 6        45.300    23441262.770    95988026.017 7
        29.300
  25437414.531   133674530.025 4        37.800    25437421.871   104162000.390 6
        19.000
  21082271.219   110788048.673 7        49.300    21082277.563    86328460.386 8
        40.900
  21969265.914   115449246.425 7        48.900    21969273.168    89960566.083 8
        37.700
  21992245.008   115570120.350 7        47.500    21992252.363    90054717.889 8
        38.900
  25575991.375   134402675.174 4        38.000    25575999.008   104729354.171 5
        16.300
  25233841.414   132604701.651 2        34.600    25233850.000   103328370.179 5
        14.800
  22400180.898   117713739.287 7        48.300    22400186.320    91725008.682 8
        35.900
  25182794.516   132336394.906 4        38.100    25182800.961   103119257.564 6
        21.700
  20747842.719   109030746.572 7        51.200    20747845.418    84959073.018 9
        41.400
  25328985.273   133104692.734 4        38.300    25328994.137   103718000.907 6
        18.600
  23899080.945   125590393.781 5        40.800    23899086.688    97862813.110 6
        23.500
  24036119.086   126310686.944 5        40.300    24036126.543    98423948.287 6
        23.000
  21104998.719   113016625.038 8        50.400    21105001.402    87901676.778 9
        45.200
  19280090.617   103064014.924 7        45.600    19280095.422    80160320.552 9
        47.800
  22143160.961   118160547.285 7        47.900    22143165.441    91902428.676 8
        36.300
  22757938.430   121526250.992 3        36.900    22757943.320    94520371.240 8
        37.700
  22268638.273   118704393.414 6        42.200    22268645.324    92325684.708 7
        32.800
  23943925.313   127949001.238 3        35.800    23943934.902    99515971.626 8
        34.000
  23144362.828   123806557.841 6        44.000    23144368.785    96294076.758 8
        38.500
  20015980.313   107034359.335 7        46.300    20015985.242    83249056.761 9
        47.300
  20719843.258   110876119.852 8        51.000    20719847.875    86236987.940 9
        45.600
  24581624.922   131218594.229 6        41.700    24581628.980   102058756.382 7
        30.400
 15 11 13 14 30 30.0000000  0 23G01G02G03G06G09G11G12G17G19G23G25G31
                                G32R04R05R06R13R14R15R19R20R21R22
  23461261.336   123289722.693 6        45.400    23461270.844    96069955.136 7
        30.200
  25417671.125   133570775.559 4        39.000    25417677.668   104081153.015 6
        19.600
  21093155.680   110845248.167 7        49.900    21093162.859    86373031.409 8
        40.200
  21954340.242   115370813.466 7        48.500    21954348.512    89899449.536 8
        37.900
  21975190.156   115480496.105 7        48.100    21975197.816    89984880.897 8
        38.300
  25598816.594   134522620.483 4        37.300    25598825.082   104822817.827 5
        16.300
  25242595.469   132650702.623 3        37.000    25242602.359   103364215.067 5
        15.600
  22412459.578   117778262.977 7        48.600    22412465.055    91775286.852 8
        36.500
  25204574.695   132450845.962 5        41.400    25204581.199   103208439.989 6
        21.300
  20743452.398   109007674.232 7        51.100    20743454.742    84941094.592 9
        41.200
  25328195.742   133100541.483 4        39.000    25328203.496   103714766.089 6
        19.300
  23908079.594   125637674.122 6        42.200    23908084.234    97899654.937 6
        22.600
  24054864.688   126409192.115 5        40.000    24054870.828    98500705.520 6
        25.300
  21121875.914   113107007.664 8        49.400    21121879.965    87971974.345 9
        44.600
  19278947.086   103057897.755 7        45.600    19278950.895    80155562.765 9
        47.300
  22124626.852   118061642.240 7        48.100    22124631.668    91825502.592 8
        37.000
  22765359.438   121565876.281 3        36.700    22765364.281    94551190.894 8
        37.900
  22254935.664   118631347.150 6        42.300    22254942.957    92268871.002 7
        32.500
  23920453.141   127823561.638 4        37.300    23920460.512    99418407.653 7
        32.300
  23170280.758   123945194.819 6        44.300    23170284.734    96401905.304 8
        36.000
  20027348.695   107095148.758 7        45.900    20027352.984    83296337.404 9
        46.800
  20707909.727   110812258.541 8        50.500    20707913.816    86187318.068 9
        45.600
  24557370.281   131089123.366 6        41.800    24557374.848   101958056.647 7
        29.400
 15 11 13 14 31  0.0000000  0 23G01G02G03G06G09G11G12G17G19G23G25G31
                                G32R04R05R06R13R14R15R19R20R21R22
  23481304.398   123395050.034 6        44.600    23481314.453    96152028.296 7
        29.400
  25397930.883   133467037.487 5        39.600    25397936.613   104000318.395 6
        18.300
  21104097.836   110902749.096 7        48.800    21104104.734    86417837.294 8
        39.600
  21939479.516   115292715.296 7        48.700    21939487.098    89838593.864 8
        38.300
  21958199.898   115391212.791 7        47.400    21958207.789    89915309.586 8
        37.700
  25621636.039   134642536.728 4        37.700    25621644.824   104916258.881 5
        15.600
  25251442.047   132697194.180 4        38.500    25251450.109   103400442.243 5
        17.400
  22424824.844   117843245.770 6        46.900    22424831.828    91825922.734 8
        36.200
  25226350.109   132565274.445 5        39.900    25226357.488   103297604.863 6
        21.100
  20739157.180   108985103.594 7        50.200    20739159.547    84923507.110 9
        41.300
  25327514.758   133096963.674 4        38.100    25327523.523   103711978.176 6
        19.000
  23917178.000   125685489.291 5        40.900    23917182.941    97936913.500 6
        22.300
  24073620.523   126507754.516 5        39.100    24073626.824    98577507.338 6
        22.900
  21138797.375   113197613.138 8        49.500    21138800.027    88042445.246 9
        44.600
  19277894.906   103052277.099 7        45.400    19277899.684    80151191.161 9
        47.700
  22106136.398   117962971.452 7        48.800    22106139.277    91748758.727 8
        36.400
  22772924.813   121606273.070 3        35.500    22772929.457    94582610.605 8
        37.800
  22241351.500   118558937.761 6        42.600    22241359.523    92212552.673 8
        33.100
  23897000.242   127698233.504 4        37.800    23897006.543    99320930.324 7
        32.200
  23196221.188   124083974.516 5        40.100    23196227.906    96509844.901 8
        36.500
  20038856.641   107156688.196 7        46.100    20038862.262    83344201.399 9
        47.300
  20696109.383   110749114.585 8        51.300    20696114.605    86138206.129 9
        45.300
  24533145.805   130959806.232 5        40.000    24533149.969   101857476.453 7
        31.000
 15 11 13 14 31 30.0000000  0 23G01G02G03G06G09G11G12G17G19G23G25G31
                                G32R04R05R06R13R14R15R19R20R21R22
  23501382.320   123500560.382 6        45.000    23501392.336    96234244.060 7
        30.300
  25378192.461   133363317.472 3        37.000    25378199.039   103919497.847 5
        16.900
  21115097.023   110960550.294 7        49.000    21115104.012    86462877.175 8
        40.700
  21924681.234   115214954.028 7        48.100    21924689.469    89778000.717 8
        37.800
  21941275.008   115302272.057 6        46.900    21941282.621    89846005.212 8
        38.100
  25644448.664   134762421.735 2        35.000    25644458.359   105009675.478 5
        14.800
  25260382.070   132744174.281 4        38.000    25260389.410   103437050.133 5
        14.800
  22437277.711   117908684.958 7        47.200    22437283.547    91876914.264 8
        36.200
  25248119.656   132679677.691 4        38.900    25248128.066   103386750.009 6
        20.900
  20734957.539   108963034.442 7        51.000    20734959.922    84906310.394 9
        41.600
  25326942.766   133093959.460 4        37.900    25326951.203   103709637.256 6
        19.600
  23926377.867   125733837.501 5        40.800    23926383.613    97974587.434 6
        22.900
  24092385.805   126606373.088 5        40.900    24092393.000    98654352.956 6
        23.000
  21155758.664   113288439.268 8        50.300    21155761.289    88113087.762 9
        44.700
  19276935.539   103047152.086 7        45.300    19276940.820    80147205.048 9
        47.800
  22087688.586   117864536.149 7        47.800    22087692.996    91672198.039 8
        36.900
  22780633.383   121647439.279 2        34.700    22780638.563    94614628.800 8
        37.600
  22227887.539   118487169.849 6        42.000    22227895.617    92156733.266 8
        33.100
  23873566.977   127573022.169 2        34.800    23873575.906    99223543.880 8
        33.800
  23222192.070   124222893.135 6        41.300    23222197.598    96617892.580 8
        35.900
  20050505.117   107218974.818 7        46.000    20050509.758    83392646.524 9
        47.000
  20684444.797   110686690.886 8        51.200    20684448.895    86089654.367 9
        46.300
  24508949.273   130830645.827 5        41.000    24508953.793   101757018.044 7
        31.800
 15 11 13 14 32  0.0000000  0 23G01G02G03G06G09G11G12G17G19G23G25G31
                                G32R04R05R06R13R14R15R19R20R21R22
  23521495.297   123606252.359 6        44.500    23521504.781    96316601.347 7
        30.900
  25358458.844   133259617.519 5        39.600    25358465.109   103838692.834 6
        20.600
  21126153.063   111018651.100 7        49.300    21126159.637    86508150.507 8
        39.700
  21909948.359   115137532.145 7        48.300    21909956.500    89717672.020 8
        37.700
  21924416.195   115213675.979 7        47.600    21924423.219    89776969.402 8
        38.300
  25667256.633   134882273.889 4        37.800    25667265.590   105103066.527 5
        16.300
  25269413.789   132791641.241 5        39.200    25269422.910   103474037.478 5
        15.600
  22449816.922   117974578.485 7        47.900    22449822.859    91928259.807 8
        36.300
  25269884.727   132794053.379 4        37.900    25269892.836   103475873.706 6
        19.300
  20730853.578   108941467.108 7        51.400    20730855.840    84889504.709 9
        42.000
  25326480.930   133091529.253 3        36.500    25326488.582   103707743.649 6
        19.000
  23935679.484   125782717.146 6        42.100    23935685.398    98012675.511 6
        22.200
  24111163.742   126705047.051 5        40.300    24111170.246    98731241.667 6
        22.800
  21172759.367   113379484.807 8        50.200    21172763.102    88183900.942 9
        45.200
  19276070.117   103042522.705 7        45.400    19276075.160    80143604.430 9
        48.000
  22069286.156   117766337.554 7        48.000    22069290.922    91595821.411 8
        36.400
  22788485.047   121689373.326 2        34.000    22788490.766    94647244.143 8
        37.500
  22214544.750   118416046.336 6        42.400    22214552.695    92101415.078 7
        32.600
  23850156.570   127447930.917 4        37.600    23850166.422    99126250.865 8
        34.700
  23248186.961   124361947.344 6        42.000    23248192.918    96726045.635 8
        37.300
  20062291.664   107282006.697 7        45.400    20062297.238    83441671.288 9
        47.800
  20672914.320   110624990.859 8        51.100    20672919.926    86041665.481 9
        46.800
  24484784.711   130701645.710 6        43.300    24484787.684   101656684.347 7
        31.800
 15 11 13 14 32 30.0000000  0 23G01G02G03G06G09G11G12G17G19G23G25G31
                                G32R04R05R06R13R14R15R19R20R21R22
  23541641.180   123712124.135 6        44.300    23541651.906    96399098.750 7
        30.100
  25338730.695   133155939.066 4        38.800    25338735.707   103757904.610 6
        19.000
  21137266.281   111077050.512 7        49.600    21137272.762    86553656.526 8
        39.600
  21895280.008   115060451.892 7        49.200    21895288.113    89657609.540 8
        38.200
  21907621.789   115125426.243 7        48.500    21907629.691    89708203.454 8
        38.300
  25690056.727   135002091.433 3        36.100    25690065.996   105196430.638 5
        17.400
  25278539.133   132839592.704 5        40.000    25278547.523   103511402.189 5
        17.800
  22462442.344   118040924.032 7        48.700    22462448.105    91979957.574 8
        36.300
  25291644.297   132908399.012 5        39.700    25291653.313   103564973.916 6
        22.200
  20726845.180   108920401.930 7        51.800    20726847.133    84873090.310 9
        42.400
  25326127.180   133089672.892 4        37.600    25326135.879   103706297.222 5
        17.800
  23945082.258   125832126.645 5        40.600    23945087.211    98051176.431 6
        22.600
  24129950.195   126803775.344 5        39.900    24129957.969    98808172.750 6
        22.900
  21189802.406   113470747.623 8        49.400    21189805.457    88254883.104 9
        44.700
  19275296.625   103038387.862 7        45.700    19275301.234    80140388.464 9
        48.000
  22050928.836   117668376.799 7        48.300    22050932.824    91519629.806 8
        37.500
  22796479.906   121732073.173 2        33.900    22796487.164    94680455.139 8
        38.400
  22201323.984   118345571.470 5        41.000    22201332.293    92046601.372 8
        33.700
  23826772.031   127322965.529 3        36.100    23826782.074    99029055.657 8
        35.400
  23274206.102   124501133.204 5        40.900    23274212.074    96834301.068 8
        37.100
  20074217.477   107345781.197 7        46.400    20074223.422    83491273.650 9
        47.600
  20661520.633   110564017.461 8        51.300    20661525.375    85994241.766 9
        46.800
  24460649.500   130572809.204 6        42.500    24460653.703   101556477.951 8
        33.700
 15 11 13 14 33  0.0000000  0 23G01G02G03G06G09G11G12G17G19G23G25G31
                                G32R04R05R06R13R14R15R19R20R21R22
  23561822.438   123818174.128 6        43.200    23561832.656    96481735.027 7
        30.000
  25319005.492   133052283.862 4        38.900    25319010.684   103677134.386 6
        18.600
  21148435.875   111135747.641 7        49.100    21148442.316    86599394.532 8
        39.400
  21880677.797   114983715.640 7        48.700    21880685.840    89597815.110 8
        38.100
  21890895.070   115037524.813 7        48.200    21890902.516    89639708.916 8
        38.700
  25712850.781   135121872.418 4        37.100    25712859.219   105289766.175 5
        16.300
  25287756.094   132888026.737 5        39.700    25287764.891   103549142.901 6
        19.300
  22475152.758   118107718.940 7        47.500    22475157.582    92032005.500 8
        35.700
  25313397.617   133022711.988 5        40.900    25313406.332   103654048.723 6
        22.200
  20722932.336   108899839.100 7        51.600    20722934.488    84857067.350 9
        43.000
  25325882.898   133088390.486 4        38.500    25325891.711   103705298.049 6
        19.000
  23954585.313   125882064.499 5        41.700    23954590.227    98090089.036 6
        22.000
  24148748.336   126902557.032 5        41.000    24148756.129    98885145.443 6
        22.300
  21206885.438   113562225.721 7        48.600    21206889.293    88326032.701 9
        44.700
  19274615.438   103034747.138 6        44.900    19274619.977    80137556.807 9
        48.200
  22032614.930   117570654.875 7        48.100    22032619.527    91443623.959 8
        37.000
  22804622.844   121775537.076 3        35.100    22804626.332    94714260.393 8
        37.500
  22188224.164   118275748.357 6        41.400    22188233.590    91992294.621 8
        34.000
  23803412.906   127198129.777 5        40.200    23803420.742    98931961.250 8
        36.300
  23300248.484   124640446.890 6        41.600    23300257.219    96942655.984 8
        38.500
  20086282.422   107410295.762 7        46.100    20086288.254    83541451.606 9
        48.000
  20650262.109   110503773.759 8        50.900    20650267.035    85947385.578 9
        46.700
  24436544.625   130444140.157 6        42.600    24436549.512   101456401.746 7
        31.400
 15 11 13 14 33 30.0000000  0 23G01G02G03G06G09G11G12G17G19G23G25G31
                                G32R04R05R06R13R14R15R19R20R21R22
  23582036.555   123924400.375 6        43.400    23582046.375    96564508.626 7
        28.100
  25299284.820   132948653.542 5        39.600    25299290.770   103596383.561 6
        19.600
  21159662.344   111194741.394 7        49.300    21159668.605    86645363.662 8
        39.200
  21866141.836   114907325.484 7        48.000    21866148.605    89538290.369 8
        38.300
  21874234.789   114949973.206 7        47.900    21874241.969    89571486.951 8
        38.700
  25735637.297   135241614.390 4        37.600    25735645.289   105383071.369 5
        15.600
  25297063.602   132936940.602 5        39.900    25297072.684   103587257.566 6
        19.300
  22487949.219   118174960.476 7        48.800    22487954.680    92084401.442 8
        36.300
  25335144.313   133136989.771 5        39.800    25335153.195   103743096.069 6
        20.400
  20719115.109   108879778.314 7        51.800    20719117.398    84841435.589 9
        43.200
  25325748.547   133087682.082 4        37.500    25325756.840   103704746.138 5
        16.900
  23964187.023   125932528.776 5        41.600    23964193.324    98129411.880 6
        22.900
  24167556.289   127001391.119 5        39.800    24167563.336    98962158.947 6
        22.800
  21224007.453   113653916.951 7        48.600    21224011.973    88397348.087 9
        44.700
  19274026.703   103031599.753 7        45.100    19274031.777    80135108.863 9
        47.900
  22014345.992   117473172.515 7        46.800    22014351.934    91367804.392 8
        37.300
  22812904.117   121819762.910 3        35.200    22812908.691    94748658.274 8
        38.200
  22175248.508   118206580.522 6        41.700    22175257.363    91938497.508 8
        34.400
  23780074.922   127073428.713 5        39.200    23780084.902    98834971.608 8
        36.400
  23326318.781   124779884.965 6        44.300    23326322.504    97051107.604 8
        38.800
  20098485.273   107475547.800 7        46.000    20098491.633    83592203.169 9
        47.700
  20639141.625   110444262.636 8        50.600    20639145.855    85901099.167 9
        46.600
  24412473.055   130315642.267 5        41.000    24412477.969   101356458.795 7
        32.800
 15 11 13 14 34  0.0000000  0 23G01G02G03G06G09G11G12G17G19G23G25G31
                                G32R04R05R06R13R14R15R19R20R21R22
  23602283.469   124030801.236 6        43.800    23602294.742    96647418.276 7
        29.100
  25279568.766   132845049.817 4        38.300    25279574.738   103515653.442 6
        18.600
  21170944.430   111254030.810 7        49.900    21170951.070    86691563.185 8
        39.500
  21851670.594   114831283.672 7        48.500    21851678.484    89479037.048 8
        38.500
  21857640.867   114862773.226 7        48.400    21857647.797    89503538.990 8
        38.400
  25758416.125   135361315.805 4        37.900    25758425.180   105476344.940 5
        17.400
  25306463.250   132986332.770 5        39.600    25306471.672   103625744.889 6
        18.300
  22500828.797   118242646.389 7        47.800    22500834.137    92137143.660 8
        35.400
  25356883.891   133251229.655 5        41.400    25356892.508   103832113.908 6
        22.300
  20715392.711   108860219.922 7        51.200    20715395.500    84826195.303 9
        42.900
  25325722.164   133087547.460 2        34.600    25325731.523   103704641.363 5
        17.800
  23973890.500   125983517.662 5        39.700    23973895.852    98169143.499 6
        22.800
  24186373.484   127100276.603 5        40.400    24186380.520    99039212.517 6
        22.000
  21241169.172   113745819.779 7        47.800    21241174.012    88468828.027 9
        44.300
  19273530.430   103028945.160 7        45.300    19273535.031    80133044.188 9
        47.400
  21996123.805   117375930.918 8        49.500    21996128.328    91292172.148 8
        37.100
  22821328.250   121864748.441 2        34.600    22821333.863    94783647.005 8
        38.200
  22162397.195   118138072.206 5        40.500    22162405.375    91885213.353 8
        34.900
  23756764.422   126948866.603 5        40.500    23756773.563    98738090.065 8
        34.300
  23352405.930   124919443.417 5        41.000    23352412.754    97159652.845 8
        39.900
  20110825.719   107541534.637 7        46.400    20110830.516    83643526.223 9
        47.800
  20628157.070   110385487.094 8        50.500    20628161.645    85855384.878 9
        46.800
  24388433.992   130187318.871 6        41.100    24388438.730   101256651.677 7
        32.900
 15 11 13 14 34 30.0000000  0 23G01G02G03G06G09G11G12G17G19G23G25G31
                                G32R04R05R06R13R14R15R19R20R21R22
  23622563.734   124137375.257 6        43.400    23622574.586    96730462.878 7
        30.200
  25259859.594   132741474.675 5        39.300    25259864.688   103434945.648 6
        19.300
  21182283.375   111313615.294 7        49.400    21182289.523    86737992.634 8
        40.100
  21837266.953   114755592.826 7        48.200    21837274.879    89420057.211 8
        38.200
  21841114.305   114775926.992 7        47.600    21841121.746    89435866.673 8
        37.600
  25781185.273   135480974.824 1        32.900    25781194.594   105569585.557 5
        15.600
  25315953.148   133036201.120 4        38.700    25315960.609   103664603.295 5
        15.600
  22513793.602   118310774.972 7        48.500    22513799.250    92190230.820 8
        35.500
  25378616.578   133365429.606 5        41.300    25378624.305   103921100.597 6
        23.000
  20711766.516   108841164.479 7        50.600    20711768.941    84811346.935 9
        42.400
  25325806.281   133087987.080 3        35.300    25325814.449   103704983.951 5
        16.900
  23983692.344   126035029.682 5        40.700    23983698.102    98209282.763 6
        23.000
  24205199.859   127199212.712 5        39.900    24205206.621    99116305.539 6
        22.200
  21258370.531   113837932.388 7        47.200    21258375.844    88540471.116 9
        44.300
  19273126.227   103026782.654 7        45.800    19273129.988    80131362.251 9
        48.000
  21977946.000   117278931.526 7        48.700    21977950.152    91216728.294 8
        36.600
  22829894.820   121910492.091 2        34.600    22829900.484    94819225.379 8
        38.200
  22149669.758   118070226.923 6        41.300    22149677.742    91832444.868 8
        35.100
  23733481.805   126824448.543 6        42.500    23733490.551    98641320.591 8
        33.800
  23378516.359   125059118.995 5        40.800    23378523.027    97268289.233 8
        38.300
  20123301.188   107608254.085 7        45.200    20123307.172    83695419.111 9
        47.600
  20617311.828   110327450.416 8        51.900    20617316.258    85810245.274 9
        46.800
  24364427.852   130059173.657 6        41.200    24364432.992   101156983.013 8
        33.300
 15 11 13 14 35  0.0000000  0 23G01G02G03G06G09G11G12G17G19G23G25G31
                                G32R04R05R06R13R14R15R19R20R21R22
  23642877.305   124244120.423 6        43.300    23642887.594    96813640.829 7
        28.500
  25240154.672   132637929.337 4        39.000    25240160.855   103354261.071 6
        19.000
  21193677.961   111373493.580 7        51.100    21193684.035    86784651.019 8
        39.800
  21822930.914   114680254.888 7        49.000    21822938.203    89361352.375 8
        37.400
  21824655.695   114689435.876 7        47.600    21824663.043    89368471.089 8
        38.600
  25803947.922   135600589.104 4        37.300    25803957.258   105662791.248 5
        16.900
  25325532.555   133086543.257 4        39.000    25325540.348   103703830.868 5
        16.900
  22526841.391   118379342.758 7        48.300    22526846.637    92243660.198 8
        35.300
  25400339.727   133479586.680 5        41.100    25400348.203   104010053.883 6
        23.900
  20708235.711   108822611.409 7        50.500    20708238.277    84796890.016 9
        42.000
  25325999.766   133089000.591 4        38.000    25326007.156   103705773.747 6
        18.300
  23993594.859   126087063.021 5        41.100    23993599.926    98249828.261 6
        23.000
  24224036.453   127298198.184 5        40.000    24224043.672    99193437.026 6
        21.700
  21275611.680   113930252.853 7        47.300    21275615.453    88612275.894 9
        45.300
  19272813.281   103025111.505 7        45.600    19272817.563    80130062.471 9
        48.200
  21959813.820   117182175.183 7        48.300    21959818.574    91141473.402 8
        37.500
  22838602.117   121956991.396 3        36.100    22838607.461    94855391.498 8
        37.400
  22137067.867   118003047.893 6        41.300    22137075.547    91780194.570 8
        35.400
  23710226.000   126700179.091 5        40.400    23710234.676    98544666.624 8
        33.600
  23404650.039   125198907.603 6        43.700    23404655.730    97377013.443 8
        38.600
  20135914.000   107675703.153 7        45.800    20135920.492    83747879.468 9
        47.200
  20606605.328   110270155.233 8        51.400    20606609.414    85765682.384 9
        46.300
  24340456.188   129931210.345 5        40.200    24340461.980   101057455.843 8
        34.300
 15 11 13 14 35 30.0000000  0 23G01G02G03G06G09G11G12G17G19G23G25G31
                                G32R04R05R06R13R14R15R19R20R21R22
  23663222.258   124351035.152 6        43.000    23663232.918    96896950.914 7
        26.400
  25220457.359   132534415.965 4        38.700    25220463.273   103273601.336 6
        19.000
  21205127.883   111433664.858 7        50.600    21205134.566    86831537.705 8
        39.600
  21808662.305   114605272.276 7        47.800    21808669.438    89302924.401 8
        38.700
  21808265.109   114603301.860 7        48.400    21808272.109    89301353.748 8
        38.000
  25826701.852   135720157.393 5        39.200    25826710.598   105755961.110 5
        17.400
  25335202.625   133137356.718 5        39.700    25335210.410   103743425.687 5
        16.300
  22539972.578   118448347.246 7        48.000    22539977.328    92297429.887 8
        35.400
  25422053.453   133593698.367 5        39.800    25422063.203   104098971.807 6
        22.800
  20704800.930   108804560.835 7        50.400    20704803.715    84782824.653 9
        42.400
  25326300.781   133090587.908 2        34.000    25326309.422   103707010.697 5
        15.600
  24003594.648   126139616.141 5        41.800    24003600.484    98290778.748 6
        23.800
  24242882.266   127397232.253 5        40.000    24242889.059    99270606.371 6
        22.500
  21292890.406   114022779.147 7        46.700    21292894.637    88684240.745 9
        44.600
  19272592.984   103023931.002 7        45.200    19272596.324    80129144.322 9
        48.200
  21941727.617   117085662.922 7        48.700    21941731.801    91066408.394 8
        36.900
  22847451.000   122004244.454 3        35.800    22847455.793    94892143.873 8
        36.700
  22124590.102   117936538.807 6        41.700    22124598.914    91728465.333 8
        35.600
  23686999.031   126576061.728 6        41.600    23687007.289    98448130.951 7
        33.000
  23430801.430   125338805.684 6        42.800    23430807.551    97485822.871 8
        38.100
  20148664.352   107743879.178 7        46.300    20148670.137    83800905.255 9
        47.700
  20596036.594   110213604.522 8        51.000    20596040.996    85721698.511 9
        47.200
  24316519.266   129803432.611 4        38.800    24316524.188   100958072.986 8
        34.400
 15 11 13 14 36  0.0000000  0 23G01G02G03G06G09G11G12G17G19G23G25G31
                                G32R04R05R06R13R14R15R19R20R21R22
  23683599.891   124458117.790 6        43.000    23683610.063    96980391.828 6
        25.300
  25200765.719   132430936.125 5        40.200    25200770.734   103192967.764 6
        19.300
  21216633.750   111494128.243 7        50.200    21216640.422    86878652.026 8
        40.400
  21794461.953   114530647.311 7        47.800    21794469.270    89244775.134 8
        38.700
  21791942.375   114517526.661 7        48.400    21791949.676    89234515.998 8
        38.200
  25849445.852   135839677.676 3        35.200    25849455.066   105849093.606 5
        13.900
  25344961.828   133188639.638 4        38.400    25344969.438   103783386.269 6
        18.600
  22553186.500   118517786.569 7        48.100    22553192.785    92351538.398 8
        35.000
  25443759.930   133707762.465 5        40.900    25443769.539   104187852.674 6
        21.700
  20701461.406   108787013.152 7        49.000    20701464.188    84769151.153 9
        41.400
  25326713.180   133092749.225 3        35.800    25326720.594   103708694.951 5
        16.900
  24013694.195   126192687.041 6        42.200    24013699.277    98332132.716 6
        25.700
  24261736.883   127496314.034 5        40.400    24261743.113    99347812.928 6
        22.900
  21310206.484   114115509.722 7        47.000    21310211.488    88756364.499 9
        44.000
  19272462.836   103023240.559 7        46.000    19272467.762    80128607.318 9
        48.500
  21923687.641   116989396.319 8        49.600    21923691.625    90991534.456 8
        36.800
  22856440.938   122052249.164 3        35.300    22856446.188    94929480.878 8
        36.300
  22112239.234   117870703.161 6        41.500    22112247.922    91677259.888 8
        35.600
  23663801.234   126452100.939 6        41.100    23663810.547    98351717.033 8
        33.900
  23456973.633   125478809.540 6        43.700    23456980.422    97594714.586 8
        38.600
  20161549.703   107812779.581 7        45.800    20161554.488    83854494.426 9
        47.300
  20585608.617   110157801.387 8        50.500    20585613.113    85678296.100 9
        46.300
  24292617.992   129675844.304 5        40.300    24292622.047   100858837.440 7
        31.800
 15 11 13 14 36 30.0000000  0 23G01G02G03G06G09G11G12G17G19G23G25G31
                                G32R04R05R06R13R14R15R19R20R21R22
  23704008.305   124565366.466 6        42.200    23704018.082    97063962.117 6
        25.700
  25181080.734   132327491.713 4        38.800    25181085.953   103112361.865 6
        20.100
  21228195.258   111554882.679 7        50.300    21228201.668    86925993.117 8
        40.600
  21780329.219   114456382.191 7        49.400    21780336.961    89186906.242 8
        39.200
  21775688.711   114432111.965 7        49.100    21775695.371    89167959.163 8
        38.400
  25872180.016   135959147.596 4        37.500    25872189.145   105942186.855 5
        16.900
  25354808.461   133240389.397 4        38.000    25354817.809   103823710.635 5
        16.300
  22566482.570   118587657.905 7        48.200    22566488.422    92405983.545 8
        35.500
  25465456.594   133821776.075 5        40.500    25465465.516   104276694.206 6
        22.300
  20698217.727   108769968.177 7        50.200    20698220.715    84755869.365 9
        41.600
  25327233.352   133095484.119 4        37.100    25327240.594   103710826.131 6
        19.000
  24023891.461   126246273.599 6        43.300    24023897.320    98373888.470 6
        24.500
  24280601.086   127595442.358 5        41.200    24280607.449    99425055.729 6
        22.000
  21327560.555   114208442.550 7        46.900    21327566.180    88828645.561 9
        44.400
  19272425.938   103023039.110 6        44.900    19272429.688    80128450.632 9
        48.100
  21905693.133   116893375.850 8        50.500    21905697.090    90916851.934 8
        36.500
  22865571.219   122101003.195 3        35.900    22865575.168    94967400.664 8
        35.800
  22100015.992   117805544.305 6        41.900    22100023.656    91626580.813 8
        35.900
  23640634.352   126328302.489 5        40.700    23640644.070    98255429.380 8
        34.200
  23483166.898   125618915.635 7        45.500    23483171.141    97703685.780 8
        36.100
  20174568.820   107882401.479 7        45.800    20174574.363    83908644.759 9
        47.700
  20575321.094   110102748.353 8        50.900    20575325.465    85635477.094 9
        47.200
  24268752.266   129548449.351 5        39.900    24268758.305   100759752.408 8
        34.800
 15 11 13 14 37  0.0000000  0 23G01G02G03G06G09G11G12G17G19G23G25G31
                                G32R04R05R06R13R14R15R19R20R21R22
  23724449.086   124672779.557 5        41.900    23724458.473    97147660.534 6
        24.400
  25161403.852   132224084.292 5        40.300    25161408.539   103031784.774 6
        21.100
  21239811.773   111615927.345 7        51.100    21239817.965    86973560.382 8
        40.300
  21766266.375   114382479.223 7        49.600    21766274.285    89129319.555 8
        39.300
  21759503.148   114347059.542 7        48.600    21759510.609    89101684.614 8
        38.800
  25894903.633   136078565.639 1        32.300    25894913.023   106035239.678 5
        15.600
  25364745.664   133292604.229 5        39.800    25364753.930   103864397.418 5
        17.800
  22579860.406   118657958.546 7        47.600    22579866.250    92460763.212 8
        35.200
  25487142.141   133935737.151 4        38.600    25487151.801   104365494.743 6
        20.400
  20695069.555   108753425.775 7        49.300    20695072.281    84742979.190 8
        41.000
  25327862.000   133098792.518 3        35.800    25327870.195   103713404.166 5
        17.800
  24034186.609   126300374.340 6        42.500    24034191.789    98416044.936 7
        26.200
  24299472.742   127694616.584 5        39.800    24299479.848    99502334.302 6
        22.800
  21344953.484   114301575.779 7        47.800    21344957.848    88901082.484 9
        44.400
  19272479.602   103023326.350 7        45.900    19272483.434    80128674.051 9
        48.300
  21887745.195   116797602.902 8        49.200    21887749.234    90842361.939 8
        36.500
  22874839.664   122150504.307 3        35.200    22874845.504    95005901.509 8
        36.200
  22087920.352   117741065.885 6        42.600    22087927.742    91576430.957 8
        36.400
  23617497.563   126204670.645 6        41.200    23617507.988    98159271.345 8
        35.100
  23509375.344   125759120.204 6        42.600    23509382.227    97812733.611 8
        37.600
  20187722.438   107952742.291 7        46.500    20187728.234    83963354.269 9
        48.000
  20565173.969   110048448.440 8        51.000    20565177.852    85593243.839 9
        46.900
  24244923.609   129421251.279 5        40.500    24244929.160   100660820.474 8
        33.300
 15 11 13 14 37 30.0000000  0 23G01G02G03G06G09G11G12G17G19G23G25G31
                                G32R04R05R06R13R14R15R19R20R21R22
  23744919.625   124780355.117 6        42.300    23744929.270    97231485.567 7
        26.200
  25141732.938   132120715.451 5        39.900    25141738.355   102951237.759 6
        18.600
  21251483.273   111677261.035 7        50.000    21251489.301    87021352.856 8
        40.200
  21752272.539   114308940.516 7        49.600    21752279.980    89072016.711 8
        39.600
  21743387.914   114262370.952 7        48.600    21743395.031    89035693.578 8
        38.700
  25917619.172   136197929.878 4        37.100    25917627.848   106128250.554 5
        13.900
  25374768.922   133345281.726 4        38.600    25374778.742   103905444.692 5
        17.400
  22593319.805   118728685.940 7        48.900    22593325.980    92515875.439 8
        35.000
  25508819.711   134049642.789 5        41.800    25508826.563   104454252.101 6
        20.400
  20692017.344   108737386.003 7        49.400    20692019.992    84730480.676 9
        41.100
  25328600.555   133102674.130 3        36.700    25328609.500   103716428.858 6
        19.300
  24044578.672   126354987.335 6        43.700    24044585.023    98458600.521 7
        27.300
  24318353.953   127793835.428 5        40.700    24318360.477    99579647.636 6
        22.600
  21362382.563   114394907.693 7        47.700    21362386.531    88973673.952 9
        44.000
  19272624.820   103024101.071 7        45.700    19272628.297    80129276.606 9
        48.700
  21869843.742   116702077.943 7        48.800    21869847.313    90768064.816 8
        36.100
  22884249.727   122200750.202 3        35.500    22884255.770    95044981.637 8
        36.400
  22075951.766   117677271.129 6        42.000    22075959.707    91526812.853 8
        36.200
  23594393.273   126081209.580 5        40.900    23594403.336    98063246.145 8
        35.100
  23535603.211   125899419.361 6        44.100    23535608.328    97921855.004 8
        36.800
  20201010.734   108023799.004 7        46.200    20201016.426    84018620.565 9
        47.700
  20555167.977   109994904.102 8        50.500    20555172.090    85551598.260 9
        47.000
  24221131.547   129294254.022 5        40.800    24221138.355   100562044.695 8
        34.000
 15 11 13 14 38  0.0000000  0 23G01G02G03G06G09G11G12G17G19G23G25G31
                                G32R04R05R06R13R14R15R19R20R21R22
  23765421.391   124888091.590 6        42.300    23765430.445    97315435.993 7
        27.000
  25122070.117   132017387.358 5        40.000    25122074.355   102870722.496 6
        21.100
  21263209.500   111738883.089 7        51.100    21263215.605    87069370.030 8
        40.200
  21738347.875   114235768.529 7        48.200    21738355.672    89014999.621 8
        39.200
  21727341.070   114178048.073 7        47.500    21727348.508    88969987.508 8
        37.900
  25940322.313   136317238.434 3        35.500

  25384880.977   133398419.203 5        39.200    25384890.840   103946850.368 6
        19.000
  22606858.922   118799837.936 7        47.600    22606865.145    92571318.466 8
        35.600
  25530483.211   134163490.668 5        39.200    25530489.988   104542964.544 6
        18.300
  20689060.883   108721849.240 7        49.500    20689063.848    84718374.122 8
        40.600
  25329447.734   133107129.025 4        38.100    25329457.133   103719900.236 6
        19.900
  24055068.977   126410110.723 6        42.600    24055074.566    98501553.781 7
        27.100
  24337242.297   127893098.300 5        39.400    24337249.520    99656995.276 6
        21.700
  21379848.156   114488436.345 8        49.100    21379852.754    89046418.439 9
        44.700
  19272860.422   103025362.784 7        45.700    19272864.891    80130257.926 9
        48.600
  21851988.438   116606802.156 7        48.900    21851992.363    90693961.481 8
        36.700
  22893796.484   122251738.716 3        35.500    22893803.984    95084639.384 8
        36.500
  22064112.461   117614163.142 6        42.100    22064121.609    91477728.897 8
        36.900
  23571322.484   125957923.597 6        41.500    23571332.051    97967357.165 8
        35.400
  23561847.055   126039809.544 6        43.400    23561853.578    98031047.140 8
        36.400
  20214432.117   108095569.000 7        45.400    20214438.168    84074441.645 9
        47.800
  20545303.016   109942118.453 8        50.700    20545307.836    85510542.773 9
        47.000
  24197381.227   129167461.486 6        41.700    24197385.949   100463428.137 7
        32.600
 15 11 13 14 38 30.0000000  0 23G01G02G03G06G09G11G12G17G19G23G25G31
                                G32R04R05R06R13R14R15R19R20R21R22
  23785953.602   124995987.305 6        42.900    23785962.797    97399510.472 6
        24.900
  25102414.828   131914101.766 5        39.800    25102420.461   102790240.362 6
        22.000
  21274990.297   111800792.536 7        49.900    21274996.715    87117611.137 8
        39.600
  21724493.688   114162965.535 7        48.100    21724501.941    88958270.041 8
        39.500
  21711364.734   114094092.599 7        47.800    21711372.098    88904567.729 8
        37.000
  25963016.047   136436489.453 3        35.500

  25395080.406   133452014.846 4        37.800    25395089.238   103988613.044 5
        16.300
  22620479.352   118871411.628 7        48.100    22620484.941    92627090.130 8
        35.200
  25552135.523   134277278.366 4        38.200    25552144.395   104631629.970 6
        19.000
  20686200.297   108706815.208 7        49.500    20686202.891    84706659.297 9
        41.700
  25330405.633   133112156.922 4        38.800    25330413.875   103723818.161 6
        20.400
  24065655.242   126465742.696 6        44.200    24065660.094    98544903.416 7
        28.300
  24356139.313   127992404.131 5        39.200    24356146.785    99734376.371 6
        21.500
  21397349.680   114582160.108 7        48.200    21397354.430    89119314.677 9
        44.100
  19273187.078   103027110.799 7        45.100    19273191.711    80131617.494 9
        48.300
  21834181.688   116511777.363 8        49.500    21834185.715    90620053.380 8
        37.000
  22903486.445   122303467.581 2        34.900    22903491.129    95124872.960 8
        36.400
  22052403.969   117551745.749 6        42.600    22052412.336    91429182.078 8
        36.900
  23548285.289   125834818.548 5        40.400    23548292.609    97871608.999 8
        33.700
  23588110.398   126180287.318 6        43.200    23588115.609    98140307.428 8
        37.400
  20227986.742   108168049.281 7        45.700    20227991.957    84130815.181 9
        47.700
  20535581.242   109890094.124 8        50.000    20535585.824    85470079.429 9
        47.000
  24173668.109   129040877.478 6        42.500    24173672.688   100364973.818 8
        34.400
 15 11 13 14 39  0.0000000  0 23G01G02G03G06G09G11G12G17G19G23G25G31
                                G32R04R05R06R13R14R15R19R20R21R22
  23806514.969   125104040.473 6        42.100    23806524.863    97483707.648 7
        26.200
  25082769.117   131810860.171 4        38.900    25082774.039   102709792.550 6
        22.300
  21286826.172   111862988.452 7        49.800    21286831.816    87166075.481 8
        40.000
  21710710.516   114090533.794 7        47.500    21710718.523    88901829.757 8
        39.100
  21695458.609   114010506.290 7        47.900    21695465.422    88839435.615 8
        37.900
  25985697.406   136555681.338 4        37.100

  25405366.281   133506066.165 3        36.800    25405375.523   104030730.834 5
        14.800
  22634179.313   118943404.560 7        48.500    22634185.438    92683188.453 8
        36.300
  25573777.102   134391003.436 5        39.300    25573785.898   104720246.632 6
        20.400
  20683435.414   108692284.048 7        48.900    20683437.578    84695336.330 9
        41.500
  25331471.383   133117757.673 4        38.300    25331480.078   103728182.471 6
        20.100
  24076338.406   126521881.569 6        44.200    24076343.238    98588648.000 7
        28.000
  24375045.367   128091752.038 4        39.000    24375052.496    99811790.296 6
        22.600
  21414890.469   114676077.494 8        49.100    21414893.109    89192361.489 9
        44.200
  19273605.148   103029344.553 7        45.400    19273609.566    80133354.851 9
        48.200
  21816421.258   116417004.070 8        49.300    21816425.637    90546340.896 8
        37.100
  22913310.828   122355934.405 3        36.300    22913316.621    95165680.517 8
        36.600
  22040824.047   117490022.317 6        42.700    22040832.730    91381175.010 8
        36.900
  23525282.125   125711898.131 4        38.900    23525289.773    97776004.361 8
        34.900
  23614385.266   126320849.093 6        43.400    23614392.090    98249632.999 8
        38.700
  20241673.078   108241236.889 7        46.100    20241678.672    84187738.843 9
        47.400
  20526001.344   109838833.875 8        50.100    20526006.945    85430210.386 9
        46.900
  24149993.727   128914506.131 5        40.900    24149998.313   100266684.895 7
        31.000
 15 11 13 14 39 30.0000000  0 23G01G02G03G06G09G11G12G17G19G23G25G31
                                G32R04R05R06R13R14R15R19R20R21R22
  23827106.953   125212249.315 6        43.000    23827116.078    97568026.134 7
        26.500
  25063130.359   131707664.446 4        38.600    25063135.797   102629380.442 6
        19.000
  21298715.836   111925469.781 7        48.000    21298722.129    87214762.219 8
        39.400
  21696998.516   114018475.483 7        47.300    21697005.992    88845680.443 8
        39.200
  21679623.602   113927290.656 6        46.700    21679630.188    88774592.330 8
        37.600
  26008368.406   136674812.217 2        35.000

  25415738.180   133560570.743 2        34.900    25415747.840   104073201.786 5
        14.800
  22647958.852   119015813.934 7        47.800    22647963.660    92739611.305 8
        35.500
  25595406.648   134504663.254 5        40.400    25595414.527   104808812.474 6
        18.600
  20680765.672   108678255.394 7        50.000    20680768.316    84684404.929 9
        41.100
  25332645.555   133123930.860 5        39.400    25332653.676   103732992.808 6
        20.600
  24087116.813   126578525.182 6        43.700    24087122.199    98632785.892 7
        26.900
  24393958.789   128191141.060 5        39.100    24393965.063    99889236.216 6
        21.800
  21432463.141   114770186.059 7        48.200    21432467.176    89265557.022 9
        44.000
  19274114.094   103032062.747 7        45.400    19274118.047    80135468.993 9
        48.400
  21798708.266   116322483.357 7        48.100    21798711.953    90472824.826 8
        37.300
  22923273.164   122409136.611 3        37.000    22923280.172    95207060.043 8
        36.700
  22029375.805   117428995.682 6        43.000    22029384.535    91333709.902 8
        36.500
  23502313.602   125589166.794 4        38.100    23502321.879    97680546.868 8
        34.400
  23640676.797   126461490.781 6        42.300    23640683.496    98359020.783 8
        36.700
  20255491.219   108315128.999 7        45.200    20255496.129    84245210.471 9
        47.300
  20516565.250   109788340.190 8        50.200    20516570.262    85390937.550 9
        47.000
  24126361.578   128788351.052 6        41.800    24126366.305   100168564.209 8
        33.600
 15 11 13 14 40  0.0000000  0 23G01G02G03G06G09G11G12G17G19G23G25G31
                                G32R04R05R06R13R14R15R19R20R21R22
  23847727.625   125320612.083 6        43.200    23847736.992    97652464.566 7
        26.600
  25043502.141   131604516.328 5        39.300    25043508.227   102549005.459 6
        21.500
  21310659.813   111988235.622 7        50.000    21310666.039    87263670.662 8
        40.000
  21683357.461   113946792.913 7        48.900    21683364.941    88789823.920 8
        39.200
  21663859.539   113844447.508 7        48.900    21663866.266    88710039.286 8
        38.100
  26031024.773   136793880.213 2        34.300

  25426194.945   133615526.72011        31.900

  22661815.945   119088637.286 7        47.900    22661822.148    92796356.729 8
        34.400
  25617022.961   134618255.599 5        40.500    25617029.203   104897325.752 6
        19.900
  20678191.742   108664729.222 7        49.400    20678193.984    84673865.072 9
        41.400
  25333929.688   133130676.140 4        38.900    25333937.949   103738248.880 6
        19.900
  24097991.211   126635671.664 6        44.300    24097995.996    98677315.609 7
        28.300
  24412879.148   128290570.319 4        38.800    24412886.418    99966713.543 6
        22.300
  21450073.648   114864484.294 7        49.000    21450076.566    89338900.074 9
        43.600
  19274712.070   103035264.937 7        45.700    19274717.023    80137959.589 9
        48.200
  21781042.281   116228216.388 8        50.300    21781046.840    90399506.154 8
        37.600
  22933375.336   122463072.034 4        37.200    22933380.359    95249009.846 8
        36.800
  22018058.867   117368669.389 6        43.100    22018067.195    91286789.489 8
        35.500
  23479381.031   125466629.659 3        36.000    23479391.719    97585240.446 8
        36.200
  23666983.680   126602208.990 6        43.000    23666990.641    98468468.068 8
        39.100
  20269441.242   108389722.893 7        46.000    20269446.023    84303227.907 9
        47.300
  20507273.875   109738615.854 8        50.900    20507278.648    85352263.113 9
        46.800
  24102768.563   128662415.872 6        43.700    24102773.574   100070614.567 7
        32.800
 15 11 13 14 40 30.0000000  0 23G01G02G03G06G09G11G12G17G19G23G25G31
                                G32R04R05R06R13R14R15R19R20R21R22
  23868376.930   125429127.195 5        41.900    23868386.316    97737021.729 6
        25.800
  25023884.227   131501417.836 5        40.200    25023888.727   102468669.112 6
        20.900
  21322657.633   112051285.197 7        48.400    21322663.766    87312800.184 8
        39.900
  21669789.203   113875488.451 7        47.600    21669796.945    88734262.026 8
        39.400
  21648166.211   113761978.564 7        47.700    21648172.570    88645777.832 8
        38.800
  26053671.125   136912883.238 2        33.700

  25436737.336   133670931.496 1        32.400

  22675752.039   119161871.948 7        47.500    22675758.113    92853422.648 8
        34.700
  25638626.125   134731777.936 5        41.800    25638633.348   104985784.448 6
        21.300
  20675713.281   108651705.688 7        49.100    20675715.605    84663716.873 9
        41.200
  25335322.023   133137993.537 5        40.100    25335330.293   103743950.817 6
        21.100
  24108961.305   126693319.167 6        44.500    24108966.711    98722235.742 7
        27.200
  24431807.398   128390038.988 4        39.000    24431814.430   100044221.543 6
        21.500
  21467718.234   114958970.703 7        48.600    21467721.699    89412389.496 9
        43.700
  19275401.742   103038950.455 7        45.600    19275406.777    80140826.106 9
        48.300
  21763424.508   116134204.123 7        48.800    21763427.992    90326385.556 8
        37.600
  22943612.281   122517738.210 4        38.300    22943617.879    95291528.007 8
        37.300
  22006872.859   117309046.667 6        43.300    22006881.871    91240416.315 8
        36.000
  23456488.852   125344291.403 5        39.200    23456497.516    97490088.674 8
        36.600
  23693302.031   126743000.163 6        41.400    23693309.754    98577972.062 8
        38.600
  20283520.570   108465015.416 7        46.200    20283526.664    84361788.729 9
        47.300
  20498125.227   109689663.484 8        50.400    20498129.996    85314189.070 9
        46.600
  24079219.047   128536704.952 6        43.400    24079223.875    99972839.353 8
        33.300
 15 11 13 14 41  0.0000000  0 23G01G02G03G06G09G11G12G17G19G23G25G31
                                G32R04R05R06R13R14R15R19R20R21R22
  23889056.609   125537792.869 6        42.400    23889064.227    97821696.191 6
        25.100
  25004274.359   131398370.712 4        38.300    25004279.246   102388372.797 6
        20.100
  21334709.516   112114617.533 7        48.800    21334715.934    87362150.050 8
        40.400
  21656292.477   113804564.384 7        48.200    21656300.285    88678996.540 8
        39.200
  21632543.969   113679885.486 7        48.300    21632551.035    88581809.267 8
        38.700
  26076304.000   137031819.802 3        35.300    26076314.363   106778148.413 5
        16.900
  25447366.609   133726782.496 2        34.000

  22689765.313   119235515.371 6        46.400    22689771.813    92910807.072 8
        34.200
  25660214.055   134845227.915 5        39.500    25660222.816   105074186.735 6
        19.900
  20673330.656   108639184.694 7        50.500    20673332.699    84653960.271 9
        41.600
  25336822.875   133145882.656 5        39.200    25336830.758   103750098.199 6
        21.700
  24120026.578   126751465.818 6        43.900    24120032.113    98767544.820 7
        28.500
  24450742.625   128489546.260 5        39.100    24450749.703   100121759.637 6
        20.400
  21485397.258   115053643.460 7        48.400    21485401.145    89486023.837 9
        43.600
  19276181.516   103043118.335 7        45.500    19276186.313    80144067.798 9
        48.300
  21745854.266   116040447.829 7        48.600    21745858.539    90253464.072 8
        38.100
  22953985.820   122573132.691 4        38.500    22953991.063    95334612.663 8
        37.600
  21995820.523   117250131.053 6        43.800    21995829.246    91194593.113 8
        35.500
  23433632.656   125222155.401 4        38.800    23433640.871    97395094.206 8
        34.700
  23719635.328   126883860.629 6        42.300    23719641.680    98687529.986 8
        38.500
  20297730.914   108541003.539 7        45.400    20297736.188    84420890.571 9
        48.200
  20489122.797   109641485.790 8        50.900    20489126.531    85276717.532 9
        46.100
  24055712.438   128411222.022 6        44.300    24055717.379    99875241.440 8
        34.000
 15 11 13 14 41 30.0000000  0 23G01G02G03G06G09G11G12G17G19G23G25G31
                                G32R04R05R06R13R14R15R19R20R21R22
  23909762.992   125646607.127 6        43.200    23909771.121    97906486.422 6
        24.300
  24984674.797   131295376.765 5        39.100    24984680.395   102308117.935 6
        21.500
  21346814.852   112178231.434 7        49.900    21346821.016    87411719.308 8
        39.100
  21642868.289   113734022.732 7        47.300    21642876.141    88624029.052 8
        39.200
  21616993.891   113598169.705 7        48.900    21617001.047    88518134.704 8
        37.700
  26098924.719   137150687.850 2        33.700    26098933.828   106870772.550 5
        13.900
  25458079.797   133783077.009 1        31.800

  22703857.703   119309564.761 7        48.400    22703863.520    92968507.822 8
        35.300
  25681788.367   134958602.974 4        37.700    25681797.813   105162530.675 6
        19.300
  20671043.242   108627165.726 7        49.600    20671045.527    84644594.864 8
        40.700
  25338433.703   133154342.785 4        38.300    25338441.227   103756690.554 6
        19.900
  24131186.148   126810109.418 6        44.700    24131191.641    98813241.144 7
        29.100
  24469685.773   128589090.815 5        40.100    24469692.836   100199326.784 6
        21.800
  21503111.617   115148500.681 7        47.800    21503115.355    89559801.671 9
        43.400
  19277051.742   103047767.691 7        46.200    19277056.047    80147683.965 9
        47.900
  21728332.570   115946947.844 7        48.700    21728336.629    90180741.926 8
        36.700
  22964495.430   122629252.654 4        38.400    22964500.527    95378261.578 8
        37.000
  21984902.000   117191925.144 6        43.500    21984909.441    91149321.905 8
        35.500
  23410816.461   125100227.780 6        42.300    23410824.336    97300261.789 8
        35.800
  23745980.016   127024786.678 5        39.800    23745987.398    98797138.887 8
        37.500
  20312070.945   108617683.988 7        46.000    20312077.059    84480530.891 9
        47.200
  20480265.031   109594084.863 8        51.700    20480268.180    85239850.170 9
        45.100
  24032248.648   128285970.585 6        44.200    24032253.504    99777823.525 8
        33.700
 15 11 13 14 42  0.0000000  0 23G01G02G03G06G09G11G12G17G19G23G25G31
                                G32R04R05R06R13R14R15R19R20R21R22
  23930496.789   125755568.415 6        42.200    23930505.906    97991391.223 6
        25.600
  24965086.117   131192437.715 5        39.200    24965091.344   102227905.796 6
        20.600
  21358973.055   112242126.166 7        49.400    21358979.496    87461507.400 8
        39.700
  21629518.320   113663865.894 7        48.300    21629525.992    88569361.429 8
        38.900
  21601515.688   113516832.984 7        48.700    21601522.969    88454755.516 8
        38.500
  26121531.383   137269485.798 3        37.000    26121540.473   106963342.247 5
        16.300
  25468874.773   133839813.146 1        31.300

  22718024.875   119384017.547 7        48.400    22718031.406    93026522.936 8
        34.900
  25703348.789   135071900.516 4        38.600    25703358.367   105250814.224 6
        19.300
  20668852.281   108615648.828 7        50.800    20668853.863    84635620.674 9
        41.200
  25340151.773   133163373.858 5        40.000    25340159.883   103763727.876 6
        21.100
  24142439.242   126869248.292 6        45.000    24142445.633    98859323.367 7
        28.800
  24488635.203   128688672.102 5        40.900    24488642.410   100276922.585 6
        22.000
  21520859.742   115243540.645 7        47.800    21520863.246    89633721.630 9
        43.500
  19278011.328   103052897.683 7        45.800    19278015.348    80151673.971 9
        47.300
  21710858.688   115853705.790 8        49.600    21710861.688    90108220.411 8
        36.700
  22975140.359   122686095.681 4        38.800    22975145.438    95422472.867 8
        37.500
  21974116.391   117134432.496 6        44.100    21974124.250    91104605.446 8
        36.000
  23388038.234   124978513.338 6        41.100    23388047.684    97205595.203 8
        37.100
  23772335.461   127165774.728 5        39.800    23772343.301    98906796.016 8
        37.400
  20326539.305   108695054.103 6        45.000    20326545.680    84540707.599 9
        47.200
  20471553.000   109547463.535 8        50.800    20471556.570    85203589.154 9
        45.500
  24008828.609   128160954.790 6        44.500    24008834.832    99680588.908 8
        34.100
 15 11 13 14 42 30.0000000  0 23G01G02G03G06G09G11G12G17G19G23G25G31
                                G32R04R05R06R13R14R15R19R20R21R22
  23951259.766   125864675.027 5        41.800    23951269.102    98076409.243 7
        26.100
  24945508.586   131089555.341 5        39.300    24945513.992   102147737.815 6
        22.000
  21371185.156   112306300.887 7        50.000    21371192.039    87511513.667 8
        39.600
  21616241.336   113594096.150 7        48.400    21616249.055    88514995.424 8
        38.600
  21586110.586   113435877.077 7        49.200    21586117.410    88391673.066 8
        38.900
  26144125.031   137388213.100 3        36.300    26144134.398   107055856.643 5
        15.600
  25479756.898   133896988.422 1        30.100

  22732269.570   119458870.982 7        48.600    22732276.367    93084850.213 8
        35.200
  25724894.305   135185118.332 4        38.900    25724903.879   105339035.644 6
        21.100
  20666755.867   108604633.933 7        50.600    20666757.695    84627037.643 8
        40.800
  25341978.375   133172975.436 5        41.100    25341986.438   103771209.635 6
        20.600
  24153787.453   126928880.366 6        44.300    24153793.035    98905789.941 7
        29.700
  24507591.867   128788289.263 5        41.500    24507599.520   100354546.310 6
        22.600
  21538639.727   115338761.584 7        46.700    21538645.008    89707782.348 9
        43.300
  19279060.625   103058507.957 7        46.200    19279065.184    80156037.523 9
        47.900
  21693434.234   115760722.781 8        49.900    21693436.961    90035900.332 8
        36.900
  22985920.352   122743659.180 4        37.800    22985924.543    95467244.513 8
        36.800
  21963464.906   117077656.333 6        43.000    21963473.453    91060446.255 8
        36.200
  23365301.664   124857015.415 6        42.400    23365310.109    97111096.973 8
        36.900
  23798703.836   127306821.156 5        40.700    23798710.613    99016498.524 8
        36.300
  20341136.766   108773110.624 7        45.500    20341141.555    84601418.182 9
        47.400
  20462986.688   109501624.276 8        51.500    20462990.629    85167936.419 9
        46.200
  23985453.203   128036178.988 6        44.500    23985459.539    99583540.922 8
        34.400
 15 11 13 14 43  0.0000000  0 23G01G02G03G06G09G11G12G17G19G23G25G31
                                G32R04R05R06R13R14R15R19R20R21R22
  23972049.242   125973925.188 6        42.500    23972059.258    98161539.153 6
        25.000
  24925942.500   130986731.791 5        39.900    24925946.188   102067615.676 6
        21.800
  21383451.070   112370754.571 7        50.800    21383456.867    87561737.292 8
        39.900
  21603038.391   113524715.791 7        48.100    21603046.035    88460932.837 8
        38.600
  21570778.078   113355303.515 7        50.300    21570784.352    88328888.534 8
        38.600
  26166704.961   137506867.228 2        33.700    26166714.332   107148314.036 5
        13.900
  25490721.273   133954600.318 1        30.100

  22746589.547   119534122.432 7        48.100    22746595.660    93143487.643 8
        34.400
  25746423.313   135298254.115 4        38.200    25746433.141   105427193.175 6
        21.100
  20664755.047   108594120.981 7        50.700    20664757.344    84618845.744 9
        41.100
  25343914.125   133183146.950 5        40.300    25343922.457   103779135.515 6
        19.000
  24165228.313   126989003.375 6        45.500    24165233.418    98952639.059 7
        28.400
  24526554.734   128887941.389 5        40.900    24526562.820   100432197.293 6
        21.800
  21556455.859   115434162.039 7        47.000    21556460.637    89781982.691 9
        43.200
  19280200.180   103064597.576 7        46.400    19280204.414    80160773.902 9
        47.900
  21676057.969   115667999.296 8        49.200    21676060.578    89963782.142 8
        36.200
  22996833.563   122801940.646 4        38.300    22996838.930    95512574.591 8
        36.900
  21952948.789   117021599.185 6        43.100    21952957.480    91016846.303 8
        35.700
  23342606.719   124735739.598 6        42.400    23342615.535    97016771.498 8
        37.100
  23825081.227   127447922.513 5        40.500    23825087.828    99126243.771 8
        35.700
  20355860.133   108851850.589 7        45.200    20355866.387    84662660.336 9
        47.400
  20454566.461   109456569.488 8        51.900    20454571.000    85132893.832 9
        46.100
  23962125.750   127911646.934 7        45.800    23962129.773    99486682.581 8
        34.400
 15 11 13 14 43 30.0000000  0 22G01G02G03G06G09G12G17G19G23G25G31G32
                                R04R05R06R13R14R15R19R20R21R22
  23992865.648   126083317.008 5        41.700    23992875.609    98246779.386 6
        25.900
  24906386.844   130883968.751 5        40.900    24906391.277   101987540.682 6
        22.900
  21395768.406   112435486.232 7        50.500    21395775.352    87612177.550 8
        40.500
  21589910.375   113455726.967 7        49.000    21589917.520    88407175.337 8
        38.800
  21555518.281   113275113.918 7        50.600    21555524.258    88266403.189 8
        38.800
  25501765.961   134012647.074 1        31.800

  22760984.258   119609769.076 7        48.400    22760990.594    93202432.991 8
        34.300
  25767935.742   135411305.481 4        38.400    25767946.422   105515284.809 6
        20.100
  20662849.977   108584109.658 7        51.000    20662852.258    84611044.726 8
        41.000
  25345957.648   133193888.147 4        39.000    25345966.293   103787505.356 6
        20.900
  24176762.039   127049615.512 6        44.700    24176768.359    98999869.332 7
        29.800
  24545524.547   128987627.503 5        41.500    24545532.074   100509874.752 6
        22.200
  21574303.320   115529740.142 7        45.500    21574309.281    89856321.206 9
        43.600
  19281428.148   103071165.117 7        45.600    19281433.133    80165882.002 9
        47.900
  21658729.484   115575537.019 7        48.900    21658733.102    89891867.112 8
        36.600
  23007881.500   122860937.349 4        37.300    23007887.262    95558460.957 8
        37.600
  21942569.375   116966264.639 6        43.200    21942576.391    90973808.379 8
        35.000
  23319953.492   124614690.366 6        43.400    23319962.168    96922622.255 8
        36.700
  23851468.516   127589075.058 5        40.600    23851476.129    99236028.896 8
        37.200
  20370712.680   108931270.541 6        44.800    20370718.676    84724431.356 9
        46.700
  20446293.875   109412301.497 8        51.400    20446298.582    85098463.198 9
        46.600
  23938843.359   127787362.314 6        44.100    23938848.344    99390016.689 8
        35.300
 15 11 13 14 44  0.0000000  0 21G01G02G03G06G09G17G19G23G25G31G32R04
                                R05R06R13R14R15R19R20R21R22
  24013709.500   126192849.040 5        40.700    24013718.949    98332128.931 6
        26.000
  24886843.250   130781268.258 5        41.100    24886848.676   101907514.443 6
        24.100
  21408139.352   112500495.211 7        50.600    21408145.914    87662833.880 8
        39.900
  21576857.461   113387132.197 7        48.300    21576864.316    88353724.896 8
        38.700
  21540332.313   113195310.051 7        50.500    21540337.996    88204218.408 8
        38.400
  22775454.828   119685808.936 7        47.800    22775460.430    93261684.765 8
        34.000
  25789433.523   135524269.852 4        38.700    25789442.805   105603308.732 6
        21.300
  20661040.281   108574600.128 7        50.300    20661042.418    84603634.716 9
        41.100
  25348110.563   133205198.583 4        38.100    25348117.992   103796318.681 6
        20.100
  24188389.422   127110715.024 6        45.600    24188394.652    99047479.339 7
        27.300
  24564500.813   129087346.991 5        41.400    24564507.750   100587578.254 6
        20.100
  21592184.969   115625494.280 7        46.000    21592191.063    89930796.626 9
        44.300
  19282746.188   103078210.503 7        45.700    19282750.902    80171361.766 9
        47.800
  21641451.539   115483336.880 8        49.500    21641455.020    89820155.967 8
        36.900
  23019062.211   122920646.968 4        38.300    23019069.156    95604901.780 8
        37.900
  21932324.758   116911655.760 6        42.700    21932331.566    90931334.874 8
        34.700
  23297343.266   124493873.069 6        42.400    23297352.758    96828653.327 8
        36.100
  23877865.602   127730275.476 6        41.700    23877872.219    99345851.112 8
        36.800
  20385691.422   109011367.799 7        46.000    20385697.195    84786729.181 9
        47.300
  20438169.336   109368823.059 8        51.500    20438173.602    85064646.655 9
        46.400
  23915606.672   127663329.780 6        43.700    23915613.297    99293546.888 8
        36.400
 15 11 13 14 44 30.0000000  0 21G01G02G03G06G09G17G19G23G25G31G32R04
                                R05R06R13R14R15R19R20R21R22
  24034579.320   126302519.280 5        40.500    24034588.793    98417586.144 6
        25.000
  24867312.039   130678632.007 5        41.300    24867317.238   101827538.236 6
        22.800
  21420562.414   112565780.300 7        49.500    21420569.559    87713705.371 8
        39.900
  21563879.805   113318933.445 7        49.300    21563886.586    88300583.055 8
        38.800
  21525219.453   113115893.344 7        50.100    21525224.910    88142335.302 8
        38.300
  22789998.766   119762238.706 7        48.700    22790004.547    93321240.349 8
        34.600
  25810913.555   135637144.766 4        39.000    25810921.883   105691262.920 6
        20.400
  20659326.000   108565591.831 7        50.500    20659328.598    84596615.273 8
        40.900
  25350370.742   133217077.581 5        39.400    25350378.789   103805575.067 6
        19.600
  24200108.391   127172299.647 5        41.700    24200114.031    99095467.381 7
        28.100
  24583482.656   129187098.739 5        41.100    24583490.043   100665306.879 6
        21.500
  21610099.969   115721422.756 7        46.200    21610104.680    90005407.635 9
        44.600
  19284153.641   103085732.575 7        46.300    19284158.105    80177212.282 9
        48.200
  21624223.234   115391399.547 8        50.000    21624225.996    89748649.217 8
        36.200
  23030378.094   122981066.299 4        38.400    23030383.172    95651894.613 8
        38.100
  21922215.758   116857775.195 6        42.400    21922223.262    90889427.828 8
        35.300
  23274779.227   124373291.907 6        43.400    23274786.219    96734868.090 8
        36.100
  23904269.234   127871519.647 6        42.700    23904275.055    99455707.417 8
        33.600
  20400797.156   109092138.878 7        45.200    20400801.902    84849551.087 9
        47.300
  20430191.906   109326136.040 8        51.900    20430196.285    85031445.660 9
        46.200
  23892419.633   127539552.952 6        43.700    23892426.059    99197275.968 8
        37.400
 15 11 13 14 45  0.0000000  0 21G01G02G03G06G09G17G19G23G25G31G32R04
                                R05R06R13R14R15R19R20R21R22
  24055474.719   126412325.809 5        41.100    24055484.496    98503149.603 6
        25.800
  24847794.031   130576061.852 6        42.600    24847798.910   101747613.529 6
        22.500
  21433037.930   112631340.430 7        49.800    21433044.684    87764791.162 8
        39.500
  21550977.094   113251132.796 7        49.400    21550984.578    88247751.409 8
        38.600
  21510180.945   113036865.177 7        49.900    21510186.941    88080754.951 8
        38.200
  22804616.070   119839055.307 7        48.000    22804621.816    93381097.393 8
        34.100
  25832374.938   135749927.679 4        38.900    25832384.359   105779145.426 6
        19.600
  20657706.883   108557084.179 7        50.800    20657709.496    84589985.940 9
        41.100
  25352739.195   133229524.467 4        37.500    25352746.996   103815273.996 6
        18.600
  24211918.961   127234366.953 6        42.200    24211924.539    99143831.566 7
        28.400
  24602471.602   129286881.759 5        40.900    24602478.539   100743059.892 6
        22.500
  21628046.125   115817523.720 7        46.200    21628050.938    90080152.790 9
        44.900
  19285650.039   103093730.205 7        45.800    19285653.910    80183432.664 9
        48.100
  21607043.281   115299726.001 8        49.400    21607046.711    89677347.652 8
        37.900
  23041826.461   123042192.582 4        38.300    23041830.117    95699437.287 8
        39.100
  21912245.242   116804625.534 6        42.700    21912253.109    90848089.272 8
        35.600
  23252259.414   124252951.810 6        43.000    23252266.781    96641270.348 8
        36.400
  23930680.523   128012804.327 6        41.600    23930688.664    99565595.257 8
        36.400
  20416026.633   109173580.299 7        45.700    20416032.336    84912894.374 9
        47.900
  20422362.227   109284242.672 8        51.200    20422367.445    84998861.966 9
        46.900
  23869280.758   127416035.482 6        43.000    23869287.176    99101206.849 8
        38.100
 15 11 13 14 45 30.0000000  0 21G01G02G03G06G09G17G19G23G25G31G32R04
                                R05R06R13R14R15R19R20R21R22
  24076395.820   126522266.855 5        41.600    24076406.039    98588817.877 6
        24.500
  24828288.539   130473559.251 5        41.800    24828293.930   101667741.488 6
        22.600
  21445565.469   112697174.701 7        50.300    21445572.609    87816090.593 8
        39.800
  21538151.617   113183732.503 7        49.700    21538158.973    88195231.745 8
        39.000
  21495215.977   112958227.127 7        48.900    21495222.691    88019478.604 8
        37.900
  22819307.359   119916256.431 7        48.200    22819313.395    93441254.041 8
        34.800
  25853819.820   135862616.408 5        39.100    25853829.344   105866954.443 6
        22.000
  20656183.359   108549077.416 7        51.100    20656185.891    84583746.912 9
        41.200
  25355215.586   133242538.787 4        37.200    25355223.828   103825415.069 5
        17.800
  24223821.773   127296914.912 6        43.300    24223827.289    99192570.280 7
        29.000
  24621465.188   129386695.143 5        41.400    24621471.973   100820836.559 6
        20.900
  21646024.008   115913795.103 7        46.700    21646028.914    90155030.527 9
        44.500
  19287234.484   103102202.650 7        45.500    19287238.793    80190022.354 9
        48.000
  21589913.469   115208317.272 8        50.000    21589917.672    89606252.033 8
        36.500
  23053404.398   123104023.025 4        39.000    23053409.277    95747527.646 8
        39.900
  21902411.828   116752210.351 6        41.400    21902420.398    90807321.967 8
        35.400
  23229784.641   124132856.048 6        41.300    23229792.684    96547862.654 8
        38.400
  23957100.820   128154125.686 6        43.100    23957107.594    99675511.534 8
        36.100
  20431381.688   109255688.973 7        46.300    20431386.770    84976756.638 9
        47.000
  20414682.086   109243145.300 8        50.100    20414687.480    84966897.353 9
        46.900
  23846191.289   127292781.254 6        44.200    23846197.125    99005342.421 8
        38.400
 15 11 13 14 46  0.0000000  0 21G01G02G03G06G09G17G19G23G25G31G32R04
                                R05R06R13R14R15R19R20R21R22
  24097341.945   126632340.569 5        40.400    24097352.840    98674589.525 6
        24.200
  24808795.719   130371126.164 5        40.700    24808800.520   101587923.602 6
        22.500
  21458145.375   112763281.998 7        50.300    21458152.762    87867602.762 8
        39.900
  21525402.500   113116734.660 7        50.200    21525409.520    88143025.678 8
        39.600
  21480325.891   112879980.678 7        48.600    21480332.969    87958507.393 8
        38.400
  22834071.102   119993839.094 7        48.400    22834077.340    93501707.976 8
        34.900
  25875245.000   135975208.552 4        38.900    25875254.930   105954688.241 6
        20.900
  20654754.859   108541570.945 7        51.400    20654757.320    84577897.726 9
        41.600
  25357800.047   133256119.729 4        38.300    25357808.137   103835997.672 6
        18.600
  24235815.609   127359941.573 6        42.700    24235820.316    99241681.981 7
        27.300
  24640464.633   129486538.021 5        40.500    24640471.582   100898636.169 6
        20.600
  21664033.711   116010235.388 7        47.500    21664038.137    90230039.609 9
        44.000
  19288908.828   103111149.089 7        45.800    19288912.883    80196980.710 9
        48.000
  21572832.852   115117174.161 8        49.900    21572836.637    89535363.015 8
        36.700
  23065114.648   123166554.723 4        38.100    23065119.605    95796163.431 8
        39.500
  21892718.242   116700531.875 6        41.600    21892725.035    90767127.667 8
        35.200
  23207355.305   124013009.782 6        42.500    23207365.027    96454649.066 8
        38.700
  23983523.867   128295480.116 6        43.300    23983531.234    99785453.607 8
        35.100
  20446860.180   109338461.535 7        45.900    20446865.555    85041135.261 9
        47.300
  20407152.070   109202845.925 8        51.000    20407156.590    84935553.418 9
        47.400
  23823151.563   127169794.661 6        43.900    23823157.340    98909686.216 8
        38.300
 15 11 13 14 46 30.0000000  0 21G01G02G03G06G09G17G19G23G25G31G32R04
                                R05R06R13R14R15R19R20R21R22
  24118313.688   126742545.286 5        40.400    24118324.035    98760463.223 6
        22.500
  24789317.078   130268764.910 5        41.300    24789320.848   101508161.714 6
        22.000
  21470777.063   112829661.497 7        50.200    21470784.434    87919327.029 8
        39.400
  21512730.141   113050141.588 7        50.900    21512738.043    88091135.012 8
        38.800
  21465511.352   112802127.429 7        49.400    21465518.477    87897842.577 8
        39.200
  22848906.070   120071800.461 7        47.500    22848912.133    93562457.028 8
        33.100
  25896651.336   136087701.653 3        35.200    25896661.500   106042344.819 6
        18.600
  20653421.828   108534564.517 7        51.800    20653424.184    84572438.180 9
        41.300
  25360492.406   133270266.786 4        37.300    25360500.844   103847021.354 6
        18.600
  24247900.055   127423444.625 6        42.700    24247904.762    99291164.905 7
        26.200
  24659469.570   129586409.568 5        39.700    24659477.180   100976458.132 6
        19.900
  21682074.984   116106843.137 7        47.300    21682078.961    90305178.955 9
        44.000
  19290670.461   103120568.228 7        46.600    19290674.430    80204306.708 9
        48.000
  21555803.047   115026297.764 8        49.400    21555806.320    89464681.458 8
        37.200
  23076954.625   123229785.139 4        37.900    23076960.469    95845342.647 8
        40.200
  21883160.461   116649593.356 6        41.600    21883168.621    90727508.906 8
        35.300
  23184976.719   123893417.796 6        42.000    23184985.469    96361633.254 8
        39.400
  24009955.008   128436863.951 5        40.900    24009962.461    99895418.485 8
        35.300
  20462461.945   109421894.673 7        45.800    20462467.727    85106027.659 9
        47.000
  20399770.148   109163346.997 8        51.100    20399775.691    84904832.058 9
        46.800
  23800162.750   127047079.300 6        43.700    23800168.566    98814240.969 8
        38.400
 15 11 13 14 47  0.0000000  0 21G01G02G03G06G09G17G19G23G25G31G32R04
                                R05R06R13R14R15R19R20R21R22
  24139309.898   126852879.560 5        39.900    24139319.625    98846437.886 6
        24.600
  24769851.492   130166477.322 5        40.700    24769856.547   101428457.227 6
        23.000
  21483460.781   112896312.607 7        51.100    21483467.773    87971262.956 8
        39.800
  21500135.797   112983955.854 7        50.300    21500143.047    88039561.749 8
        39.400
  21450772.023   112724669.295 7        50.500    21450778.238    87837485.638 8
        39.400
  22863813.211   120150138.168 7        48.400    22863819.789    93623499.325 8
        33.700
  25918039.570   136200093.597 3        36.700    25918048.727   106129922.583 6
        19.000
  20652183.813   108528058.110 7        51.000    20652185.945    84567368.266 9
        41.100
  25363291.961   133284979.693 3        37.000    25363300.098   103858486.010 6
        18.600
  24260073.547   127487422.313 6        42.600    24260079.367    99341017.690 6
        25.800
  24678479.844   129686309.165 4        38.400    24678487.027   101054302.030 6
        19.600
  21700147.102   116203616.870 7        48.100    21700151.316    90380447.382 9
        44.000
  19292521.102   103130460.076 7        46.100    19292525.359    80212000.376 9
        48.600
  21538823.625   114935689.125 8        50.400    21538825.742    89394208.125 8
        36.100
  23088926.273   123293711.336 4        37.400    23088932.324    95895063.019 8
        40.600
  21873745.188   116599397.429 5        40.400    21873752.586    90688467.712 8
        34.800
  23162644.641   123774085.174 6        41.100    23162653.371    96268819.168 8
        38.900
  24036391.070   128578274.246 6        43.900    24036398.508   100005404.025 8
        34.400
  20478187.109   109505985.297 7        45.200    20478194.098    85171431.435 9
        47.200
  20392540.016   109124650.772 8        51.800    20392544.336    84874734.994 9
        46.700
  23777225.094   126924639.662 6        43.200    23777231.805    98719010.218 8
        38.500
 15 11 13 14 47 30.0000000  0 21G01G02G03G06G09G17G19G23G25G31G32R04
                                R05R06R13R14R15R19R20R21R22
  24160329.102   126963341.307 5        40.800    24160339.641    98932511.891 6
        23.500
  24750401.422   130064265.166 5        40.500    24750406.422   101348811.518 6
        22.300
  21496195.281   112963234.124 7        50.600    21496202.266    88023409.583 8
        39.400
  21487618.344   112918179.408 7        50.000    21487625.766    87988307.412 8
        40.000
  21436107.625   112647607.528 7        51.000    21436113.832    87777437.548 8
        39.000
  22878791.313   120228849.236 7        47.900    22878797.391    93684832.541 7
        32.400
  25939408.219   136312382.060 3        35.600    25939417.813   106217419.640 6
        18.600
  20651040.922   108522051.419 8        52.600    20651042.410    84562687.739 9
        41.600
  25366198.906   133300257.595 3        36.300    25366207.305   103870390.886 6
        18.300
  24272337.492   127551872.295 5        40.000    24272343.840    99391238.461 6
        25.300
  24697495.172   129786235.905 4        38.300    24697501.766   101132166.994 5
        17.800
  21718249.086   116300554.738 7        47.000    21718254.145    90455843.473 9
        44.000
  19294459.328   103140823.252 7        45.700    19294464.141    80220060.638 9
        48.600
  21521893.492   114845349.804 8        49.800    21521896.543    89323944.299 8
        36.400
  23101028.500   123358330.568 3        36.600    23101033.309    95945322.426 8
        40.200
  21864467.789   116549947.248 6        41.100    21864475.246    90650006.527 8
        35.200
  23140362.984   123655017.111 6        41.300    23140371.043    96176210.897 8
        39.300
  24062830.883   128719707.235 6        42.600    24062836.922   100115407.239 8
        35.000
  20494035.391   109590729.965 6        44.400    20494041.371    85237343.900 9
        47.700
  20385458.289   109086759.218 8        50.500    20385462.727    84845263.814 9
        47.000
  23754340.820   126802479.450 6        43.400    23754346.188    98623996.810 8
        37.600
 15 11 13 14 48  0.0000000  0 21G01G02G03G06G09G17G19G23G25G31G32R04
                                R05R06R13R14R15R19R20R21R22
  24181373.836   127073928.962 5        40.900    24181383.586    99018684.004 6
        22.800
  24730965.914   129962130.829 5        40.000    24730971.246   101269226.449 6
        22.300
  21508982.211   113030425.277 7        50.900    21508988.613    88075766.309 8
        39.500
  21475179.617   112852814.590 7        50.600    21475187.059    87937373.828 8
        39.900
  21421519.148   112570943.806 7        50.500    21421525.336    87717699.624 8
        39.400
  22893840.594   120307931.090 7        47.900    22893845.629    93746454.698 8
        33.600
  25960756.313   136424564.787 4        37.200    25960765.156   106304834.400 6
        19.300
  20649992.836   108516543.861 7        51.600    20649994.500    84558396.143 9
        41.500
  25369213.313   133316100.071 4        38.300    25369222.281   103882735.728 6
        20.100
  24284691.461   127616792.279 4        38.300    24284697.359    99441825.473 6
        25.300
  24716514.422   129886189.071 4        37.500    24716522.188   101210052.539 5
        17.800
  21736382.180   116397655.202 7        47.600    21736387.578    90531366.027 9
        43.600
  19296485.852   103151656.969 7        46.000    19296490.996    80228486.863 9
        48.600
  21505013.578   114755280.093 8        49.200    21505017.246    89253890.125 8
        37.200
  23113257.641   123423639.860 4        37.100    23113263.906    95996118.568 8
        40.900
  21855332.266   116501245.582 5        40.000    21855338.949    90612127.525 8
        34.800
  23118130.742   123536216.762 5        40.700    23118139.566    96083810.796 8
        39.600
  24089273.625   128861159.423 6        42.400    24089282.055   100225425.292 8
        35.300
  20510004.016   109676125.365 7        45.400    20510011.094    85303762.488 9
        47.900
  20378528.484   109049674.591 8        51.700    20378533.266    84816420.238 9
        46.800
  23731508.766   126680603.061 6        43.600    23731514.863    98529204.148 8
        39.000
 15 11 13 14 48 30.0000000  0 21G01G02G03G06G09G17G19G23G25G31G32R04
                                R05R06R13R14R15R19R20R21R22
  24202442.133   127184640.292 5        40.900    24202451.641    99104952.462 6
        22.500
  24711544.883   129860075.409 5        39.700    24711550.422   101189702.901 6
        23.600
  21521818.781   113097884.687 7        51.400    21521825.137    88128332.072 8
        39.500
  21462820.242   112787863.162 7        50.000    21462827.332    87886762.358 8
        39.800
  21407006.320   112494679.221 7        51.100    21407012.566    87658272.709 8
        39.300
  22908959.711   120387380.614 7        47.500    22908965.504    93808363.346 8
        33.100
  25982082.750   136536639.216 3        36.800    25982093.016   106392164.642 5
        16.900
  20649039.156   108511535.020 8        52.300    20649041.469    84554493.164 9
        41.400
  25372336.289   133332505.726 4        38.900    25372343.875   103895519.402 6
        19.300
  24297134.734   127682180.175 6        42.200    24297140.426    99492777.114 6
        25.300
  24735540.047   129986167.257 3        36.700    24735547.207   101287957.671 5
        17.400
  21754543.734   116494916.176 7        47.800    21754549.707    90607013.425 9
        43.900
  19298600.508   103162959.819 7        45.900    19298605.246    80237277.964 9
        48.900
  21488186.063   114665481.154 8        49.700    21488189.105    89184046.568 8
        37.100
  23125615.953   123489635.765 4        37.400    23125622.324    96047448.733 8
        40.400
  21846336.008   116453294.270 6        41.300    21846343.199    90574832.134 8
        35.500
  23095950.305   123417690.371 5        39.500    23095958.672    95991623.757 8
        38.800
  24115720.156   129002626.691 6        41.600    24115726.535   100335455.127 7
        32.500
  20526096.055   109762167.806 7        45.500    20526101.051    85370684.328 9
        47.600
  20371749.633   109013398.496 8        51.300    20371753.672    84788205.523 9
        46.200
  23708731.195   126559014.026 6        42.900    23708737.070    98434634.970 8
        38.500
 15 11 13 14 49  0.0000000  0 22G01G02G03G06G09G12G17G19G23G25G31G32
                                R04R05R06R13R14R15R19R20R21R22
  24223531.852   127295474.010 5        39.800    24223542.688    99191316.317 6
        21.700
  24692140.094   129758101.251 5        39.600    24692144.801   101110242.681 6
        22.600
  21534706.836   113165611.939 7        51.200    21534713.492    88181106.545 8
        38.800
  21450539.320   112723327.870 7        50.600    21450546.109    87836475.150 8
        39.500
  21392569.641   112418815.724 7        51.100    21392576.039    87599158.340 8
        40.000
  25628589.188   134679084.649 1        31.300

  22924147.602   120467195.030 7        48.000    22924152.902    93870556.337 7
        33.000
  26003388.805   136648603.160 2        34.900    26003399.352   106479408.840 6
        18.300
  20648181.422   108507024.870 8        52.100    20648183.113    84550978.765 9
        41.400
  25375564.500   133349474.388 2        34.800    25375572.637   103908741.827 5
        17.800
  24309667.195   127748034.235 6        42.300    24309671.844    99544092.001 7
        26.200
  24754569.523   130086170.140 2        34.800    24754576.977   101365881.971 5
        16.900
  21772738.453   116592336.920 7        47.500    21772742.590    90682785.074 9
        42.400
  19300803.156   103174731.723 7        46.500    19300807.168    80246433.895 9
        48.600
  21471408.523   114575954.081 8        50.400    21471411.797    89114414.462 8
        37.100
  23138103.344   123556316.021 4        37.500    23138109.195    96099311.164 8
        40.800
  21837482.664   116406096.893 5        40.200    21837489.926    90538123.122 8
        35.300
  23073820.328   123299441.181 4        39.000    23073830.125    95899652.323 8
        39.100
  24142168.695   129144106.243 6        42.400    24142175.938   100445494.563 8
        34.400
  20542305.625   109848854.443 7        45.400    20542311.801    85438107.237 9
        46.600
  20365121.828   108977933.471 8        51.700    20365125.719    84760621.634 9
        45.500
  23686008.055   126437716.699 6        42.600    23686014.547    98340292.715 8
        39.100
 15 11 13 14 49 30.0000000  0 22G01G02G03G06G09G12G17G19G23G25G31G32
                                R04R05R06R13R14R15R19R20R21R22
  24244646.617   127406428.017 5        40.200    24244656.875    99277773.872 6
        21.800
  24672749.656   129656210.062 5        39.200    24672754.875   101030847.113 6
        21.700
  21547645.766   113233605.666 7        50.200    21547652.523    88234088.659 8
        39.200
  21438337.984   112659210.458 7        50.000    21438345.672    87786513.565 8
        39.800
  21378210.094   112343354.496 7        51.300    21378216.180    87540357.421 8
        40.100
  25640588.906   134742147.004 1        29.600

  22939404.547   120547371.606 7        47.500    22939410.750    93933031.531 7
        32.300
  26024675.305   136760453.929 4        37.500    26024684.094   106566564.857 6
        19.000
  20647417.492   108503012.712 7        50.800    20647419.781    84547852.425 9
        41.300
  25378900.102   133367004.994 4        37.200    25378909.125   103922402.126 6
        19.900
  24322286.133   127814351.555 6        42.600    24322291.883    99595767.870 6
        25.100
  24773605.078   130186196.717 4        37.800    24773612.621   101443824.744 5
        17.400
  21790960.219   116689914.832 7        47.600    21790964.180    90758678.989 9
        42.400
  19303093.648   103186971.337 7        45.800    19303096.648    80255953.591 9
        48.500
  21454681.375   114486699.515 7        48.400    21454685.508    89044994.322 8
        37.800
  23150718.617   123623676.983 4        37.300    23150723.789    96151703.043 9
        41.100
  21828767.695   116359655.508 5        39.400    21828777.133    90502002.110 8
        35.300
  23051743.477   123181474.111 5        40.500    23051752.980    95807900.315 8
        38.200
  24168617.641   129285594.206 5        40.700    24168625.676   100555540.447 8
        35.100
  20558637.203   109936180.978 6        44.900    20558642.297    85506027.827 9
        46.600
  20358646.156   108943281.091 8        51.400    20358650.242    84733669.785 9
        46.000
  23663339.445   126316714.626 5        40.500    23663345.559    98246180.099 8
        38.600
 15 11 13 14 50  0.0000000  0 22G01G02G03G06G09G12G17G19G23G25G31G32
                                R04R05R06R13R14R15R19R20R21R22
  24265783.281   127517500.774 5        40.000    24265793.695    99364323.933 6
        22.000
  24653376.398   129554404.186 4        38.800    24653381.754   100951518.022 6
        22.600
  21560634.844   113301865.308 7        49.100    21560641.906    88287277.965 8
        38.500
  21426217.094   112595513.496 7        48.500    21426224.582    87736879.603 8
        40.200
  21363927.063   112268297.314 7        49.000    21363933.395    87481871.333 8
        39.600
  25652666.367   134805611.625 2        33.500

  22954730.086   120627907.503 7        47.300    22954736.465    93995786.698 7
        32.800
  26045937.289   136872189.812 5        40.100    26045947.348   106653631.304 6
        20.900
  20646749.211   108499498.785 7        48.800    20646750.945    84545114.305 9
        41.400
  25382343.273   133385097.036 4        37.900    25382350.938   103936499.829 6
        19.600
  24334993.781   127881130.412 6        42.400    24334999.172    99647803.387 7
        26.200
  24792643.773   130286246.226 4        37.500    24792651.590   101521785.373 5
        16.900
  21809209.961   116787649.183 7        47.300    21809215.004    90834694.574 9
        41.800
  19305469.914   103199677.813 7        45.700    19305473.902    80265836.412 9
        48.500
  21438006.922   114397718.975 7        48.900    21438010.316    88975787.295 8
        37.500
  23163460.234   123691716.284 4        37.600    23163465.844    96204622.508 8
        40.700
  21820197.789   116313973.002 5        40.100    21820207.043    90466471.338 8
        36.000
  23029722.750   123063795.472 6        41.300    23029730.383    95716372.548 8
        37.100
  24195066.570   129427087.482 4        38.900    24195077.727   100665590.473 8
        36.300
  20575086.109   110024144.767 7        45.400    20575092.301    85574444.057 9
        47.000
  20352322.555   108909443.489 8        50.000    20352327.078    84707351.669 9
        46.800
  23640726.086   126196012.432 4        38.600    23640734.891    98152300.771 8
        38.200
 15 11 13 14 50 30.0000000  0 22G01G02G03G06G09G12G17G19G23G25G31G32
                                R04R05R06R13R14R15R19R20R21R22
  24286941.391   127628690.267 5        40.500    24286951.934    99450965.000 6
        22.500
  24634020.898   129452685.122 5        39.600    24634025.648   100872256.590 6
        24.400
  21573674.797   113370389.651 7        49.300    21573681.848    88340673.531 8
        38.300
  21414176.406   112532238.874 7        48.600    21414183.914    87687574.738 8
        40.400
  21349721.516   112193645.310 7        49.100    21349727.996    87423700.999 8
        40.300
  25664819.289   134869474.904 2        34.400

  22970123.336   120708799.710 6        46.700    22970129.266    94058819.529 7
        32.300
  26067179.273   136983808.415 5        40.200    26067188.035   106740606.365 6
        20.400
  20646174.555   108496482.146 7        48.400    20646177.008    84542763.679 9
        41.100
  25385892.641   133403749.507 4        37.200    25385900.566   103951034.255 5
        16.900
  24347789.742   127948368.419 6        43.300    24347794.164    99700196.704 6
        24.800
  24811687.375   130386317.747 4        38.200    24811694.387   101599763.177 5
        16.300
  21827489.922   116885537.811 7        46.100    21827494.699    90910830.168 9
        41.400
  19307933.781   103212850.079 7        45.600    19307938.008    80276081.511 9
        49.200
  21421383.078   114309012.997 7        49.000    21421386.277    88906793.832 8
        37.200
  23176328.133   123760430.446 4        38.900    23176333.121    96258066.886 9
        41.100
  21811771.320   116269051.991 5        40.000    21811779.512    90431532.822 8
        35.000
  23007754.500   122946408.588 6        41.100    23007762.328    95625071.700 8
        36.400
  24221519.445   129568582.033 6        41.100    24221527.309   100775641.537 8
        35.300
  20591653.742   110112741.923 6        44.500    20591660.543    85643352.910 9
        47.500
  20346151.891   108876422.384 8        49.400    20346156.547    84681668.602 9
        47.700
  23618172.719   126075613.825 4        38.900    23618179.777    98058657.483 8
        39.400
 15 11 13 14 51  0.0000000  0 22G01G02G03G06G09G12G17G19G23G25G31G32
                                R04R05R06R13R14R15R19R20R21R22
  24308122.125   127739994.913 5        42.000    24308132.711    99537695.781 6
        24.000
  24614681.867   129351055.025 5        40.600    24614685.676   100793064.460 6
        23.800
  21586764.859   113439177.952 7        50.700    21586771.672    88394274.779 8
        39.000
  21402215.883   112469389.005 7        49.500    21402223.520    87638600.859 8
        40.000
  21335592.688   112119400.219 7        50.200    21335599.840    87365847.730 8
        40.800
  25677046.672   134933734.596 2        33.800

  22985584.672   120790045.787 7        47.600    22985591.086    94122128.109 7
        32.000
  26088395.891   137095307.698 5        39.500    26088406.188   106827488.393 6
        19.300
  20645695.414   108493962.519 7        51.200    20645697.520    84540800.341 9
        41.200
  25389548.500   133422961.851 3        36.700    25389556.410   103966004.908 5
        16.300
  24360671.289   128016063.434 6        43.200    24360675.926    99752946.068 7
        26.800
  24830733.773   130486410.620 3        36.700    24830740.828   101677757.638 5
        17.400
  21845799.477   116983579.424 7        47.300    21845803.727    90987084.722 8
        40.800
  19310484.703   103226487.450 7        45.400    19310489.102    80286688.357 9
        49.100
  21404811.750   114220582.931 7        49.000    21404815.258    88838014.969 8
        38.200
  23189321.461   123829816.475 4        38.100    23189327.602    96312033.809 8
        40.200
  21803487.992   116224895.269 5        39.800    21803496.488    90397188.749 8
        35.400
  22985842.727   122829318.099 5        39.900    22985851.500    95534001.392 8
        37.300
  24247970.094   129710074.617 5        39.400    24247979.672   100885691.008 8
        36.000
  20608341.516   110201969.053 7        45.300    20608346.070    85712751.729 9
        46.800
  20340133.703   108844219.822 8        50.800    20340138.941    84656622.184 9
        46.800
  23595676.070   125955522.959 5        40.300    23595681.723    97965253.551 8
        39.300
 15 11 13 14 51 30.0000000  0 22G01G02G03G06G09G12G17G19G23G25G31G32
                                R04R05R06R13R14R15R19R20R21R22
  24329324.570   127851412.831 6        42.100    24329333.379    99624514.855 6
        22.600
  24595359.477   129249515.771 5        40.400    24595363.301   100713943.111 7
        26.200
  21599905.242   113508229.197 7        51.000    21599911.824    88448080.924 8
        39.300
  21390337.469   112406965.895 7        48.800    21390344.934    87589959.514 8
        39.800
  21321541.563   112045563.356 7        49.100    21321548.984    87308312.566 8
        40.600
  25689350.164   134998388.139 1        32.600

  23001112.188   120871642.879 7        48.200    23001118.109    94185710.186 7
        32.500
  26109590.609   137206684.817 4        37.300    26109600.949   106914275.259 5
        17.800
  20645310.297   108491939.437 7        51.500    20645313.266    84539223.920 9
        41.700
  25393310.508   133442733.100 3        36.100    25393318.738   103981411.106 5
        17.400
  24373639.289   128084212.768 6        43.000    24373644.242    99806049.483 6
        23.200
  24849783.539   130586523.937 3        36.800    24849792.441   101755768.028 5
        16.300
  21864136.422   117081772.305 7        47.100    21864140.719    91063456.951 8
        41.000
  19313122.375   103240588.957 7        45.300    19313127.348    80297656.192 9
        49.300
  21388291.453   114132429.661 7        48.400    21388295.461    88769451.370 8
        37.100
  23202439.836   123899871.460 4        38.200    23202445.824    96366521.045 8
        40.600
  21795348.750   116181505.004 5        40.400    21795356.973    90363440.826 8
        35.800
  22963987.102   122712529.239 5        40.200    22963996.488    95443165.680 8
        37.700
  24274420.375   129851561.842 6        41.300    24274429.496   100995736.272 8
        36.500
  20625144.211   110291822.579 7        45.600    20625149.289    85782637.751 9
        46.700
  20334270.000   108812837.422 8        51.800    20334273.988    84632213.666 9
        47.000
  23573238.039   125835744.071 6        41.100    23573243.594    97872092.302 8
        39.400
 15 11 13 14 52  0.0000000  0 22G01G02G03G06G09G12G17G19G23G25G31G32
                                R04R05R06R13R14R15R19R20R21R22
  24350548.828   127962942.246 6        42.300    24350557.383    99711420.771 6
        22.300
  24576054.727   129148069.487 5        41.100    24576059.453   100634894.216 6
        25.800
  21613094.594   113577542.400 7        50.300    21613101.328    88502091.196 8
        39.400
  21378540.391   112344971.753 7        50.400    21378547.684    87541652.429 8
        40.400
  21307568.977   111972136.158 7        50.000    21307576.199    87251096.628 8
        40.300
  25701729.367   135063432.784 4        38.800    25701737.637   105244318.780 5
        14.800
  23016705.281   120953587.836 7        47.500    23016710.961    94249563.355 7
        32.400
  26130760.883   137317938.071 3        36.300    26130772.301   107000965.493 5
        15.600
  20645019.578   108490412.657 7        51.000    20645022.285    84538034.226 9
        41.600
  25397178.813   133463062.380 2        33.400    25397187.664   103997252.259 5
        16.900
  24386693.586   128152815.062 6        42.500    24386699.137    99859505.899 6
        22.300
  24868838.797   130686656.895 3        35.600    24868846.836   101833793.685 5
        15.600
  21882501.297   117180114.929 7        47.100    21882504.742    91139945.644 8
        40.400
  19315846.680   103255153.327 6        45.000    19315851.766    80308984.034 9
        48.600
  21371822.719   114044553.808 8        49.200    21371827.273    88701103.556 8
        37.600
  23215683.586   123970591.950 4        37.800    23215689.813    96421525.894 8
        40.400
  21787353.484   116138883.373 6        41.100    21787360.656    90330290.718 8
        35.300
  22942189.563   122596046.136 6        41.100    22942197.355    95352567.772 8
        37.900
  24300868.477   129993040.222 5        40.600    24300876.633   101105774.755 8
        35.200
  20642062.836   110382298.805 6        44.800    20642069.367    85853008.101 9
        46.200
  20328559.375   108782277.141 8        51.400    20328563.246    84608444.573 9
        46.600
  23550858.219   125716281.082 6        43.300    23550864.668    97779176.701 8
        38.700
 15 11 13 14 52 30.0000000  0 22G01G02G03G06G09G12G17G19G23G25G31G32
                                R04R05R06R13R14R15R19R20R21R22
  24371792.484   128074581.498 5        41.200    24371800.594    99798412.343 6
        20.900
  24556767.969   129046718.135 5        42.000    24556772.551   100555919.267 6
        25.000
  21626333.977   113647116.791 7        49.900    21626341.055    88556304.981 8
        38.300
  21366825.742   112283408.823 7        50.000    21366832.793    87493681.350 8
        40.600
  21293674.539   111899120.171 7        50.200    21293681.324    87194201.108 8
        40.500
  25714180.227   135128865.810 3        36.700    25714189.465   105295305.721 5
        13.900
  23032364.453   121035877.931 7        47.600    23032371.203    94313685.438 7
        32.200
  26151908.852   137429065.124 2        34.300    26151918.684   107087557.345 5
        15.600
  20644823.461   108489381.717 7        51.200    20644826.309    84537230.895 8
        40.500
  25401153.188   133483948.918 3        36.000    25401162.422   104013527.537 6
        18.300
  24399834.742   128221867.570 6        43.000    24399839.387    99913313.039 6
        22.300
  24887897.711   130786808.804 4        37.100    24887905.855   101911834.161 5
        16.300
  21900894.117   117278605.706 7        46.900    21900896.980    91216549.561 8
        40.400
  19318658.672   103270180.130 7        45.200    19318663.035    80320671.548 9
        47.900
  21355407.125   113956956.822 7        48.100    21355412.027    88632972.615 8
        37.500
  23229052.695   124041975.008 4        37.600    23229057.570    96477046.063 8
        40.400
  21779501.664   116097033.114 5        41.000    21779509.656    90297740.568 8
        35.700
  22920449.602   122479873.635 6        42.300    22920456.781    95262211.432 8
        36.400
  24327312.305   130134506.494 4        38.700    24327323.258   101215803.706 8
        35.500
  20659098.633   110473394.465 6        44.900    20659104.508    85923860.225 9
        46.400
  20323001.648   108752540.673 8        51.400    20323005.262    84585316.221 9
        44.900
  23528539.359   125597138.141 6        43.900    23528544.266    97686510.037 8
        38.200
 15 11 13 14 53  0.0000000  0 21G01G02G03G06G09G17G19G23G25G31G32R04
                                R05R06R13R14R15R19R20R21R22
  24393057.227   128186328.841 5        40.300    24393065.941    99885488.084 6
        21.100
  24537499.750   128945463.950 6        42.900    24537503.688   100477020.031 6
        25.800
  21639622.977   113716951.511 7        49.300    21639630.414    88610721.629 8
        39.000
  21355192.617   112222279.412 7        49.300    21355200.262    87446048.074 8
        40.400
  21279858.906   111826516.874 7        50.700    21279865.492    87137627.169 8
        40.400
  23048088.516   121118510.555 7        47.400    23048094.430    94378074.445 7
        31.100
  26173031.445   137540063.911 1        29.100

  20644721.641   108488846.200 7        50.000    20644724.105    84536813.617 9
        41.600
  25405235.828   133505391.759 4        38.300    25405243.078   104030236.215 5
        17.800
  24413060.047   128291368.183 6        43.200    24413064.219    99967469.447 6
        22.000
  24906960.703   130886978.887 4        39.000    24906967.203   101989888.733 5
        16.300
  21919312.719   117377243.515 7        47.500    21919317.719    91293267.841 9
        41.700
  19321555.953   103285668.400 7        45.300    19321559.738    80332717.979 9
        48.100
  21339044.695   113869640.113 8        49.500    21339047.625    88565059.679 8
        37.200
  23242542.773   124114017.643 3        36.900    23242548.941    96533079.209 8
        39.800
  21771795.773   116055956.694 6        41.200    21771803.852    90265792.285 8
        35.800
  22898767.992   122364017.772 5        40.400    22898776.578    95172101.348 8
        36.700
  24353757.953   130275956.929 5        40.600    24353765.750   101325820.275 8
        36.100
  20676248.797   110565105.879 7        45.800    20676255.477    85995191.285 9
        47.200
  20317599.148   108723629.847 8        50.900    20317602.789    84562830.037 9
        46.500
  23506279.773   125478319.240 6        44.300    23506285.750    97594095.389 8
        37.700
 15 11 13 14 53 30.0000000  0 20G01G02G03G06G09G17G23G25G31G32R04R05
                                R06R13R14R15R19R20R21R22
  24414342.766   128298182.435 5        40.300    24414350.898    99972646.623 6
        21.100
  24518250.594   128844308.833 6        43.300    24518254.344   100398198.001 7
        26.800
  21652961.727   113787045.595 7        50.200    21652968.523    88665340.372 8
        38.500
  21343643.086   112161585.585 7        50.100    21343650.684    87398754.214 8
        40.600
  21266121.359   111754327.660 7        50.700    21266128.270    87081375.872 8
        40.300
  23063878.406   121201482.559 7        47.300    23063883.852    94442727.916 7
        32.100
  20644714.039   108488805.737 7        51.000    20644716.348    84536782.092 9
        41.300
  25409421.781   133527390.195 4        38.100    25409428.652   104047377.947 5
        17.800
  24426369.906   128361314.387 6        42.500    24426374.453   100021973.010 6
        22.000
  24926025.492   130987166.338 5        39.200    24926031.828   102067956.865 5
        15.600
  21937761.250   117476026.420 7        47.500    21937764.980    91370098.952 9
        42.400
  19324538.773   103301617.006 7        45.700    19324543.203    80345122.462 9
        48.300
  21322733.477   113782603.675 7        48.600    21322737.367    88497364.764 8
        36.700
  23256156.289   124186716.438 3        37.000    23256162.520    96589622.731 8
        39.900
  21764235.336   116015656.698 5        40.600    21764243.648    90234447.892 8
        36.200
  22877147.852   122248481.508 6        41.100    22877154.969    95082239.894 8
        37.100
  24380195.859   130417388.470 4        38.100    24380205.617   101435822.188 8
        34.000
  20693513.695   110657429.758 6        43.900    20693520.219    86066998.683 9
        46.300
  20312351.203   108695546.250 8        51.100    20312355.785    84540987.255 9
        46.300
  23484082.688   125359828.611 7        45.100    23484088.156    97501936.115 8
        37.600
 15 11 13 14 54  0.0000000  0 20G01G02G03G06G09G17G23G25G31G32R04R05
                                R06R13R14R15R19R20R21R22
  24435646.961   128410140.660 4        38.300    24435657.395   100059886.716 6
        20.400
  24499020.313   128743254.595 6        43.600    24499024.414   100319454.558 6
        25.600
  21666348.953   113857398.181 7        49.900    21666356.258    88720160.541 8
        38.300
  21332176.664   112101329.557 7        50.700    21332183.742    87351801.501 8
        40.500
  21252463.750   111682553.989 7        51.700    21252469.852    87025448.382 8
        40.600
  23079731.250   121284791.072 7        47.200    23079738.750    94507643.593 7
        32.900
  20644800.188   108489259.935 7        50.700    20644802.555    84537136.012 9
        41.100
  25413713.000   133549943.126 3        36.900    25413720.469   104064951.649 5
        16.900
  24439764.734   128431704.707 6        43.200    24439769.863   100076822.642 6
        21.100
  24945093.531   131087370.554 4        38.200    24945100.191   102146038.078 5
        16.900
  21956234.430   117574953.340 7        46.700    21956238.496    91447042.094 9
        42.800
  19327609.602   103318025.264 7        46.700    19327613.348    80357884.451 9
        47.400
  21306475.672   113695849.059 7        48.300    21306479.836    88429889.012 8
        37.400
  23269894.297   124260068.417 4        37.100    23269899.465    96646674.275 8
        40.200
  21756822.016   115976135.489 6        41.200    21756829.684    90203709.230 8
        36.600
  22855587.320   122133272.186 4        38.100    22855596.285    94992632.722 8
        37.800
  24406631.125   130558797.822 6        41.700    24406640.656   101545806.753 8
        35.200
  20710893.758   110750362.279 7        45.100    20710899.246    86139279.479 9
        46.600
  20307257.773   108668291.735 8        51.800    20307262.023    84519789.317 9
        46.600
  23461947.398   125241670.530 7        45.200    23461952.930    97410035.422 8
        37.100
 15 11 13 14 54 30.0000000  0 20G01G02G03G06G09G17G23G25G31G32R04R05
                                R06R13R14R15R19R20R21R22
  24456972.320   128522201.170 5        39.200    24456982.730   100147206.508 6
        20.900
  24479809.438   128642303.119 6        43.600    24479814.457   100240791.187 6
        25.400
  21679785.898   113928007.920 7        49.900    21679792.906    88775181.101 8
        38.900
  21320794.172   112041513.078 7        50.900    21320801.020    87305191.286 8
        40.500
  21238884.406   111611196.821 7        51.000    21238890.828    86969845.427 8
        40.900
  23095647.914   121368433.258 6        46.100    23095654.691    94572819.262 7
        30.900
  20644981.055   108490207.369 7        51.200    20644983.059    84537874.281 9
        42.100
  25418108.039   133573049.121 2        33.800    25418117.160   104082956.389 5
        17.400
  24453243.008   128502535.275 6        43.300    24453248.410   100132015.365 6
        22.200
  24964163.734   131187590.178 4        38.700    24964170.551   102224131.343 5
        16.300
  21974734.445   117674022.109 7        47.600    21974739.719    91524095.567 9
        43.300
  19330764.297   103334891.547 7        45.500    19330768.555    80371002.686 9
        48.000
  21290271.797   113609376.839 8        50.000    21290275.457    88362632.893 8
        37.400
  23283752.664   124334069.769 4        37.900    23283757.629    96704230.888 8
        39.400
  21749554.883   115937394.687 6        42.200    21749561.465    90173577.567 8
        36.000
  22834088.539   122018391.497 5        39.300    22834096.859    94903281.195 8
        37.000
  24433061.641   130700181.074 6        41.700    24433070.832   101655771.074 8
        34.900
  20728383.797   110843899.257 6        44.900    20728390.836    86212030.408 9
        46.200
  20302319.367   108641867.284 8        51.600    20302324.371    84499236.975 9
        46.500
  23439876.063   125123848.481 7        45.100    23439880.773    97318396.132 8
        36.700
 15 11 13 14 55  0.0000000  0 20G01G02G03G06G09G17G23G25G31G32R04R05
                                R06R13R14R15R19R20R21R22
  24478316.180   128634362.414 5        39.100    24478325.910   100234604.799 6
        19.600
  24460618.969   128541456.475 6        43.800    24460623.547   100162209.493 7
        26.700
  21693271.469   113998873.991 7        50.200    21693278.285    88830401.382 8
        38.900
  21309495.055   111982138.350 7        50.900    21309502.227    87258925.286 8
        40.100
  21225384.977   111540257.640 7        51.300    21225391.898    86914568.195 8
        40.900
  23111627.766   121452406.204 7        47.600    23111635.270    94638252.673 7
        32.900
  20645255.289   108491648.306 7        51.100    20645256.707    84538997.095 9
        41.300
  25422610.195   133596707.379 3        35.400    25422619.383   104101391.448 5
        17.400
  24466805.727   128573804.676 6        43.000    24466810.250   100187550.029 6
        21.300
  24983237.727   131287824.552 4        38.700    24983245.285   102302236.070 5
        16.900
  21993262.367   117773231.124 7        48.300    21993266.176    91601258.087 9
        44.200
  19334004.484   103352215.338 7        45.600    19334008.867    80384476.760 9
        48.000
  21274120.141   113523188.190 8        50.600    21274122.332    88295597.336 8
        37.300
  23297730.203   124408717.268 4        37.100    23297736.461    96762290.076 8
        39.100
  21742433.938   115899436.547 6        42.000    21742440.578    90144054.607 8
        36.200
  22812652.055   121903845.502 4        39.000    22812660.797    94814190.009 8
        37.000
  24459486.234   130841535.190 5        40.200    24459496.797   101765712.555 8
        33.400
  20745990.055   110938037.363 6        44.900    20745995.176    86285248.880 9
        46.600
  20297536.977   108616274.555 8        51.100    20297541.535    84479331.531 9
        46.600
  23417867.961   125006366.784 6        44.600    23417872.176    97227021.540 8
        34.700
 15 11 13 14 55 30.0000000  0 20G01G02G03G06G09G17G23G25G31G32R04R05
                                R06R13R14R15R19R20R21R22
  24499677.977   128746622.668 3        36.500    24499688.793   100322080.204 6
        19.900
  24441448.875   128440716.793 6        43.900    24441453.348   100083711.156 6
        25.500
  21706805.563   114069995.655 7        50.900    21706811.984    88885820.839 8
        39.200
  21298281.719   111923207.747 7        50.200    21298288.352    87213005.354 8
        40.400
  21211965.453   111469737.950 7        51.000    21211972.418    86859617.838 8
        41.000
  23127669.258   121536706.832 7        47.200    23127676.777    94703941.383 7
        32.600
  20645623.109   108493582.094 7        50.200    20645624.469    84540503.943 9
        41.200
  25427218.602   133620917.107 4        37.900    25427226.219   104120256.221 5
        15.600
  24480451.750   128645510.450 6        44.300    24480455.379   100243424.686 6
        21.100
  25002314.961   131388073.060 4        38.700    25002321.547   102380351.828 5
        15.600
  22011813.688   117872579.194 7        48.000    22011818.285    91678528.795 9
        43.600
  19337330.094   103369995.625 7        45.600    19337335.207    80398305.877 9
        47.700
  21258021.430   113437283.724 8        49.600    21258025.141    88228782.835 8
        37.900
  23311830.297   124484007.953 4        37.300    23311835.910    96820849.503 8
        38.700
  21735459.617   115862263.845 6        42.200    21735467.594    90115142.563 8
        36.200
  22791281.508   121789637.845 4        37.900    22791287.484    94725361.950 8
        36.800
  24485906.281   130982856.899 5        41.000    24485914.820   101875628.993 8
        33.300
  20763705.375   111032772.989 6        44.600    20763711.215    86358932.098 9
        46.400
  20292910.672   108591515.267 8        51.700    20292914.352    84460074.292 9
        46.600
  23395923.734   124889229.918 6        44.600    23395928.145    97135915.153 8
        35.400
 15 11 13 14 56  0.0000000  0 20G01G02G03G06G09G17G23G25G31G32R04R05
                                R06R13R14R15R19R20R21R22
  24521059.313   128858980.080 4        38.400    24521069.598   100409631.290 6
        19.000
  24422298.320   128340085.861 6        43.000    24422303.195   100005297.545 6
        25.300
  21720387.672   114141371.771 7        50.600    21720394.328    88941438.571 8
        38.500
  21287151.922   111864723.128 7        51.100    21287159.500    87167432.936 8
        40.600
  21198626.336   111399638.958 7        51.000    21198633.211    86804995.304 9
        41.300
  23143773.602   121621332.193 7        47.400    23143780.227    94769883.161 7
        32.400
  20646084.789   108496007.986 7        49.900    20646086.684    84542394.263 8
        40.900
  25431930.273   133645677.265 4        38.300    25431937.773   104139549.825 5
        14.800
  24494177.500   128717650.055 6        42.300    24494182.754   100299637.419 6
        21.300
  25021393.461   131488334.937 4        37.500    25021401.133   102458477.908 5
        16.300
  22030392.250   117972064.937 7        47.400    22030396.680    91755906.600 9
        44.000
  19340742.633   103388231.177 7        45.500    19340746.449    80412489.080 9
        48.600
  21241976.656   113351664.453 8        49.300    21241980.141    88162190.087 8
        37.800
  23326050.906   124559938.341 4        38.600    23326054.543    96879906.491 8
        39.100
  21728633.422   115825878.071 6        42.600    21728641.488    90086842.572 8
        36.700
  22769971.984   121675774.371 4        37.700    22769979.281    94636801.642 8
        37.300
  24512317.961   131124142.931 5        40.900    24512327.395   101985517.628 8
        34.400
  20781532.336   111128102.109 7        45.100    20781537.348    86433076.922 9
        45.600
  20288439.781   108567590.680 8        50.800    20288443.512    84441466.277 9
        46.800
  23374043.922   124772441.329 6        43.800    23374049.086    97045079.648 8
        34.300
 15 11 13 14 56 30.0000000  0 20G01G02G03G06G09G17G23G25G31G32R04R05
                                R06R13R14R15R19R20R21R22
  24542458.367   128971432.748 4        38.600    24542468.816   100497256.661 6
        19.600
  24403170.414   128239565.907 6        43.400    24403174.668    99926970.399 6
        25.400
  21734018.727   114213001.502 7        49.800    21734025.508    88997253.921 8
        38.400
  21276108.000   111806686.653 7        50.600    21276115.328    87122209.730 8
        40.500
  21185367.414   111329962.024 7        51.000    21185373.746    86750701.633 9
        41.800
  23159937.906   121706279.460 6        46.100    23159945.184    94836075.775 7
        32.200
  20646639.930   108498925.480 7        50.800    20646641.777    84544667.649 8
        41.000
  25436746.438   133670986.514 4        38.800    25436753.645   104159271.383 6
        18.300
  24507988.094   128790221.399 6        43.200    24507992.215   100356186.566 6
        21.100
  25040475.266   131588609.199 4        38.400    25040482.895   102536613.745 5
        14.800
  22048995.344   118071686.488 7        47.100    22049000.270    91833390.009 9
        44.100
  19344238.234   103406921.232 6        45.000    19344242.383    80427025.810 9
        48.200
  21225984.477   113266331.410 8        50.100    21225988.117    88095820.009 8
        37.700
  23340387.719   124636504.983 4        37.300    23340393.559    96939458.352 8
        38.900
  21721956.359   115790281.813 6        42.500    21721964.051    90059156.634 8
        36.500
  22748728.477   121562260.041 4        37.700    22748737.980    94548512.924 8
        37.700
  24538723.164   131265389.587 4        38.800    24538732.680   102095375.585 8
        33.600
  20799470.172   111224021.324 6        44.800    20799475.441    86507680.716 9
        46.000
  20284124.172   108544502.278 8        51.000    20284129.176    84423508.646 9
        46.900
  23352232.414   124656005.487 6        43.700    23352236.340    96954518.478 8
        34.500
 15 11 13 14 57  0.0000000  0 20G01G02G03G06G09G17G23G25G31G32R04R05
                                R06R13R14R15R19R20R21R22
  24563875.094   129083978.959 4        38.100    24563885.723   100584954.913 6
        22.500
  24384064.633   128139158.693 6        42.800    24384068.070    99848731.158 6
        24.400
  21747697.273   114284883.840 7        49.800    21747703.926    89053266.118 8
        38.400
  21265149.664   111749100.390 7        49.700    21265156.844    87077337.342 8
        40.400
  21172189.359   111260708.474 7        50.800    21172195.188    86696737.869 9
        41.100
  23176163.398   121791545.942 6        46.400    23176169.859    94902517.101 7
        31.200
  20647288.477   108502334.087 7        49.200    20647290.676    84547323.705 9
        41.500
  25441666.820   133696843.538 4        37.700    25441674.035   104179419.690 5
        17.400
  24521879.453   128863222.194 6        42.700    24521883.926   100413070.352 6
        21.500
  25059559.461   131688895.139 4        37.600    25059566.035   102614758.685 5
        15.600
  22067625.742   118171442.544 7        47.300    22067628.617    91910978.011 9
        43.100
  19347819.875   103426064.574 7        45.300    19347824.004    80441915.079 9
        48.200
  21210047.852   113181285.680 8        50.100    21210050.406    88029673.393 8
        38.200
  23354844.891   124713704.589 4        38.300    23354850.539    96999502.513 8
        38.900
  21715427.242   115755477.038 6        42.500    21715434.645    90032086.305 8
        37.000
  22727553.250   121449097.860 5        40.300    22727561.355    94460498.090 8
        38.900
  24565121.688   131406594.106 6        42.400    24565129.090   102205200.731 8
        34.200
  20817516.063   111320526.539 6        44.800    20817522.637    86582740.287 9
        45.400
  20279966.664   108522251.297 8        50.500    20279972.020    84406202.326 9
        47.400
  23330487.992   124539926.224 6        42.400    23330490.711    96864234.670 8
        33.100
 15 11 13 14 57 30.0000000  0 20G01G02G03G06G09G17G23G25G31G32R04R05
                                R06R13R14R15R19R20R21R22
  24585308.406   129196616.884 4        37.300    24585319.797   100672724.643 6
        20.100
  24364979.109   128038866.424 6        43.100    24364982.543    99770581.409 6
        24.700
  21761424.055   114357017.940 7        48.500    21761430.883    89109474.487 8
        38.600
  21254277.320   111691966.502 7        48.700    21254284.504    87032817.457 8
        40.400
  21159091.430   111191879.635 7        49.000    21159097.063    86643105.052 9
        41.200
  23192449.945   121877128.541 6        45.200    23192456.332    94969204.783 7
        31.000
  20648030.461   108506233.337 7        49.000    20648032.594    84550362.095 8
        40.200
  25446690.664   133723247.800 3        36.000    25446698.559   104199994.471 5
        16.300
  24535853.844   128936649.789 6        43.900    24535856.902   100470286.764 6
        21.500
  25078644.742   131789192.003 3        36.600    25078651.855   102692912.071 5
        16.300
  22086278.727   118271331.903 7        45.300    22086283.102    91988669.708 9
        43.500
  19351484.789   103445660.302 6        44.500    19351490.129    80457156.215 9
        48.300
  21194163.539   113096528.357 7        47.600    21194166.676    87963751.074 8
        37.700
  23369420.313   124791533.778 4        38.300    23369426.137    97060036.388 8
        39.400
  21709046.398   115721465.753 6        41.700    21709053.855    90005633.104 8
        36.800
  22706443.367   121336293.472 5        40.800    22706450.832    94372761.543 8
        38.300
  24591509.977   131547753.220 4        39.000    24591518.520   102314990.550 7
        31.800
  20835673.234   111417614.396 6        43.600    20835678.730    86658252.992 9
        46.300
  20275965.234   108500839.204 8        49.700    20275970.250    84389548.484 9
        47.100
  23308809.109   124424207.838 6        42.000    23308812.543    96774231.547 8
        34.600
 15 11 13 14 58  0.0000000  0 20G01G02G03G06G09G17G23G25G31G32R04R05
                                R06R13R14R15R19R20R21R22
  24606760.352   129309344.741 4        38.700    24606771.676   100760564.438 6
        22.200
  24345915.531   127938691.301 5        41.600    24345919.684    99692522.969 6
        25.600
  21775198.344   114429402.787 7        49.900    21775204.875    89165878.250 8
        38.300
  21243491.766   111635287.055 7        49.600    21243499.105    86988651.672 8
        40.800
  21146074.078   111123476.760 7        50.400    21146080.348    86589804.124 9
        41.400
  23208795.500   121963024.013 6        46.900    23208801.766    95036136.243 7
        31.600
  20648865.313   108510622.217 7        50.200    20648867.676    84553781.995 9
        41.300
  25451818.711   133750197.812 4        37.800    25451826.883   104220994.470 6
        19.000
  24549905.703   129010501.794 6        43.600    24549910.172   100527833.860 6
        20.900
  25097732.484   131889499.060 4        37.600    25097740.211   102771073.468 5
        15.600
  22104956.602   118371352.613 7        45.200    22104961.480    92066463.574 9
        43.200
  19355235.984   103465707.647 7        45.800    19355239.645    80472748.603 9
        48.300
  21178333.688   113012059.928 7        48.600    21178337.156    87898053.453 8
        37.500
  23384111.648   124869989.152 4        38.300    23384117.566    97121057.284 8
        39.200
  21702814.719   115688249.595 6        42.000    21702822.828    89979798.326 8
        36.900
  22685400.945   121223852.762 5        40.900    22685409.152    94285307.811 8
        38.700
  24617890.375   131688863.540 5        40.900    24617897.648   102424742.291 7
        30.900
  20853937.141   111515280.668 6        45.000    20853943.422    86734215.611 9
        46.300
  20272121.586   108480267.197 8        50.500    20272125.477    84373548.048 9
        47.300
  23287199.055   124308854.402 6        41.100    23287203.398    96684512.274 8
        34.600
 15 11 13 14 58 30.0000000  0 20G01G02G03G06G09G17G23G25G31G32R04R05
                                R06R13R14R15R19R20R21R22
  24628228.469   129422160.607 5        39.600    24628239.645   100848472.795 6
        20.900
  24326876.148   127838635.139 6        42.800    24326881.059    99614557.243 6
        24.600
  21789020.516   114502037.382 7        50.500    21789026.820    89222476.614 8
        37.500
  21232792.867   111579063.945 7        50.700    21232799.930    86944841.478 8
        40.200
  21133139.195   111055501.024 7        51.000    21133145.086    86536836.064 8
        40.900
  23225199.984   122049229.668 6        47.000    23225205.141    95103309.439 7
        30.900
  20649793.977   108515500.214 7        50.400    20649796.035    84557583.042 9
        41.500
  25457051.680   133777692.319 3        36.400    25457059.090   104242418.791 5
        17.400
  24564039.156   129084775.658 6        43.200    24564043.676   100585709.598 6
        21.100
  25116821.750   131989815.495 4        37.100    25116829.387   102849242.132 5
        16.300
  22123659.078   118471503.349 7        45.500    22123663.004    92144358.574 9
        42.800
  19359070.273   103486205.187 6        44.900    19359074.395    80488691.135 9
        48.100
  21162558.727   112927881.208 8        49.700    21162561.977    87832581.153 8
        37.800
  23398921.609   124949067.028 4        39.000    23398926.020    97182562.339 8
        39.400
  21696732.242   115655830.740 6        41.800    21696740.875    89954583.686 8
        37.500
  22664427.086   121111777.911 5        40.600    22664435.246    94198138.648 8
        38.300
  24644259.977   131829922.318 5        39.400    24644269.512   102534453.815 8
        33.800
  20872308.602   111613521.641 6        44.100    20872314.957    86810625.215 9
        46.100
  20268433.922   108460536.588 8        50.600    20268439.047    84358202.009 9
        47.000
  23265658.688   124193869.981 6        41.800    23265663.430    96595080.006 8
        36.800
 15 11 13 14 59  0.0000000  0 20G01G02G03G06G09G17G23G25G31G32R04R05
                                R06R13R14R15R19R20R21R22
  24649712.750   129535063.046 4        38.800    24649723.969   100936448.624 6
        20.900
  24307858.750   127738700.109 6        42.100    24307862.969    99536685.877 6
        23.000
  21802889.516   114574921.131 7        50.000    21802896.547    89279269.132 8
        38.100
  21222181.102   111523299.695 7        50.200    21222188.496    86901388.831 8
        40.900
  21120285.383   110987954.124 7        50.800    21120291.652    86484202.142 8
        40.900
  23241662.492   122135742.644 6        44.500    23241668.199    95170722.081 7
        28.700
  20650815.188   108520867.098 7        50.900    20650817.633    84561765.038 9
        41.800
  25462386.680   133805730.742 3        36.900    25462394.961   104264266.973 5
        16.900
  24578252.922   129159469.455 6        43.500    24578257.852   100643912.611 6
        22.200
  25135913.422   132090140.731 3        35.800    25135921.035   102927417.622 5
        15.600
  22142385.953   118571782.973 6        44.100    22142389.844    92222353.822 9
        42.700
  19362988.523   103507152.474 6        44.800    19362993.168    80504983.475 9
        48.100
  21146839.070   112843994.043 8        50.100    21146841.281    87767335.633 8
        37.500
  23413846.125   125028764.391 4        38.600    23413851.203    97244549.247 8
        39.100
  21690801.617   115624211.473 6        42.200    21690809.238    89929990.940 8
        36.700
  22643523.383   121000075.800 6        41.300    22643530.551    94111259.329 8
        37.900
  24670617.031   131970926.188 5        39.900    24670629.250   102644122.604 7
        32.400
  20890786.344   111712333.811 7        45.500    20890793.359    86887479.056 9
        46.500
  20264904.219   108441648.625 8        51.200    20264908.934    84343511.385 9
        46.900
  23244188.234   124079258.758 5        39.900    23244192.320    96505938.064 8
        36.000
 15 11 13 14 59 30.0000000  0 20G01G02G03G06G09G17G23G25G31G32R04R05
                                R06R13R14R15R19R20R21R22
  24671214.281   129648050.038 5        40.600    24671226.090   101024490.348 6
        20.600
  24288864.313   127638888.166 5        41.100    24288869.652    99458910.447 6
        25.700
  21816805.930   114648052.927 7        48.100    21816812.926    89336254.935 8
        38.100
  21211657.703   111467996.116 7        50.800    21211664.273    86858295.171 8
        41.000
  21107513.305   110920837.091 7        50.500    21107519.770    86431903.198 9
        41.700
  23258183.906   122222560.094 6        45.600    23258190.395    95238371.944 7
        30.200
  20651929.789   108526722.204 7        50.700    20651932.012    84566327.461 9
        41.600
  25467826.578   133834311.429 5        39.100    25467833.969   104286537.718 6
        20.100
  24592547.867   129234580.536 6        42.100    24592550.563   100702440.847 6
        22.600
  25155006.414   132190474.078 3        36.500    25155013.219   103005599.576 5
        14.800
  22161135.914   118672189.626 6        44.600    22161139.930    92300447.873 9
        41.800
  19366991.070   103528548.223 7        45.100    19366996.051    80521624.616 9
        48.500
  21131172.984   112760398.503 8        49.400    21131176.641    87702316.928 8
        38.500
  23428885.336   125109077.630 5        39.900    23428891.266    97307015.161 8
        38.900
  21685020.273   115593393.362 6        41.700    21685027.484    89906021.322 8
        37.100
  22622691.734   120888750.061 6        42.600    22622698.391    94024672.745 8
        38.900
  24696968.180   132111872.347 1        29.400    24696979.141   102753746.359 7
        32.800
  20909371.102   111811713.241 7        45.200    20909377.391    86964774.156 9
        46.200
  20261531.773   108423604.516 8        50.700    20261536.652    84329477.087 9
        47.200
  23222787.094   123965024.877 4        38.500    23222793.215    96417089.585 8
        37.400
