     2.11           OBSERVATION DATA    M (MIXED)           RINEX VERSION / TYPE
teqc  2013Mar15                         20151018 16:08:01UTCPGM / RUN BY / DATE
Linux2.6.32-279.el6.x86_64|x86_64|gcc|Win64-MinGW64|=       COMMENT
TPP 3.8.0                               18-OCT-15 13:59     COMMENT
The APPROX POSITION XYZ coordinates are NOT APPROXIMATE     COMMENT
APPROX POSITION XYZ replaced with ETRS89 station coords     COMMENT
                                                            COMMENT
STRA                                                        MARKER NAME
Stratford                                                   MARKER NUMBER
OS Net              Ordnance Survey                         OBSERVER / AGENCY
5302K56524          TRIMBLE NETR9       5.01                REC # / TYPE / VERS
30436573            TRM55971.00     NONE                    ANT # / TYPE
  3974813.0408      661.0574  4971513.6274                  APPROX POSITION XYZ
        0.0000        0.0000        0.0000                  ANTENNA: DELTA H/E/N
     1     1                                                WAVELENGTH FACT L1/2
    14    C1    P1    L1    D1    S1    C2    P2    L2    D2# / TYPES OF OBSERV
          S2    C5    L5    D5    S5                        # / TYPES OF OBSERV
    30.0000                                                 INTERVAL
     0                                                      RCV CLOCK OFFS APPL
    17                                                      LEAP SECONDS
Forced Modulo Decimation to 30 seconds                      COMMENT
  2015    10    18    14     0    0.0000000     GPS         TIME OF FIRST OBS
                                                            END OF HEADER
 15 10 18 14  0  0.0000000  0 19G01G03G04G08G11G14G17G19G23G28G31G32
                                R01R02R03R09R10R18R24
  20180757.438                   106050661.061 7                        49.700
                  20180764.938    82636982.767 9                        43.200
  20180763.324    79193776.328 9                        54.700
  20828922.820                   109456879.989 7                        47.300
                  20828929.609    85291188.678 8                        40.400
  20828930.973    81737408.712 9                        53.700
  20984973.547                   110276794.074 7                        49.200
                  20984978.281    85930067.781 8                        38.800

  23759403.547                   124856355.955 6                        42.400
                  23759413.504    97290747.902 6                        23.000
  23759413.980    93236966.578 9                        44.900
  20463251.977                   107535262.028 7                        50.800
                  20463256.078    83793693.296 8                        40.000

  23581631.273                   123922415.590 5                        40.500
                  23581637.781    96562996.519 6                        22.600

  23028052.273                   121013265.584 6                        45.900
                  23028058.363    94296074.902 8                        34.500

  21221326.406                   111518773.953 7                        48.600
                  21221330.051    86897841.898 8                        40.200

  24670831.742                   129646153.107 5                        40.900
                  24670839.879   101023039.675 6                        21.700

  23654508.750                   124305349.413 6                        43.800
                  23654514.102    96861295.041 6                        25.300

  25302107.750                   132963469.966 3                        35.200


  20224880.313                   106282567.307 7                        49.400
                  20224885.035    82817687.926 8                        40.100

  20471495.016    20471493.355   109432451.662 8                        51.000
  20471499.797    20471500.152    85113834.399 8                        40.600

  19388043.594    19388042.391   103458712.558 8                        51.700
  19388047.516    19388047.449    80467801.253 9                        47.300

  22901519.039    22901518.742   122594071.205 6                        42.300
  22901528.422    22901527.504    95350710.061 8                        40.000

  23493632.766    23493631.383   125454651.909 6                        41.500
  23493637.723

  23723380.070    23723378.582   126458813.713 5                        39.700
  23723388.762    23723387.586    98357002.949 8                        33.800

  21638628.500    21638627.305   115508486.132 7                        48.300
  21638633.754    21638634.063    89839936.201 9                        43.300

  21344462.984    21344461.762   114138445.687 5                        41.000
  21344469.105    21344468.637    88774370.937 8                        39.300

 15 10 18 14  0 30.0000000  0 19G01G03G04G08G11G14G17G19G23G28G31G32
                                R01R02R03R09R10R18R24
  20182485.414                   106059740.872 7                        49.100
                  20182492.691    82644057.945 9                        43.500
  20182491.426    79200556.710 9                        54.800
  20818845.320                   109403922.438 7                        47.800
                  20818852.566    85249923.085 8                        40.600
  20818854.105    81697862.521 9                        53.800
  20997701.586                   110343681.094 7                        48.800
                  20997707.152    85982187.521 8                        38.500

  23780848.305                   124969050.988 5                        40.200
                  23780858.195    97378562.090 6                        22.800
  23780860.141    93321121.790 9                        45.900
  20472820.867                   107585545.024 7                        50.300
                  20472824.434    83832874.834 8                        39.800

  23594097.313                   123987922.120 5                        40.000
                  23594103.602    96614040.541 6                        22.800

  23012676.461                   120932463.720 6                        45.500
                  23012682.258    94233112.446 8                        34.800

  21233279.414                   111581586.895 7                        49.600
                  21233282.992    86946787.021 8                        40.200

  24650165.250                   129537555.510 5                        39.200
                  24650174.117   100938418.455 6                        21.100

  23665102.438                   124361017.110 6                        43.800
                  23665107.074    96904672.352 6                        24.000

  25286296.164                   132880383.639 2                        33.700
                  25286306.797   103543198.849 5                        16.300

  20230269.477                   106310890.407 7                        49.500
                  20230274.184    82839757.869 8                        40.200

  20487316.711    20487315.637   109517030.590 8                        50.900
  20487322.188    20487322.309    85179617.971 8                        40.500

  19380226.414    19380225.328   103416997.252 8                        51.600
  19380230.387    19380230.000    80435356.044 9                        47.700

  22878650.539    22878649.770   122471651.074 5                        40.900
  22878658.793    22878658.531    95255494.643 8                        39.900

  23499731.797    23499729.945   125487223.847 6                        41.200
  23499737.203    23499736.477    97601214.848 6                        23.000

  23711234.078    23711231.418   126394069.475 5                        40.300
  23711241.586    23711241.496    98306646.388 8                        33.600

  21618282.141    21618280.594   115399873.121 7                        48.200
  21618286.633    21618287.574    89755459.487 9                        44.500

  21364823.953    21364823.555   114247325.826 6                        42.300
  21364829.461    21364828.867    88859055.388 8                        38.600

 15 10 18 14  1  0.0000000  0 19G01G03G04G08G11G14G17G19G23G28G31G32
                                R01R02R03R09R10R18R24
  20184294.000                   106069245.956 7                        50.000
                  20184301.551    82651464.496 9                        43.000
  20184300.172    79207654.653 9                        54.900
  20808846.070                   109351376.629 7                        48.200
                  20808853.301    85208978.323 8                        41.000
  20808854.957    81658623.795 9                        54.100
  21010497.172                   110410923.193 7                        49.100
                  21010503.125    86034583.931 8                        38.500

  23802320.430                   125081890.729 5                        40.000
                  23802331.477    97466489.039 6                        22.300
  23802332.602    93405385.052 9                        45.800
  20482483.398                   107636321.406 7                        50.500
                  20482486.434    83872440.845 8                        39.400

  23606645.680                   124053863.599 5                        39.900
                  23606651.352    96665423.443 6                        22.500

  22997366.180                   120852007.860 6                        45.800
                  22997371.750    94170419.609 8                        35.200

  21245326.891                   111644896.130 7                        49.000
                  21245330.082    86996118.861 8                        40.200

  24629507.852                   129428998.714 5                        39.700
                  24629515.391   100853829.063 6                        20.600

  23675770.367                   124417081.876 6                        44.300
                  23675776.109    96948359.110 6                        23.500

  25270520.789                   132797476.169 2                        33.300
                  25270529.871   103478595.602 5                        14.800

  20235752.547                   106339701.535 7                        50.800
                  20235757.168    82862208.101 9                        41.200

  20503222.055    20503222.152   109602057.279 8                        49.800
  20503227.844    20503228.426    85245749.812 8                        40.900

  19372532.047    19372530.727   103375938.283 8                        52.100
  19372535.879    19372535.512    80403421.307 9                        46.700

  22855822.188    22855822.125   122349454.128 6                        41.100
  22855831.059    22855830.949    95160452.813 8                        40.200

  23505971.320    23505969.234   125520538.857 6                        41.200
  23505976.730

  23699207.555    23699207.008   126329964.119 5                        40.300
  23699215.492    23699215.113    98256786.675 8                        33.400

  21597991.125    21597989.930   115291559.487 8                        49.100
  21597995.262    21597995.684    89671215.626 9                        43.900

  21385261.266    21385260.512   114356608.491 6                        42.800
  21385265.926    21385266.121    88944052.950 8                        38.400

 15 10 18 14  1 30.0000000  0 19G01G03G04G08G11G14G17G19G23G28G31G32
                                R01R02R03R09R10R18R24
  20186182.758                   106079176.512 7                        49.600
                  20186191.402    82659202.590 9                        43.000
  20186189.730    79215070.332 9                        54.900
  20798925.570                   109299243.269 7                        49.100
                  20798932.809    85168354.948 9                        41.100
  20798934.582    81619693.076 9                        54.100
  21023360.672                   110478519.620 7                        49.000
                  21023366.129    86087256.437 8                        38.700

  23823820.320                   125194872.729 5                        40.500
                  23823831.270    97554526.826 6                        22.600
  23823832.566    93489754.558 9                        45.600
  20492238.688                   107687589.750 7                        49.500
                  20492242.574    83912390.180 8                        39.500

  23619276.469                   124120237.865 5                        40.900
                  23619281.781    96717143.599 6                        22.600

  22982121.594                   120771900.716 6                        45.900
                  22982127.820    94107998.504 8                        34.600

  21257468.578                   111708699.479 7                        49.600
                  21257471.133    87045835.730 8                        40.600

  24608856.508                   129320485.551 4                        38.300
                  24608866.938   100769273.676 6                        21.700

  23686515.070                   124473541.117 6                        44.900
                  23686520.258    96992353.210 6                        24.000

  25254778.133                   132714750.566 3                        35.800
                  25254785.777   103414134.124 5                        14.800

  20241327.844                   106368999.261 7                        50.300
                  20241332.258    82885037.491 8                        40.200

  20519211.461    20519211.207   109687529.028 8                        50.000
  20519216.570    20519217.730    85312227.795 8                        40.400

  19364960.656    19364958.984   103335536.060 8                        51.600
  19364964.176    19364963.770    80371997.370 9                        46.800

  22833036.961    22833036.664   122227482.934 6                        41.900
  22833045.379    22833045.254    95065586.527 8                        40.200

  23512347.938    23512347.727   125554595.442 6                        41.300
  23512353.117    23512353.445    97653616.948 6                        22.500

  23687302.102    23687298.738   126266501.136 5                        40.800
  23687309.824    23687310.258    98207426.636 8                        34.000

  21577756.180    21577755.457   115183548.385 8                        49.300
  21577761.359    21577761.957    89587207.049 9                        43.400

  21405772.352    21405771.363   114466291.449 6                        42.400
  21405777.164    21405776.715    89029361.875 8                        37.700

 15 10 18 14  2  0.0000000  0 19G01G03G04G08G11G14G17G19G23G28G31G32
                                R01R02R03R09R10R18R24
  20188153.680                   106089532.502 7                        48.600
                  20188162.121    82667272.188 9                        43.500
  20188160.332    79222803.695 9                        54.900
  20789083.516                   109247522.775 7                        48.000
                  20789090.191    85128053.296 9                        41.500
  20789092.137    81581070.661 9                        54.100
  21036291.234                   110546469.046 7                        49.100
                  21036296.461    86140204.015 8                        38.700

  23845347.391                   125307994.405 6                        42.800
                  23845357.828    97642673.447 6                        25.100
  23845358.773    93574228.363 9                        45.900
  20502088.203                   107739349.122 7                        49.600
                  20502092.293    83952722.143 8                        39.600

  23631988.086                   124187042.552 4                        37.700
                  23631994.746    96769199.140 6                        22.800

  22966944.328                   120692144.078 6                        45.200
                  22966950.887    94045850.513 8                        35.100

  21269703.477                   111772995.154 7                        50.400
                  21269706.242    87095936.228 8                        40.400

  24588218.109                   129212017.939 5                        41.300
                  24588224.344   100684753.778 6                        22.800

  23697334.586                   124530393.016 6                        45.700
                  23697339.727    97036653.281 6                        25.400

  25239070.883                   132632209.576 2                        34.400
                  25239079.086   103349816.412 5                        13.900

  20246995.359                   106398781.801 7                        50.100
                  20246999.938    82908244.669 8                        40.500

  20535283.984    20535282.676   109773441.592 8                        50.200
  20535288.965    20535290.082    85379048.642 9                        41.400

  19357512.313    19357511.461   103295790.852 8                        52.100
  19357516.199    19357516.020    80341084.444 9                        47.400

  22810294.305    22810293.887   122105739.591 6                        41.200
  22810303.066    22810302.605    94970897.507 8                        40.000

  23518865.914    23518864.063   125589391.311 6                        41.400
  23518871.039    23518869.492    97680682.351 6                        23.800

  23675517.039    23675516.137   126203682.950 5                        40.200
  23675525.305    23675525.973    98158568.087 8                        34.400

  21557579.742    21557579.137   115075843.341 7                        48.700
  21557584.762    21557584.984    89503436.500 9                        43.600

  21426359.461    21426356.480   114576371.987 6                        43.000
  21426363.355    21426362.934    89114979.982 8                        38.000

 15 10 18 14  2 30.0000000  0 19G01G03G04G08G11G14G17G19G23G28G31G32
                                R01R02R03R09R10R18R24
  20190205.141                   106100314.220 7                        49.100
                  20190213.363    82675673.535 9                        42.200
  20190211.750    79230854.980 9                        54.800
  20779320.195                   109196215.963 7                        49.900
                  20779326.691    85088073.991 9                        41.300
  20779328.695    81542757.160 9                        54.100
  21049288.578                   110614770.573 7                        48.700
                  21049293.168    86193425.958 8                        38.400

  23866900.469                   125421253.331 6                        43.300
                  23866910.387    97730927.029 6                        23.600
  23866911.859    93658804.674 9                        44.600
  20512030.398                   107791598.534 7                        48.500
                  20512035.148    83993435.953 8                        39.800

  23644783.125                   124254275.987 4                        39.000
                  23644788.746    96821588.742 6                        24.300

  22951835.102                   120612740.997 6                        45.600
                  22951840.359    93983978.035 8                        35.400

  21282031.766                   111837781.688 7                        47.900
                  21282034.637    87146419.205 8                        39.500

  24567584.766                   129103598.342 5                        39.200
                  24567593.250   100600271.262 6                        21.800

  23708226.336                   124587634.667 6                        43.900
                  23708232.313    97081257.049 6                        24.400

  25223398.906                   132549856.655 2                        33.300


  20252754.898                   106429047.900 7                        50.200
                  20252759.488    82931828.642 8                        40.300

  20551436.977    20551436.488   109859792.030 8                        50.000
  20551442.734    20551443.566    85446210.054 9                        41.600

  19350186.594    19350185.742   103256703.679 8                        52.000
  19350191.141    19350190.730    80310683.330 9                        48.000

  22787594.930    22787594.277   121984226.640 6                        41.600
  22787603.105    22787602.629    94876387.681 8                        40.000

  23525519.039    23525518.242   125624925.039 6                        41.400
  23525523.375    23525524.406    97708319.665 6                        22.100

  23663854.164    23663854.438   126141513.338 4                        37.900
  23663863.230    23663862.391    98110213.976 8                        33.300

  21537460.734    21537459.895   114968447.933 7                        48.300
  21537465.125    21537465.727    89419906.813 9                        43.800

  21447017.688    21447016.113   114686847.794 6                        41.200
  21447023.289    21447022.332    89200905.518 8                        38.100

 15 10 18 14  3  0.0000000  0 19G01G03G04G08G11G14G17G19G23G28G31G32
                                R01R02R03R09R10R18R24
  20192338.391                   106111521.968 7                        50.100
                  20192346.180    82684406.838 9                        42.900
  20192344.859    79239224.400 9                        55.000
  20769635.820                   109145323.473 7                        50.000
                  20769642.328    85048417.523 9                        41.800
  20769644.098    81504753.047 9                        53.900
  21062352.336                   110683423.129 7                        49.000
                  21062357.367    86246921.422 8                        37.600

  23888479.023                   125534647.489 6                        43.700
                  23888489.223    97819285.994 6                        24.500
  23888488.703    93743481.996 8                        43.100
  20522066.430                   107844336.776 7                        49.100
                  20522070.602    84034530.663 8                        39.200

  23657658.320                   124321935.659 4                        38.800
                  23657663.828    96874310.525 6                        22.800

  22936792.195                   120533693.922 6                        45.300
                  22936798.500    93922382.965 8                        34.000

  21294452.922                   111903057.273 7                        48.200
                  21294456.426    87197283.243 8                        38.900

  24546963.883                   128995229.339 6                        42.600
                  24546971.156   100515828.193 6                        22.500

  23719192.922                   124645263.938 6                        43.800
                  23719197.738    97126162.896 6                        24.700

  25207763.406                   132467695.022 2                        34.200


  20258605.625                   106459796.018 7                        49.400
                  20258610.547    82955788.207 8                        40.600

  20567672.117    20567671.629   109946577.160 8                        50.000
  20567678.344    20567678.949    85513709.548 9                        41.100

  19342985.773    19342984.805   103218274.669 8                        51.600
  19342989.781    19342989.352    80280794.127 9                        47.400

  22764938.984    22764938.215   121862946.600 6                        43.700
  22764947.266    22764946.816    94782058.974 8                        40.200

  23532311.352    23532309.969   125661194.902 6                        41.400
  23532317.234    23532315.918    97736528.514 6                        23.000

  23652313.750    23652310.621   126079995.150 6                        41.400
  23652321.734    23652321.945    98062366.531 8                        33.800

  21517400.656    21517400.402   114861365.603 7                        48.600
  21517406.246    21517406.996    89336620.597 9                        43.900

  21467750.172    21467749.539   114797716.394 6                        42.000
  21467755.777    21467755.359    89287136.552 8                        39.300

 15 10 18 14  3 30.0000000  0 19G01G03G04G08G11G14G17G19G23G28G31G32
                                R01R02R03R09R10R18R24
  20194552.250                   106123155.738 7                        49.500
                  20194560.113    82693472.117 9                        43.200
  20194558.734    79247911.953 9                        55.000
  20760030.047                   109094845.870 7                        49.000
                  20760037.191    85009084.350 9                        41.500
  20760038.730    81467058.753 9                        54.000
  21075482.875                   110752425.662 7                        49.100
                  21075488.250    86300689.592 8                        37.400

  23910082.344                   125648174.248 6                        43.200
                  23910092.227    97907748.281 6                        24.700
  23910092.352    93828258.329 8                        42.400
  20532195.281                   107897562.732 7                        49.900
                  20532199.684    84076005.412 8                        39.900

  23670613.484                   124390019.562 3                        36.900
                  23670620.594    96927362.851 6                        24.100

  22921817.961                   120455005.035 6                        45.900
                  22921824.129    93861066.984 8                        33.900

  21306966.945                   111968820.149 7                        48.700
                  21306971.168    87248526.993 8                        39.200

  24526351.195                   128886913.015 5                        40.600
                  24526357.719   100431426.095 6                        21.100

  23730232.875                   124703278.367 6                        44.000
                  23730239.574    97171368.823 6                        25.200

  25192166.828                   132385727.891 2                        33.300


  20264548.336                   106491024.608 7                        49.900
                  20264553.055    82980122.173 8                        39.900

  20583988.383    20583986.957   110033793.696 8                        49.400
  20583993.777    20583994.367    85581544.600 9                        41.900

  19335907.453    19335906.484   103180503.965 8                        51.800
  19335911.039    19335910.977    80251416.928 9                        47.800

  22742327.133    22742325.426   121741901.449 6                        42.700
  22742334.039    22742334.391    94687912.965 8                        40.200

  23539240.586    23539240.730   125698198.874 6                        41.300
  23539246.066    23539246.043    97765309.382 6                        24.600

  23640896.023    23640894.418   126019131.620 5                        40.400
  23640903.035    23640903.723    98015028.248 7                        32.400

  21497399.516    21497398.793   114754599.716 7                        48.200
  21497404.684    21497405.066    89253580.540 9                        44.400

  21488557.359    21488556.020   114908975.183 6                        44.100
  21488562.031    21488561.125    89373671.089 8                        38.600

 15 10 18 14  4  0.0000000  0 19G01G03G04G08G11G14G17G19G23G28G31G32
                                R01R02R03R09R10R18R24
  20196847.289                   106135215.674 7                        48.900
                  20196855.094    82702869.460 9                        43.300
  20196853.832    79256917.744 9                        55.100
  20750503.625                   109044783.689 7                        48.200
                  20750510.621    84970074.868 9                        41.200
  20750511.980    81429674.674 9                        53.900
  21088680.477                   110821777.038 7                        47.800
                  21088685.609    86354729.594 8                        37.500

  23931709.789                   125761831.225 5                        41.800
                  23931720.730    97996312.022 6                        22.600
  23931720.270    93913131.928 8                        42.400
  20542416.813                   107951275.469 7                        50.700
                  20542420.969    84117859.467 8                        39.900

  23683650.813                   124458525.551 4                        38.600
                  23683656.715    96980744.060 6                        22.800

  22906912.406                   120376676.673 6                        44.700
                  22906918.730    93800031.963 8                        33.100

  21319573.906                   112035068.608 6                        46.800
                  21319577.492    87300149.121 8                        39.200

  24505750.766                   128778651.857 5                        41.500
                  24505756.793   100347066.976 6                        22.300

  23741345.117                   124761675.669 6                        43.800
                  23741350.754    97216873.136 6                        22.200

  25176606.406                   132303958.103 2                        34.700


  20270581.813                   106522732.113 7                        50.200
                  20270587.219    83004829.306 8                        40.500

  20600383.063    20600381.637   110121437.908 8                        49.200
  20600388.914    20600389.285    85649712.277 9                        41.600

  19328953.148    19328951.711   103143392.260 8                        52.100
  19328956.480    19328956.457    80222552.296 9                        47.600

  22719758.508    22719757.152   121621093.808 6                        43.700
  22719765.738    22719766.348    94593951.687 8                        40.300

  23546308.641    23546306.438   125735934.870 5                        40.600
  23546313.180    23546312.449    97794659.560 6                        22.300

  23629602.086    23629600.363   125958926.462 5                        40.400
  23629609.965    23629609.770    97968202.022 7                        32.800

  21477458.828    21477457.281   114648153.864 7                        48.600
  21477463.660    21477464.762    89170789.380 9                        44.600

  21509434.969    21509434.570   115020621.593 6                        43.000
  21509440.176    21509439.664    89460507.108 8                        36.900

 15 10 18 14  4 30.0000000  0 19G01G03G04G08G11G14G17G19G23G28G31G32
                                R01R02R03R09R10R18R24
  20199223.844                   106147701.986 7                        49.900
                  20199230.883    82712599.054 9                        42.900
  20199229.383    79266241.937 9                        55.100
  20741056.109                   108995137.663 7                        48.100
                  20741063.484    84931389.672 9                        41.400
  20741064.434    81392601.368 9                        53.600
  21101943.508                   110891476.178 7                        48.200
                  21101949.504    86409040.576 8                        37.600

  23953362.438                   125875616.043 5                        42.000
                  23953373.801    98084975.398 6                        24.500
  23953373.223    93998100.977 8                        42.500
  20552730.078                   108005474.077 7                        50.300
                  20552734.617    84160092.124 8                        39.600

  23696766.570                   124527451.548 4                        38.800
                  23696772.859    97034452.599 6                        25.300

  22892076.367                   120298711.934 6                        44.100
                  22892082.574    93739280.268 8                        34.000

  21332273.422                   112101801.021 7                        49.600
                  21332276.016    87352148.374 8                        39.900

  24485159.117                   128670448.243 5                        41.800
                  24485165.188   100262752.721 6                        21.300

  23752530.305                   124820453.753 6                        43.000
                  23752537.266    97262674.131 6                        23.400

  25161083.773                   132222388.756 2                        35.000


  20276706.734                   106554917.069 7                        49.700
                  20276711.621    83029908.493 8                        41.000

  20616858.359    20616858.223   110209506.619 8                        49.100
  20616864.574    20616865.484    85718210.127 9                        41.800

  19322122.047    19322120.609   103106939.803 8                        52.000
  19322125.887    19322125.980    80194200.394 9                        47.900

  22697236.164    22697234.223   121500526.009 6                        43.900
  22697242.289    22697242.879    94500176.934 8                        40.200

  23553510.906    23553510.461   125774401.124 5                        40.500
  23553517.918    23553516.133    97824577.724 6                        22.700

  23618431.055    23618429.801   125899381.969 6                        41.600
  23618439.430    23618438.988    97921889.678 7                        32.200

  21457578.258    21457577.887   114542031.697 7                        48.200
  21457583.691    21457584.121    89088249.991 9                        44.600

  21530385.117    21530384.246   115132653.002 6                        42.800
  21530390.266    21530390.176    89547642.597 8                        36.800

 15 10 18 14  5  0.0000000  0 19G01G03G04G08G11G14G17G19G23G28G31G32
                                R01R02R03R09R10R18R24
  20201681.000                   106160614.738 7                        49.400
                  20201687.660    82722660.930 9                        42.800
  20201686.691    79275884.567 9                        55.100
  20731688.438                   108945908.256 7                        48.900
                  20731695.453    84893029.121 9                        41.700
  20731696.465    81355839.165 9                        53.400
  21115273.203                   110961522.215 7                        48.100
                  21115278.645    86463621.862 8                        38.300

  23975039.664                   125989526.246 6                        43.300
                  23975050.195    98173736.448 6                        25.300
  23975050.027    94083163.644 8                        42.400
  20563135.906                   108060157.067 7                        50.300
                  20563140.348    84202702.219 8                        40.200

  23709962.570                   124596795.221 5                        39.400
                  23709968.055    97088486.587 7                        26.500

  22877309.672                   120221112.684 6                        45.000
                  22877315.438    93678813.373 7                        32.800

  21345064.281                   112169015.366 7                        50.300
                  21345066.516    87404523.157 8                        40.000

  24464580.297                   128562304.702 5                        42.000
                  24464587.344   100178485.200 6                        21.300

  23763788.156                   124879610.045 6                        43.600
                  23763793.473    97308769.828 6                        23.200

  25145601.391                   132141022.985 3                        36.500


  20282921.656                   106587577.773 7                        50.200
                  20282926.418    83055358.375 8                        40.500

  20633412.672    20633411.832   110297996.628 8                        50.000
  20633418.438    20633418.945    85787035.658 9                        42.000

  19315413.289    19315412.789   103071146.955 8                        51.100
  19315418.156    19315418.133    80166361.541 9                        48.200

  22674757.438    22674757.020   121380200.229 6                        43.700
  22674765.332    22674765.148    94406590.409 8                        40.800

  23560851.430    23560849.344   125813595.588 5                        40.900
  23560856.871    23560855.676    97855062.271 6                        24.400

  23607386.820    23607385.098   125840501.813 6                        42.100
  23607393.270    23607393.340    97876094.011 7                        31.800

  21437759.047    21437757.973   114436236.597 7                        47.800
  21437764.488    21437764.770    89005964.975 9                        45.100

  21551407.117    21551406.836   115245066.889 6                        42.200
  21551412.621    21551412.469    89635075.568 8                        37.100

 15 10 18 14  5 30.0000000  0 19G01G03G04G08G11G14G17G19G23G28G31G32
                                R01R02R03R09R10R18R24
  20204218.961                   106173954.031 7                        50.200
                  20204226.164    82733055.184 9                        43.500
  20204225.195    79285845.729 9                        55.200
  20722399.250                   108897096.034 7                        48.900
                  20722406.609    84854993.635 9                        41.700
  20722407.207    81319388.503 9                        53.700
  21128668.453                   111031913.835 7                        47.700
                  21128674.156    86518472.445 8                        38.400

  23996739.547                   126103559.528 6                        42.500
                  23996749.867    98262593.441 6                        24.400
  23996749.527    94168318.210 8                        43.400
  20573634.023                   108115323.422 7                        50.200
                  20573637.988    84245688.966 8                        39.400

  23723237.617                   124666554.506 5                        40.600
                  23723243.117    97142844.433 6                        23.300

  22862613.047                   120143881.606 6                        44.200
                  22862619.414    93618633.361 8                        33.100

  21357946.305                   112236709.687 7                        50.500
                  21357948.555    87457271.947 8                        39.200

  24444013.750                   128454222.969 6                        43.400
                  24444019.875   100094265.905 6                        23.000

  23775116.547                   124939141.919 6                        44.900
                  23775122.699    97355158.180 6                        24.700

  25130156.688                   132059863.871 3                        36.000


  20289227.359                   106620712.692 7                        50.800
                  20289232.113    83081177.784 8                        40.200

  20650044.523    20650044.270   110386904.449 8                        50.000
  20650051.152    20650051.195    85856186.154 8                        41.000

  19308829.695    19308828.844   103036013.867 8                        50.900
  19308834.125    19308833.992    80139035.823 9                        47.800

  22652324.742    22652324.563   121260118.788 6                        43.300
  22652332.711    22652332.754    94313193.948 9                        41.100

  23568326.695    23568326.484   125853516.284 5                        40.100
  23568331.895    23568331.871    97886111.653 6                        25.400

  23596464.383    23596464.070   125782288.497 6                        42.500
  23596472.891    23596472.922    97830816.995 7                        32.500

  21418002.195    21418001.590   114330772.041 7                        47.300
  21418007.207    21418007.324    88923937.048 9                        44.200

  21572501.898    21572500.090   115357860.689 6                        43.500
  21572505.789    21572505.750    89722803.987 8                        38.100

 15 10 18 14  6  0.0000000  0 19G01G03G04G08G11G14G17G19G23G28G31G32
                                R01R02R03R09R10R18R24
  20206839.156                   106187720.148 7                        49.600
                  20206846.379    82743782.029 9                        42.600
  20206845.586    79296125.618 9                        55.200
  20713190.586                   108848701.748 7                        49.300
                  20713197.676    84817283.817 9                        41.700
  20713198.156    81283249.934 9                        53.200
  21142129.102                   111102650.122 7                        48.500
                  21142134.309    86573591.588 8                        37.700

  24018462.500                   126217713.873 6                        43.300
                  24018473.586    98351544.751 6                        24.400
  24018472.656    94253563.212 8                        43.300
  20584223.805                   108170972.458 7                        50.300
                  20584227.824    84289051.836 8                        40.000

  23736590.859                   124736727.086 4                        38.700
                  23736596.695    97197524.372 6                        24.200

  22847987.234                   120067020.916 6                        45.000
                  22847992.859    93558741.955 8                        34.100

  21370918.789                   112304882.315 7                        49.500
                  21370921.645    87510393.440 8                        40.200

  24423458.289                   128346206.129 6                        42.900
                  24423465.707   100010097.107 6                        25.300

  23786515.875                   124999047.346 6                        44.300
                  23786521.629    97401837.664 6                        23.000

  25114752.383                   131978914.452 3                        35.800
                  25114763.207   102840756.656 5                        16.300

  20295622.734                   106654320.481 7                        50.800
                  20295627.688    83107365.667 8                        40.400

  20666754.961    20666753.770   110476227.203 8                        50.100
  20666760.301    20666760.754    85925659.376 9                        41.600

  19302369.008    19302368.156   103001541.017 8                        51.000
  19302373.574    19302373.398    80112223.627 9                        47.700

  22629937.805    22629937.035   121140284.170 6                        42.300
  22629946.172    22629945.629    94219989.430 8                        40.400

  23575937.406    23575936.961   125894161.181 5                        39.400
  23575943.098    23575942.957    97917724.326 6                        24.900

  23585668.969    23585667.598   125724745.300 6                        43.300
  23585679.715    23585677.992    97786061.210 7                        32.400

  21398307.375    21398305.945   114225641.761 7                        47.600
  21398313.063    21398313.344    88842169.109 9                        44.500

  21593664.531    21593663.543   115471031.988 6                        43.000
  21593669.801    21593669.367    89810826.030 8                        38.900

 15 10 18 14  6 30.0000000  0 19G01G03G04G08G11G14G17G19G23G28G31G32
                                R01R02R03R09R10R18R24
  20209539.773                   106201913.004 7                        49.800
                  20209547.238    82754841.402 9                        42.700
  20209546.035    79306724.179 9                        55.200
  20704060.852                   108800725.739 7                        48.500
                  20704068.063    84779899.925 9                        42.200
  20704068.137    81247423.706 9                        53.000
  21155655.156                   111173729.791 7                        47.900
                  21155660.387    86628978.304 8                        38.300

  24040207.922                   126331986.125 6                        42.200
                  24040218.801    98440587.969 6                        24.700
  24040218.402    94338896.243 8                        43.200
  20594905.523                   108227102.766 7                        50.600
                  20594908.945    84332789.715 8                        40.400

  23750023.148                   124807310.799 5                        39.700
                  23750028.719    97252524.586 6                        24.100

  22833432.055                   119990533.146 6                        46.100
                  22833437.770    93499141.136 8                        33.900

  21383982.195                   112373531.734 7                        47.500
                  21383985.004    87563886.458 8                        39.700

  24402917.195                   128238256.364 6                        44.600
                  24402922.758    99925980.609 7                        26.500

  23797986.664                   125059323.648 6                        44.100
                  23797992.391    97448806.093 6                        22.800

  25099388.813                   131898178.086 3                        36.700
                  25099397.512   102777845.196 5                        15.600

  20302107.703                   106688399.362 7                        50.800
                  20302112.598    83133920.631 8                        40.400

  20683540.547    20683540.645   110565961.214 8                        50.300
  20683547.367    20683547.516    85995452.472 9                        41.200

  19296033.086    19296031.766   102967728.517 8                        50.800
  19296037.320    19296037.074    80085925.033 9                        48.100

  22607597.422    22607596.418   121020698.498 6                        41.700
  22607606.172    22607605.797    94126978.555 8                        40.600

  23583684.195    23583684.102   125935528.068 4                        38.900
  23583691.215    23583690.137    97949898.538 6                        23.900

  23575001.477    23575001.516   125667875.585 6                        41.800
  23575009.004    23575009.219    97741829.183 7                        33.000

  21378676.258    21378675.301   114120849.093 7                        48.300
  21378681.746    21378681.711    88760663.774 9                        45.000

  21614896.641    21614896.945   115584577.936 5                        40.500
  21614903.215    21614903.012    89899139.442 8                        37.700

 15 10 18 14  7  0.0000000  0 19G01G03G04G08G11G14G17G19G23G28G31G32
                                R01R02R03R09R10R18R24
  20212321.586                   106216532.524 7                        49.400
                  20212329.082    82766233.233 9                        43.000
  20212327.875    79317641.347 9                        55.100
  20695010.953                   108753168.426 7                        47.900
                  20695018.527    84742842.294 9                        41.700
  20695018.188    81211910.147 9                        53.000
  21169246.117                   111245151.452 7                        49.100
                  21169251.480    86684631.495 8                        37.800

  24061975.078                   126446374.419 5                        41.300
                  24061986.121    98529721.568 6                        24.600
  24061985.898    94424315.921 8                        43.500
  20605677.477                   108283712.736 7                        49.900
                  20605681.234    84376901.375 8                        39.500

  23763532.156                   124878303.483 5                        39.100
                  23763538.418    97307843.559 6                        22.600

  22818948.109                   119914420.577 6                        45.600
                  22818953.281    93439832.680 8                        34.700

  21397135.344                   112442655.649 7                        47.200
                  21397139.215    87617749.216 8                        39.100

  24382386.273                   128130375.678 5                        41.400
                  24382394.207    99841917.917 7                        26.800

  23809527.344                   125119968.341 6                        43.300
                  23809532.707    97496061.597 6                        23.400

  25084065.594                   131817657.497 3                        36.500
                  25084074.207   102715101.947 4                        12.600

  20308682.109                   106722947.395 7                        49.900
                  20308686.527    83160841.166 9                        41.100

  20700404.203    20700403.129   110656102.969 8                        51.200
  20700409.773    20700410.242    86065562.702 8                        40.900

  19289820.469    19289819.617   102934576.305 8                        51.400
  19289824.754    19289824.762    80060140.002 9                        48.000

  22585305.695    22585304.574   120901363.906 6                        43.400
  22585312.738    22585312.375    94034162.934 8                        40.600

  23591566.344    23591565.898   125977614.706 5                        39.300
  23591573.395    23591571.844    97982632.549 6                        25.900

  23564460.070    23564458.465   125611681.785 6                        43.600
  23564467.914    23564467.555    97698122.890 7                        32.600

  21359108.359    21359108.574   114016397.308 7                        48.300
  21359114.113    21359114.340    88679423.570 9                        44.000

  21636201.023    21636200.391   115698495.957 6                        42.500
  21636206.188    21636205.641    89987742.247 8                        37.200

 15 10 18 14  7 30.0000000  0 19G01G03G04G08G11G14G17G19G23G28G31G32
                                R01R02R03R09R10R18R24
  20215185.039                   106231579.293 7                        49.800
                  20215192.211    82777957.985 9                        43.600
  20215191.301    79328877.559 9                        55.400
  20686040.977                   108706030.789 7                        49.000
                  20686048.469    84706111.684 9                        42.200
  20686048.188    81176709.983 9                        53.300
  21182902.758                   111316914.705 7                        49.300
                  21182907.340    86740550.872 8                        38.000

  24083764.258                   126560876.306 5                        41.600
                  24083775.586    98618943.679 6                        22.600
  24083774.715    94509820.438 8                        42.400
  20616541.234                   108340801.733 7                        50.500
                  20616545.012    84421386.285 8                        39.200

  23777118.398                   124949703.010 5                        39.600
                  23777125.418    97363479.509 6                        23.200

  22804536.883                   119838686.065 6                        45.800
                  22804541.641    93380818.793 8                        33.700

  21410379.523                   112512252.611 7                        48.400
                  21410382.465    87671980.568 8                        40.000

  24361871.906                   128022566.769 6                        43.500
                  24361877.789    99757911.176 7                        26.200

  23821136.406                   125180979.260 6                        43.500
                  23821143.137    97543602.471 6                        22.500

  25068785.313                   131737356.508 3                        35.400
                  25068793.934   102652529.837 5                        15.600

  20315345.594                   106757963.703 7                        51.500
                  20315350.195    83188126.590 8                        40.800

  20717342.875    20717341.684   110746649.912 8                        50.600
  20717348.305    20717348.836    86135988.063 8                        40.900

  19283731.602    19283730.281   102902085.131 8                        50.700
  19283735.723    19283734.918    80034869.108 9                        47.700

  22563059.766    22563059.469   120782283.198 6                        43.300
  22563067.938    22563067.434    93941544.783 8                        40.100

  23599581.961    23599581.516   126020419.359 5                        39.500
  23599588.996    23599587.449    98015925.032 6                        25.700

  23554044.188    23554043.051   125556167.134 6                        43.400
  23554052.367    23554052.910    97654944.828 7                        32.800

  21339606.797    21339605.484   113912290.535 8                        49.600
  21339611.676    21339611.441    88598451.693 9                        44.000

  21657574.250    21657573.734   115812783.505 6                        42.700
  21657578.250    21657578.328    90076632.513 8                        36.500

 15 10 18 14  8  0.0000000  0 19G01G03G04G08G11G14G17G19G23G28G31G32
                                R01R02R03R09R10R18R24
  20218129.492                   106247053.225 7                        48.800
                  20218137.098    82790015.583 9                        42.200
  20218136.070    79340432.753 9                        55.100
  20677151.297                   108659313.197 7                        48.500
                  20677158.379    84669708.391 9                        42.300
  20677158.098    81141823.493 9                        52.700
  21196623.211                   111389018.067 7                        49.000
                  21196628.148    86796735.280 8                        37.000

  24105574.844                   126675489.425 5                        40.000
                  24105585.340    98708252.459 6                        22.600
  24105585.586    94595407.987 8                        42.500
  20627496.047                   108398368.613 7                        49.400
                  20627499.441    84466243.574 8                        39.200

  23790782.711                   125021507.111 5                        41.100
                  23790788.969    97419430.726 6                        25.600

  22790196.773                   119763331.835 6                        46.600
                  22790202.301    93322101.240 7                        32.600

  21423712.992                   112582320.546 7                        49.900
                  21423716.301    87726578.925 8                        39.900

  24341369.367                   127914831.929 5                        40.900
                  24341377.023    99673962.170 6                        23.800

  23832816.711                   125242353.742 5                        41.900
                  23832821.758    97591426.647 6                        25.200

  25053547.234                   131657277.804 4                        37.600
                  25053555.199   102590130.947 5                        14.800

  20322097.539                   106793446.324 7                        51.400
                  20322102.324    83215775.379 8                        40.900

  20734357.219    20734355.910   110837598.327 8                        50.800
  20734362.727    20734363.137    86206725.685 9                        41.100

  19277766.703    19277765.266   102870255.091 8                        51.400
  19277770.469    19277770.063    80010112.422 9                        47.700

  22540863.352    22540862.348   120663458.083 6                        43.900
  22540870.148    22540869.785    93849125.403 8                        40.400

  23607733.250    23607732.336   126063939.733 5                        39.800
  23607737.457    23607737.313    98049774.189 6                        25.400

  23543758.180    23543755.168   125501334.684 6                        45.000
  23543765.953    23543766.086    97612297.361 7                        31.200

  21320168.625    21320168.254   113808532.114 8                        49.900
  21320173.887    21320173.773    88517750.750 9                        43.800

  21679016.336    21679014.293   115927438.056 6                        42.800
  21679020.297    21679019.719    90165808.203 8                        36.300

 15 10 18 14  8 30.0000000  0 19G01G03G04G08G11G14G17G19G23G28G31G32
                                R01R02R03R09R10R18R24
  20221155.125                   106262954.178 7                        48.900
                  20221162.402    82802405.923 9                        42.700
  20221161.434    79352306.829 9                        54.900
  20668340.867                   108613015.968 7                        48.600
                  20668348.203    84633632.625 9                        42.400
  20668347.922    81107250.891 9                        52.600
  21210408.328                   111461460.325 7                        49.600
                  21210413.625    86853183.751 8                        37.300

  24127405.023                   126790211.250 6                        42.200
                  24127416.750    98797645.986 6                        22.600
  24127417.578    94681076.746 8                        43.000
  20638541.391                   108456411.965 7                        49.900
                  20638545.059    84511472.138 8                        39.700

  23804523.391                   125093713.293 6                        42.500
                  23804529.566    97475695.266 6                        25.300

  22775930.781                   119688360.083 6                        45.900
                  22775935.246    93263681.741 8                        34.300

  21437135.984                   112652857.419 7                        49.100
                  21437138.879    87781542.675 8                        39.700

  24320883.234                   127807173.524 6                        42.400
                  24320890.219    99590072.687 6                        25.300

  23844565.055                   125304089.469 6                        44.700
                  23844570.949    97639532.304 6                        24.500

  25038351.250                   131577423.931 3                        36.500
                  25038359.926   102527907.198 5                        14.800

  20328937.961                   106829393.584 7                        50.900
                  20328943.027    83243786.226 8                        40.700

  20751445.227    20751443.918   110928944.366 8                        50.100
  20751449.965    20751450.879    86277772.570 9                        41.100

  19271925.578    19271924.258   102839085.914 8                        51.200
  19271929.375    19271929.199    79985869.732 9                        47.900

  22518713.172    22518712.992   120544891.100 6                        43.700
  22518720.973    22518720.078    93756906.794 8                        40.400

  23616017.953    23616015.164   126108173.374 5                        39.400
  23616022.156    23616021.191    98084178.057 7                        26.500

  23533601.172    23533599.449   125447186.759 6                        44.100
  23533608.828    23533608.711    97570182.340 7                        31.000

  21300797.672    21300797.066   113705125.350 8                        51.200
  21300802.531    21300802.258    88437323.312 9                        43.800

  21700523.992    21700522.418   116042456.944 6                        41.800
  21700529.371    21700528.598    90255267.244 8                        37.800

 15 10 18 14  9  0.0000000  0 19G01G03G04G08G11G14G17G19G23G28G31G32
                                R01R02R03R09R10R18R24
  20224262.031                   106279282.395 7                        48.200
                  20224269.621    82815129.203 9                        43.000
  20224268.531    79364499.972 9                        55.100
  20659610.648                   108567139.767 7                        48.200
                  20659617.926    84597884.950 9                        41.800
  20659617.703    81072992.700 9                        53.000
  21224258.094                   111534240.537 7                        48.600
                  21224263.230    86909895.564 8                        37.100

  24149256.531                   126905039.304 5                        41.700
                  24149267.867    98887122.245 6                        22.900
  24149266.941    94766824.790 8                        42.400
  20649676.781                   108514930.532 7                        49.300
                  20649680.867    84557070.992 8                        39.200

  23818339.703                   125166319.608 5                        40.500
                  23818346.484    97532271.577 6                        23.000

  22761737.023                   119613773.487 6                        45.600
                  22761742.078    93205562.346 8                        33.300

  21450647.930                   112723861.438 7                        49.300
                  21450651.465    87836870.440 8                        40.400

  24300411.469                   127699593.914 5                        41.600
                  24300416.559    99506244.628 6                        23.000

  23856380.938                   125366183.928 6                        43.500
                  23856386.012    97687917.496 6                        22.800

  25023199.148                   131497798.517 2                        34.800
                  25023207.859   102465861.529 5                        16.300

  20335866.453                   106865803.938 7                        51.000
                  20335871.586    83272157.924 8                        40.900

  20768607.102    20768605.793   111020685.597 8                        50.100
  20768612.320    20768613.129    86349126.833 8                        40.200

  19266208.070    19266206.984   102808577.938 8                        51.100
  19266212.371    19266212.070    79962141.315 9                        47.700

  22496612.805    22496612.152   120426584.841 6                        43.800
  22496619.660    22496619.316    93664890.959 8                        40.000

  23624432.828    23624433.324   126153118.038 4                        38.400
  23624437.395    23624437.602    98119135.035 6                        24.500

  23523571.609    23523570.355   125393726.694 6                        44.800
  23523579.641    23523580.082    97528602.300 7                        31.200

  21281492.594    21281491.637   113602074.238 8                        50.200
  21281496.758    21281497.031    88357172.504 9                        44.000

  21722100.852    21722099.980   116157837.682 6                        42.300
  21722106.934    21722105.742    90345007.698 8                        37.400

 15 10 18 14  9 30.0000000  0 19G01G03G04G08G11G14G17G19G23G28G31G32
                                R01R02R03R09R10R18R24
  20227450.367                   106296037.683 7                        49.800
                  20227457.859    82828185.265 9                        42.100
  20227456.832    79377012.029 9                        55.000
  20650960.977                   108521684.811 7                        48.200
                  20650967.855    84562465.520 9                        41.100
  20650968.164    81039049.086 9                        52.900
  21238171.563                   111607357.405 7                        49.400
                  21238177.363    86966869.707 8                        37.900

  24171127.734                   127019971.421 5                        40.500
                  24171139.703    98976679.573 6                        22.000
  24171139.535    94852650.557 8                        43.300
  20660903.195                   108573922.988 7                        50.000
                  20660907.484    84603039.112 8                        39.500

  23832231.789                   125239323.570 5                        41.400
                  23832237.828    97589157.747 6                        23.500

  22747617.289                   119539574.030 6                        45.500
                  22747622.422    93147744.607 8                        33.400

  21464248.055                   112795330.390 7                        50.300
                  21464250.645    87892560.481 8                        39.800

  24279954.203                   127592095.389 5                        40.900
                  24279960.711    99422479.729 6                        22.300

  23868265.102                   125428634.327 6                        43.200
                  23868269.949    97736580.045 6                        23.300

  25008089.664                   131418404.327 2                        35.000
                  25008097.316   102403995.971 5                        15.600

  20342882.844                   106902675.576 7                        50.900
                  20342888.520    83300889.061 8                        40.500

  20785841.898    20785841.176   111112817.807 8                        49.800
  20785847.363    20785848.191    86420785.188 8                        40.400

  19260615.367    19260614.633   102778730.768 8                        50.800
  19260619.449    19260619.203    79938926.859 9                        46.300

  22474562.039    22474560.449   120308541.080 6                        44.400
  22474567.305    22474567.020    93573079.281 8                        39.700

  23632982.711    23632980.977   126198771.274 4                        38.100
  23632987.676    23632987.770    98154643.070 6                        25.400

  23513672.391    23513671.488   125340957.130 6                        44.000
  23513681.414    23513680.715    97487559.364 7                        31.600

  21262254.469    21262253.863   113499381.649 8                        50.100
  21262259.020    21262259.477    88277300.541 9                        43.600

  21743746.336    21743744.410   116273577.033 6                        43.200
  21743750.141    21743749.934    90435027.083 8                        37.200

 15 10 18 14 10  0.0000000  0 19G01G03G04G08G11G14G17G19G23G28G31G32
                                R01R02R03R09R10R18R24
  20230720.359                   106313220.317 7                        48.400
                  20230728.258    82841574.323 9                        42.300
  20230727.289    79389843.210 9                        55.000
  20642391.211                   108476651.831 7                        47.900
                  20642398.055    84527374.890 8                        41.000
  20642398.652    81005420.575 9                        52.700
  21252149.297                   111680810.016 7                        48.200
                  21252154.703    87024105.468 8                        37.900

  24193017.453                   127135005.071 5                        41.300
                  24193029.320    99066316.038 6                        21.700
  24193030.266    94938552.147 8                        43.900
  20672218.430                   108633388.142 7                        50.700
                  20672223.219    84649375.551 8                        40.200

  23846199.602                   125312722.941 5                        40.400
                  23846205.613    97646352.020 6                        22.500

  22733571.797                   119465764.409 6                        45.500
                  22733577.320    93090230.653 8                        34.200

  21477936.320                   112867262.579 7                        48.800
                  21477939.262    87948611.504 8                        40.300

  24259514.492                   127484680.792 6                        43.400
                  24259519.516    99338780.250 6                        22.800

  23880216.172                   125491438.424 6                        44.900
                  23880221.957    97785518.201 6                        24.700

  24993026.125                   131339244.878 3                        35.200
                  24993034.070   102342313.375 5                        14.800

  20349986.914                   106940006.992 7                        51.300
                  20349991.961    83329978.467 8                        40.200

  20803150.430    20803148.770   111205338.026 8                        49.900
  20803155.781    20803156.141    86492745.326 8                        39.900

  19255145.375    19255144.172   102749545.044 8                        51.300
  19255148.887    19255148.879    79916226.850 9                        47.300

  22452559.844    22452557.785   120190762.365 6                        44.100
  22452565.797    22452565.172    93481473.752 8                        40.900

  23641662.078    23641662.574   126245130.910 4                        37.300
  23641669.926    23641668.730    98190700.520 6                        25.200

  23503902.563    23503900.840   125288880.813 6                        44.100
  23503910.457    23503910.516    97447055.608 7                        31.500

  21243084.734    21243083.422   113397051.782 7                        48.900
  21243089.000    21243088.969    88197710.686 9                        42.900

  21765454.852    21765453.980   116389672.790 6                        41.700
  21765459.570    21765459.188    90525323.694 8                        35.700

 15 10 18 14 10 30.0000000  0 19G01G03G04G08G11G14G17G19G23G28G31G32
                                R01R02R03R09R10R18R24
  20234071.648                   106330830.308 7                        50.200
                  20234078.984    82855296.385 9                        42.400
  20234077.898    79402993.517 9                        54.800
  20633901.703                   108432041.260 7                        48.200
                  20633908.754    84492613.422 9                        41.300
  20633909.645    80972107.509 9                        53.200
  21266191.031                   111754597.052 7                        48.700
                  21266196.422    87081601.823 8                        38.000

  24214926.516                   127250137.850 5                        40.900
                  24214938.309    99156029.748 6                        20.400
  24214940.484    95024527.738 9                        45.300
  20683624.242                   108693324.910 7                        50.200
                  20683628.641    84696079.498 8                        39.200

  23860240.906                   125386515.759 5                        40.200
                  23860247.891    97703852.870 6                        22.300

  22719601.242                   119392346.942 6                        45.800
                  22719606.000    93033022.277 8                        35.000

  21491712.273                   112939656.114 7                        48.100
                  21491714.965    88005022.019 8                        40.000

  24239088.242                   127377351.761 5                        40.700
                  24239096.059    99255147.439 6                        22.600

  23892234.273                   125554593.549 6                        44.300
                  23892239.445    97834729.872 6                        22.300

  24978008.141                   131260323.407 2                        33.300
                  24978016.230   102280816.233 5                        13.900

  20357178.125                   106977796.610 7                        51.000
                  20357182.793    83359424.919 8                        40.800

  20820530.172    20820528.980   111298243.380 8                        49.700
  20820535.578    20820535.961    86565004.996 8                        40.500

  19249800.453    19249798.898   102721020.479 8                        50.700
  19249803.891    19249803.555    79894041.082 9                        47.300

  22430606.164    22430605.867   120073250.911 6                        43.900
  22430613.688    22430613.629    93390076.106 8                        40.600

  23650479.047    23650476.492   126292194.624 4                        37.100
  23650483.105    23650482.609    98227305.580 7                        26.700

  23494262.750    23494262.203   125237500.351 6                        43.500
  23494272.602    23494271.340    97407093.043 7                        31.100

  21223983.359    21223981.813   113295088.080 8                        49.300
  21223987.520    21223987.563    88118405.635 9                        43.700

  21787231.414    21787231.484   116506122.416 6                        41.800
  21787237.402    21787235.648    90615895.533 8                        33.700

 15 10 18 14 11  0.0000000  0 19G01G03G04G08G11G14G17G19G23G28G31G32
                                R01R02R03R09R10R18R24
  20237503.828                   106348867.560 7                        49.100
                  20237511.414    82869351.376 9                        42.200
  20237510.152    79416462.880 9                        54.800
  20625493.516                   108387853.422 7                        47.500
                  20625499.887    84458181.366 8                        40.700
  20625501.016    80939110.119 9                        53.100
  21280295.219                   111828717.413 7                        48.500
                  21280300.957    87139357.919 8                        37.600

  24236855.242                   127365367.476 5                        41.800
                  24236865.703    99245818.904 6                        21.500
  24236867.414    95110575.636 9                        45.200
  20695119.086                   108753732.017 7                        49.800
                  20695123.582    84743149.939 8                        39.600

  23874358.633                   125460699.462 5                        40.300
                  23874364.984    97761658.360 6                        22.600

  22705705.125                   119319324.057 6                        45.500
                  22705710.063    92976121.379 8                        34.900

  21505575.469                   113012508.947 7                        48.200
                  21505579.023    88061790.428 8                        39.000

  24218681.656                   127270110.989 5                        41.700
                  24218688.598    99171583.403 6                        22.300

  23904319.203                   125618097.307 6                        44.000
                  23904324.742    97884213.199 6                        22.900

  24963034.766                   131181642.513 1                        32.200
                  24963042.938   102219506.527 5                        14.800

  20364455.703                   107016042.524 7                        51.100
                  20364460.805    83389226.928 8                        40.400

  20837981.258    20837979.598   111391530.236 8                        50.000
  20837986.473    20837987.125    86637561.413 8                        40.300

  19244578.656    19244577.453   102693157.148 8                        50.700
  19244582.621    19244582.313    79872369.622 9                        47.300

  22408704.438    22408702.848   119956008.501 6                        44.100
  22408711.469    22408711.082    93298887.707 9                        41.500

  23659421.188    23659421.801   126339960.125 4                        37.600
  23659428.680    23659427.480    98264456.541 7                        27.200

  23484756.969    23484754.426   125186818.621 6                        44.300
  23484764.723    23484763.723    97367673.995 7                        30.100

  21204951.164    21204950.559   113193493.849 7                        48.800
  21204956.492    21204955.742    88039387.949 9                        43.200

  21809074.438    21809073.684   116622922.656 6                        43.400
  21809079.254    21809078.887    90706740.091 8                        34.000

 15 10 18 14 11 30.0000000  0 19G01G03G04G08G11G14G17G19G23G28G31G32
                                R01R02R03R09R10R18R24
  20241017.750                   106367332.385 7                        49.600
                  20241025.059    82883739.549 9                        41.800
  20241023.563    79430251.544 9                        54.600
  20617165.641                   108344089.109 7                        48.500
                  20617172.078    84424079.334 9                        41.600
  20617173.090    80906429.009 9                        53.400
  21294462.914                   111903170.253 7                        48.000
                  21294468.477    87197373.093 8                        37.500

  24258800.633                   127480691.656 6                        42.700
                  24258811.465    99335681.757 6                        21.800
  24258812.883    95196694.142 9                        45.100
  20706703.492                   108814608.360 7                        50.200
                  20706707.992    84790586.015 8                        39.200

  23888548.836                   125535271.854 5                        40.400
                  23888554.832    97819766.659 6                        22.000

  22691884.383                   119246698.393 6                        46.500
                  22691890.004    92919530.004 8                        35.000

  21519525.625                   113085819.259 7                        47.800
                  21519529.840    88118915.297 8                        39.100

  24198290.563                   127162960.905 5                        40.600
                  24198296.898    99088090.097 6                        22.300

  23916467.969                   125681946.970 6                        43.400
                  23916475.336    97933966.086 6                        23.900

  24948110.383                   131103205.637 3                        35.500
                  24948117.586   102158387.013 5                        15.600

  20371820.484                   107054743.480 7                        50.500
                  20371825.414    83419383.510 8                        40.300

  20855502.648    20855502.277   111485195.367 7                        48.800
  20855508.340    20855509.172    86710412.043 8                        40.500

  19239480.336    19239479.836   102665955.114 8                        50.300
  19239485.047    19239484.441    79851212.501 9                        47.500

  22386853.063    22386851.707   119839038.165 6                        44.500
  22386860.246    22386860.172    93207910.921 8                        40.700

  23668498.875    23668498.078   126388425.004 4                        37.500
  23668503.449    23668503.305    98302151.475 7                        27.200

  23475378.727    23475378.180   125136838.276 6                        44.000
  23475388.594    23475387.602    97328800.355 7                        29.700

  21185989.695    21185988.031   113092273.065 8                        50.100
  21185994.234    21185994.297    87960660.737 9                        44.200

  21830983.211    21830981.168   116740071.581 6                        43.200
  21830986.563    21830986.199    90797855.865 8                        36.000

 15 10 18 14 12  0.0000000  0 19G01G03G04G08G11G14G17G19G23G28G31G32
                                R01R02R03R09R10R18R24
  20244612.656                   106386224.747 7                        49.500
                  20244620.070    82898460.860 9                        42.100
  20244618.688    79444359.469 9                        55.200
  20608918.414                   108300748.692 7                        48.900
                  20608924.656    84390307.600 9                        41.800
  20608925.844    80874064.436 9                        53.200
  21308693.875                   111977954.344 7                        48.200
                  21308699.453    87255646.391 8                        37.300

  24280763.273                   127596107.883 5                        41.500
                  24280774.461    99425616.336 6                        21.500
  24280775.465    95282881.397 9                        45.100
  20718377.383                   108875952.680 7                        50.900
                  20718381.512    84838386.752 8                        39.600

  23902814.414                   125610230.663 5                        40.900
                  23902819.250    97878176.071 6                        22.600

  22678140.969                   119174471.983 6                        46.300
                  22678145.848    92863249.741 8                        34.500

  21533563.164                   113159585.141 7                        48.100
                  21533567.340    88176395.158 8                        38.800

  24177918.969                   127055904.068 5                        41.100
                  24177925.273    99004669.406 6                        22.300

  23928683.523                   125746140.522 6                        43.000
                  23928690.867    97983986.916 6                        23.400

  24933230.031                   131025015.829 3                        35.200
                  24933238.965   102097460.009 5                        14.800

  20379271.133                   107093897.640 7                        50.000
                  20379276.273    83449893.233 8                        40.100

  20873094.938    20873093.980   111579235.748 8                        49.300
  20873101.066    20873101.750    86783554.516 8                        40.500

  19234506.680    19234505.242   102639414.524 8                        50.200
  19234510.855    19234510.488    79830569.826 9                        47.800

  22365053.102    22365051.746   119722342.108 6                        43.400
  22365060.355    22365059.836    93117147.473 8                        40.600

  23677706.313    23677703.406   126437586.705 4                        37.700
  23677710.035    23677709.074    98340388.356 7                        27.800

  23466137.766    23466133.227   125087562.224 7                        46.200
  23466143.000    23466142.523    97290474.563 7                        28.200

  21167097.563    21167096.250   112991429.145 7                        48.900
  21167102.324    21167101.234    87882226.624 9                        44.300

  21852954.633    21852954.234   116857566.391 6                        43.200
  21852959.223    21852958.961    90889240.614 8                        37.200

 15 10 18 14 12 30.0000000  0 19G01G03G04G08G11G14G17G19G23G28G31G32
                                R01R02R03R09R10R18R24
  20248288.922                   106405544.381 7                        48.000
                  20248296.863    82913515.118 9                        42.200
  20248295.246    79458786.460 9                        54.500
  20600751.586                   108257832.270 7                        48.800
                  20600757.785    84356866.245 9                        41.400
  20600759.090    80842016.470 9                        53.400
  21322987.734                   112053068.154 7                        48.400
                  21322993.543    87314176.606 8                        37.000

  24302744.375                   127711613.583 6                        42.900
                  24302755.293    99515620.609 6                        22.800
  24302755.594    95369135.448 9                        44.100
  20730139.422                   108937763.293 7                        50.800
                  20730143.527    84886550.829 8                        39.600

  23917150.203                   125685573.543 5                        40.100
                  23917156.656    97936884.818 6                        22.800

  22664472.602                   119102647.017 6                        45.700
                  22664478.434    92807282.281 8                        34.700

  21547686.469                   113233804.363 7                        47.700
                  21547690.609    88234228.265 8                        39.400

  24157564.977                   126948942.333 5                        41.300
                  24157570.598    98921322.873 6                        25.000

  23940965.016                   125810674.935 6                        43.700
                  23940971.297    98034273.387 6                        23.600

  24918398.523                   130947075.786 2                        34.300
                  24918406.711   102036727.724 5                        15.600

  20386808.297                   107133503.064 7                        50.000
                  20386812.668    83480754.589 8                        39.900

  20890756.469    20890755.512   111673647.501 7                        48.800
  20890762.246    20890763.219    86856985.844 8                        39.900

  19229657.531    19229656.563   102613534.867 8                        50.000
  19229661.371    19229661.039    79810441.217 9                        47.600

  22343304.148    22343303.613   119605921.899 6                        43.500
  22343311.668    22343311.070    93026598.550 8                        39.900

  23687042.289    23687040.320   126487442.483 4                        37.700
  23687046.547    23687045.820    98379165.050 7                        28.300

  23457024.055    23457022.918   125038992.810 7                        45.400
  23457031.836    23457031.473    97252698.340 7                        28.100

  21148276.961    21148276.355   112890965.384 8                        49.500
  21148282.793    21148282.531    87804088.193 9                        44.100

  21874989.633    21874988.762   116975403.721 6                        41.800
  21874995.891    21874995.457    90980891.750 8                        36.500

 15 10 18 14 13  0.0000000  0 19G01G03G04G08G11G14G17G19G23G28G31G32
                                R01R02R03R09R10R18R24
  20252046.789                   106425291.358 7                        49.900
                  20252054.504    82928902.366 9                        42.200
  20252053.121    79473532.572 9                        54.900
  20592665.516                   108215340.419 7                        48.700
                  20592671.980    84323755.734 9                        41.500
  20592673.164    80810285.563 9                        53.600
  21337343.547                   112128510.695 7                        47.600
                  21337349.719    87372962.978 8                        37.200

  24324739.930                   127827206.525 5                        41.600
                  24324751.719    99605692.877 6                        21.800
  24324752.371    95455454.672 9                        44.500
  20741989.664                   109000038.856 7                        49.500
                  20741994.094    84935077.211 8                        39.400

  23931560.188                   125761298.224 5                        39.600
                  23931566.199    97995891.041 6                        22.500

  22650881.539                   119031226.061 6                        47.000
                  22650887.484    92751629.632 8                        34.600

  21561896.055                   113308474.847 7                        47.600
                  21561899.617    88292413.003 8                        39.400

  24137229.836                   126842078.248 6                        42.300
                  24137234.766    98838052.384 6                        22.800

  23953308.883                   125875547.843 6                        43.000
                  23953316.152    98084823.598 6                        24.900

  24903615.617                   130869388.811 2                        35.000
                  24903623.477   101976192.541 5                        17.400

  20394430.008                   107173558.225 7                        50.000
                  20394435.242    83511966.392 8                        40.100

  20908486.813    20908486.441   111768427.749 7                        48.800
  20908493.379    20908494.109    86930703.784 8                        40.000

  19224931.242    19224929.570   102588315.809 8                        50.900
  19224935.332    19224934.914    79790826.412 9                        47.900

  22321608.641    22321607.754   119489779.945 6                        44.600
  22321615.828    22321614.637    92936266.051 8                        40.200

  23696507.086    23696505.820   126537989.896 3                        36.300
  23696513.398    23696511.613    98418479.618 7                        27.500

  23448044.016    23448045.344   124991132.617 6                        42.200
  23448054.121    23448053.789    97215473.703 7                        29.600

  21129528.992    21129528.270   112790885.673 7                        49.000
  21129534.539    21129533.535    87726248.481 9                        44.500

  21897090.727    21897089.152   117093581.446 6                        41.700
  21897095.070    21897095.695    91072807.608 8                        36.100

 15 10 18 14 13 30.0000000  0 19G01G03G04G08G11G14G17G19G23G28G31G32
                                R01R02R03R09R10R18R24
  20255885.969                   106445465.851 7                        48.800
                  20255893.516    82944622.739 9                        41.900
  20255892.020    79488597.921 9                        54.700
  20584661.094                   108173273.655 7                        48.300
                  20584667.094    84290976.455 9                        41.800
  20584668.281    80778872.089 9                        53.900
  21351762.195                   112204281.039 7                        47.500
                  21351767.594    87432004.772 8                        36.800

  24346753.289                   127942884.385 5                        41.800
                  24346765.344    99695831.296 6                        22.500
  24346765.293    95541837.282 8                        43.900
  20753929.000                   109062778.362 7                        50.000
                  20753932.848    84983965.098 8                        38.400

  23946043.359                   125837402.392 5                        40.400
                  23946048.379    98055192.965 6                        22.000

  22637368.148                   118960211.676 6                        45.800
                  22637373.750    92696293.786 8                        35.500

  21576191.273                   113383594.559 7                        47.900
                  21576194.648    88350947.793 8                        40.200

  24116913.094                   126735314.321 6                        42.100
                  24116918.332    98754859.956 6                        23.300

  23965718.117                   125940756.616 6                        42.600
                  23965725.168    98135635.501 6                        22.900

  24888880.148                   130791957.962 2                        34.300
                  24888888.535   101915856.902 5                        16.300

  20402137.758                   107214061.467 7                        49.100
                  20402142.855    83543527.354 8                        39.400

  20926285.945    20926286.160   111863573.141 7                        48.300
  20926292.930    20926293.336    87004705.718 8                        40.900

  19220328.719    19220328.219   102563758.102 8                        50.600
  19220334.105    19220333.305    79771725.992 9                        47.700

  22299964.883    22299964.113   119373918.652 6                        45.000
  22299971.918    22299971.707    92846151.844 9                        41.200

  23706103.633    23706100.961   126589226.409 4                        37.600
  23706108.055    23706107.094    98458330.253 7                        28.900

  23439201.930    23439198.332   124943984.291 7                        45.300
  23439208.898    23439208.438    97178802.772 7                        30.400

  21110853.125    21110852.754   112691193.631 8                        50.200
  21110858.125    21110858.871    87648710.287 9                        44.700

  21919253.398    21919253.000   117212096.859 6                        43.200
  21919256.934    21919257.020    91164986.164 8                        34.700

 15 10 18 14 14  0.0000000  0 19G01G03G04G08G11G14G17G19G23G28G31G32
                                R01R02R03R09R10R18R24
  20259806.297                   106466067.491 7                        48.700
                  20259813.957    82960675.942 9                        42.000
  20259812.344    79503982.239 9                        55.000
  20576736.383                   108131632.066 7                        48.400
                  20576742.801    84258528.488 9                        42.200
  20576744.105    80747776.116 9                        53.900
  21366243.281                   112280377.467 7                        47.900
                  21366248.379    87491300.646 8                        36.500

  24368781.492                   128058644.507 5                        40.900
                  24368794.547    99786033.810 6                        22.900
  24368794.500    95628281.336 9                        44.100
  20765955.664                   109125980.055 7                        50.400
                  20765959.473    85033213.137 8                        38.800

  23960596.625                   125913883.683 5                        40.600
                  23960601.902    98114788.771 6                        21.700

  22623932.430                   118889605.743 6                        45.600
                  22623937.977    92641276.214 8                        34.900

  21590571.148                   113459161.437 7                        48.500
                  21590574.648    88409831.029 8                        40.200

  24096615.164                   126628652.629 6                        42.500
                  24096620.574    98671747.153 6                        24.000

  23978191.445                   126006298.223 6                        44.600
                  23978197.789    98186706.808 6                        24.600

  24874196.070                   130714786.137 2                        34.800
                  24874203.371   101855723.272 5                        15.600

  20409930.133                   107255010.803 7                        50.200
                  20409934.871    83575435.913 8                        39.900

  20944153.086    20944152.246   111959080.096 8                        49.500
  20944158.992    20944159.852    87078988.866 8                        39.900

  19215850.383    19215849.297   102539860.590 8                        49.600
  19215854.813    19215854.414    79753139.052 9                        48.000

  22278374.133    22278373.012   119258340.002 6                        44.900
  22278379.680    22278379.852    92756257.478 9                        41.600

  23715826.063    23715825.383   126641149.451 4                        37.100
  23715831.348    23715830.266    98498714.825 7                        28.600

  23430491.070    23430488.059   124897550.279 7                        46.200
  23430498.762    23430497.293    97142687.487 7                        30.900

  21092250.672    21092250.066   112591892.676 8                        49.700
  21092255.656    21092255.805    87571476.258 9                        45.200

  21941479.672    21941478.332   117330946.516 6                        43.400
  21941482.535    21941482.426    91257424.783 8                        34.000

 15 10 18 14 14 30.0000000  0 19G01G03G04G08G11G14G17G19G23G28G31G32
                                R01R02R03R09R10R18R24
  20263807.656                   106487096.487 7                        48.800
                  20263815.574    82977062.164 9                        42.000
  20263813.961    79519685.704 9                        54.600
  20568893.102                   108090416.289 7                        48.600
                  20568899.652    84226412.310 9                        41.800
  20568900.957    80716998.108 9                        54.100
  21380786.344                   112356799.333 7                        48.000
                  21380791.090    87550850.128 8                        36.400

  24390826.328                   128174484.798 5                        42.000
                  24390838.121    99876298.761 6                        24.000
  24390836.840    95714785.214 8                        42.600
  20778070.414                   109189643.145 7                        50.300
                  20778074.625    85082820.724 8                        38.400

  23975221.930                   125990739.657 5                        41.000
                  23975227.254    98174676.538 6                        21.500

  22610574.453                   118819410.923 6                        45.500
                  22610580.602    92586578.989 8                        35.800

  21605035.695                   113535173.492 7                        48.700
                  21605039.102    88469061.164 8                        40.500

  24076338.297                   126522095.897 6                        42.200
                  24076343.926    98588716.171 6                        24.700

  23990726.188                   126072170.529 6                        43.700
                  23990732.867    98238035.763 6                        22.800

  24859560.086                   130637876.517 3                        36.200
                  24859568.258   101795793.842 5                        16.300

  20417807.133                   107296404.839 7                        50.000
                  20417812.039    83607690.998 8                        39.900

  20962085.781    20962085.176   112054945.644 7                        49.000
  20962092.703    20962092.926    87153550.922 8                        40.600

  19211495.852    19211495.000   102516623.662 8                        49.800
  19211500.660    19211500.367    79735065.899 9                        47.600

  22256835.805    22256834.449   119143046.490 6                        44.000
  22256843.102    22256842.707    92666584.860 9                        41.200

  23725676.625    23725675.594   126693756.484 3                        35.900
  23725682.355    23725681.980    98539631.364 7                        27.400

  23421912.305    23421912.578   124851833.070 6                        43.400
  23421922.086    23421921.402    97107129.618 7                        28.800

  21073722.555    21073721.598   112492986.486 8                        50.200
  21073727.504    21073727.914    87494549.277 9                        45.700

  21963766.602    21963765.730   117450128.478 6                        41.300
  21963772.191    21963771.293    91350121.759 8                        35.900

 15 10 18 14 15  0.0000000  0 19G01G03G04G08G11G14G17G19G23G28G31G32
                                R01R02R03R09R10R18R24
  20267890.813                   106508552.593 7                        48.700
                  20267898.617    82993781.197 9                        41.700
  20267897.121    79535708.108 9                        54.800
  20561131.609                   108049626.470 7                        48.900
                  20561138.098    84194628.059 9                        41.900
  20561139.402    80686538.203 9                        54.100
  21395389.969                   112433545.082 7                        47.600
                  21395395.738    87610651.973 8                        36.700

  24412884.445                   128290402.640 5                        41.000
                  24412897.273    99966624.172 6                        22.600
  24412897.516    95801347.027 9                        44.300
  20790272.898                   109253765.673 7                        50.900
                  20790276.715    85132786.285 8                        39.700

  23989918.078                   126067967.900 5                        41.200
                  23989923.395    98234854.386 6                        21.500

  22597295.680                   118749629.284 6                        45.700
                  22597301.871    92532203.710 8                        36.000

  21619584.438                   113611628.546 7                        48.800
                  21619587.977    88528636.475 8                        39.100

  24056081.609                   126415645.924 6                        43.700
                  24056087.559    98505768.374 6                        25.300

  24003322.953                   126138370.814 6                        42.600
                  24003331.012    98289620.276 6                        22.000

  24844975.461                   130561231.905 2                        33.400
                  24844983.531   101736070.885 5                        15.600

  20425768.398                   107338241.458 7                        49.600
                  20425773.230    83640290.949 8                        40.200

  20980086.469    20980085.863   112151166.169 7                        48.900
  20980092.227    20980093.215    87228389.051 8                        40.200

  19207265.203    19207264.352   102494046.476 8                        49.800
  19207270.059    19207269.820    79717505.873 9                        48.600

  22235351.852    22235350.262   119028039.776 6                        44.800
  22235358.129    22235357.824    92577135.310 9                        41.500

  23735656.797    23735654.828   126747044.445 3                        35.600
  23735662.887    23735661.336    98581077.547 7                        28.400

  23413471.758    23413469.566   124806835.002 6                        44.700
  23413479.039    23413478.875    97072131.123 7                        30.100

  21055269.344    21055267.914   112394478.432 8                        50.300
  21055273.816    21055273.844    87417931.956 9                        45.200

  21986116.844    21986114.684   117569639.428 6                        42.000
  21986120.332    21986120.477    91443074.561 8                        37.300

 15 10 18 14 15 30.0000000  0 19G01G03G04G08G11G14G17G19G23G28G31G32
                                R01R02R03R09R10R18R24
  20272054.867                   106530436.094 7                        48.600
                  20272062.898    83010833.263 9                        41.800
  20272061.461    79552049.670 9                        54.800
  20553450.422                   108009263.292 7                        49.100
                  20553457.188    84163176.249 9                        41.800
  20553458.668    80656396.883 9                        54.300
  21410055.938                   112510613.972 7                        47.700
                  21410061.652    87670705.613 8                        37.000

  24434956.320                   128406395.937 5                        40.100
                  24434969.898   100057008.382 6                        22.600
  24434968.910    95887965.171 8                        42.800
  20802562.844                   109318346.641 7                        50.500
                  20802566.180    85183109.076 8                        39.900

  24004684.508                   126145566.537 5                        39.800
                  24004689.543    98295320.858 6                        20.900

  22584096.078                   118680263.477 6                        46.200
                  22584101.574    92478152.469 8                        36.400

  21634217.227                   113688524.807 7                        48.200
                  21634221.012    88588555.599 8                        38.700

  24035845.477                   126309305.779 6                        44.300
                  24035851.375    98422906.156 7                        27.000

  24015983.344                   126204896.766 5                        39.500
                  24015988.934    98341458.561 6                        22.900

  24830441.266                   130484856.033 3                        35.700
                  24830449.051   101676557.385 5                        13.900

  20433813.484                   107380519.391 7                        49.900
                  20433818.594    83673234.780 8                        39.500

  20998152.820    20998151.160   112247738.688 8                        49.500
  20998158.105    20998158.719    87303500.965 8                        40.200

  19203157.281    19203157.137   102472129.369 8                        49.600
  19203162.785    19203162.539    79700459.252 9                        48.500

  22213920.227    22213918.988   118913322.727 6                        44.300
  22213927.926    22213927.711    92487911.052 9                        41.600

  23745763.570    23745761.250   126801011.203 4                        37.300
  23745770.023    23745767.301    98623051.648 7                        28.500

  23405166.273    23405163.496   124762558.956 7                        45.700
  23405173.988    23405173.176    97037694.281 7                        29.800

  21036889.648    21036889.043   112296372.422 8                        50.500
  21036894.809    21036895.414    87341627.322 9                        45.700

  22008527.445    22008526.223   117689477.044 6                        43.200
  22008532.133    22008531.434    91536281.456 8                        36.200

 15 10 18 14 16  0.0000000  0 19G01G03G04G08G11G14G17G19G23G28G31G32
                                R01R02R03R09R10R18R24
  20276300.727                   106552746.828 7                        48.500
                  20276308.449    83028218.248 9                        42.100
  20276307.070    79568710.283 9                        54.700
  20545850.797                   107969327.044 7                        48.800
                  20545857.270    84132057.116 9                        42.700
  20545858.395    80626574.376 9                        54.500
  21424783.055                   112588004.525 7                        47.600
                  21424788.570    87731009.917 8                        36.100

  24457044.242                   128522462.152 5                        40.900
                  24457056.004   100147449.374 6                        21.700
  24457056.363    95974637.771 8                        43.600
  20814938.742                   109383384.750 7                        50.800
                  20814942.926    85233788.084 8                        38.900

  24019521.375                   126223532.790 5                        40.700
                  24019526.086    98356073.743 6                        20.600

  22570975.453                   118611315.802 7                        47.500
                  22570981.164    92424427.036 8                        36.500

  21648933.500                   113765860.064 7                        47.200
                  21648937.254    88648816.766 8                        38.700

  24015631.492                   126203077.665 6                        46.000
                  24015636.535    98340131.205 7                        27.900

  24028703.578                   126271745.149 6                        42.200
                  24028709.875    98393548.116 6                        22.300

  24815957.555                   130408751.768 3                        35.300
                  24815966.910   101617255.415 5                        14.800

  20441942.289                   107423236.837 7                        49.300
                  20441947.582    83706521.083 8                        38.800

  21016284.164    21016283.441   112344660.142 8                        49.100
  21016289.500    21016290.539    87378884.265 8                        40.500

  19199174.516    19199173.430   102450872.230 8                        50.600
  19199178.867    19199178.695    79683925.931 9                        48.500

  22192544.398    22192544.688   118798897.226 6                        44.900
  22192552.980    22192552.789    92398913.550 9                        41.600

  23755995.844    23755994.109   126855653.738 4                        37.500
  23756001.555    23756000.004    98665551.346 7                        26.800

  23396996.195    23396993.652   124719007.069 6                        44.600
  23397003.164    23397002.672    97003820.636 7                        28.700

  21018587.680    21018587.191   112198672.138 8                        50.500
  21018592.543    21018592.840    87265638.265 9                        46.100

  22030996.914    22030996.633   117809638.604 6                        41.600
  22031002.320    22031001.863    91629740.333 8                        36.600

 15 10 18 14 16 30.0000000  0 19G01G03G04G08G11G14G17G19G23G28G31G32
                                R01R02R03R09R10R18R24
  20280627.758                   106575484.685 7                        48.800
                  20280635.605    83045936.057 9                        42.400
  20280633.934    79585689.845 9                        54.500
  20538332.352                   107929818.009 7                        48.800
                  20538339.430    84101270.866 9                        42.500
  20538340.441    80597070.894 9                        54.200
  21439570.516                   112665715.700 7                        47.600
                  21439575.766    87791564.042 8                        36.900

  24479143.836                   128638598.963 4                        38.700
                  24479156.461   100237945.415 6                        20.900
  24479155.297    96061363.102 8                        42.100
  20827401.570                   109448878.443 7                        51.100
                  20827406.090    85284822.089 8                        39.100

  24034426.672                   126301864.344 4                        38.600
                  24034431.660    98417111.333 6                        20.400

  22557935.148                   118542788.644 6                        46.300
                  22557940.316    92371029.280 8                        36.800

  21663733.156                   113843632.195 7                        47.300
                  21663737.180    88709418.379 8                        39.000

  23995438.227                   126096963.687 6                        45.800
                  23995443.637    98257445.218 7                        28.800

  24041485.617                   126338913.871 6                        42.300
                  24041491.789    98445887.234 6                        21.700

  24801527.945                   130332921.548 3                        35.500
                  24801536.965   101558167.019 5                        15.600

  20450154.602                   107466391.865 7                        50.300
                  20450159.652    83740148.360 8                        39.800

  21034480.430    21034479.238   112441927.092 8                        49.800
  21034485.738    21034486.488    87454536.291 8                        40.200

  19195314.234    19195313.383   102430274.468 8                        50.800
  19195319.148    19195318.430    79667905.460 9                        47.400

  22171224.406    22171224.227   118684765.454 6                        44.700
  22171231.832    22171231.941    92310144.480 9                        42.700

  23766354.344    23766354.016   126910969.693 3                        36.800
  23766359.020    23766358.875    98708574.821 7                        27.000

  23388960.258    23388960.063   124676181.381 6                        42.700
  23388968.969    23388969.203    96970511.779 7                        30.300

  21000360.695    21000360.324   112101380.887 8                        50.200
  21000366.113    21000366.695    87189967.347 9                        46.200

  22053528.430    22053525.918   117930121.085 6                        41.400
  22053532.855    22053531.539    91723448.846 8                        34.800

 15 10 18 14 17  0.0000000  0 19G01G03G04G08G11G14G17G19G23G28G31G32
                                R01R02R03R09R10R18R24
  20285035.750                   106598649.590 7                        48.700
                  20285043.496    83063986.620 9                        42.600
  20285041.941    79602988.305 9                        54.700
  20530895.125                   107890736.528 7                        48.800
                  20530902.500    84070817.779 9                        42.500
  20530903.629    80567886.689 9                        54.400
  21454419.594                   112743746.048 7                        48.600
                  21454424.730    87852366.868 8                        36.400

  24501257.023                   128754803.716 4                        38.700
                  24501269.355   100328494.372 6                        19.000
  24501269.363    96148139.134 8                        42.600
  20839950.930                   109514826.338 7                        50.200
                  20839955.500    85336210.030 8                        38.700

  24049401.727                   126380559.134 4                        38.900
                  24049406.840    98478431.936 6                        18.300

  22544975.547                   118474683.689 6                        46.400
                  22544980.410    92317960.527 8                        36.600

  21678615.789                   113921839.048 7                        48.900
                  21678619.785    88770358.726 8                        40.100

  23975267.148                   125990966.320 6                        45.900
                  23975273.105    98174850.074 7                        28.100

  24054328.203                   126406400.279 5                        41.300
                  24054335.020    98498473.957 6                        21.500

  24787150.859                   130257368.892 2                        34.300
                  24787159.902   101499294.881 5                        14.800

  20458449.805                   107509982.813 7                        50.700
                  20458454.703    83774115.319 8                        39.200

  21052739.727    21052739.238   112539536.446 7                        48.700
  21052745.512    21052746.113    87530454.618 8                        39.600

  19191577.695    19191576.141   102410335.659 8                        50.300
  19191581.879    19191581.402    79652397.501 9                        47.500

  22149959.313    22149958.777   118570929.569 7                        45.500
  22149966.371    22149966.328    92221605.566 9                        42.100

  23776837.930    23776838.074   126966955.727 3                        36.900
  23776844.512    23776843.195    98752119.516 7                        27.300

  23381063.656    23381063.930   124634084.907 6                        43.000
  23381072.758    23381072.156    96937770.130 7                        30.300

  20982213.656    20982211.758   112004502.467 8                        50.500
  20982217.852    20982217.652    87114617.515 9                        46.000

  22076119.852    22076117.223   118050921.688 6                        41.500
  22076123.523    22076122.418    91817404.776 8                        34.900

 15 10 18 14 17 30.0000000  0 19G01G03G04G08G11G14G17G19G23G28G31G32
                                R01R02R03R09R10R18R24
  20289525.273                   106622241.682 7                        48.500
                  20289533.039    83082370.063 9                        42.600
  20289531.480    79620605.760 9                        54.700
  20523539.867                   107852083.113 7                        48.500
                  20523546.887    84040698.251 9                        42.200
  20523547.957    80539022.143 9                        54.200
  21469328.594                   112822094.698 7                        49.300
                  21469334.258    87913417.729 8                        35.700

  24523382.695                   128871074.334 4                        38.200
                  24523395.363   100419094.663 6                        19.900
  24523396.078    96234964.358 8                        43.400
  20852586.156                   109581227.282 7                        49.300
                  20852591.227    85387951.003 8                        39.000

  24064445.586                   126459614.815 4                        38.700
                  24064450.805    98540033.739 6                        19.300

  22532096.094                   118407003.939 6                        46.800
                  22532101.762    92265223.091 8                        36.600

  21693581.133                   114000478.473 7                        49.100
                  21693584.504    88831636.156 8                        40.700

  23955119.836                   125885088.033 6                        46.600
                  23955125.273    98092347.766 7                        26.800

  24067230.422                   126474201.663 5                        39.900
                  24067237.551    98551306.093 6                        22.600

  24772827.953                   130182096.725 3                        36.900
                  24772835.422   101440641.275 5                        16.300

  20466827.539                   107554008.131 7                        50.200
                  20466832.629    83808420.747 8                        39.800

  21071063.391    21071062.316   112637485.034 8                        49.800
  21071068.746    21071069.141    87606636.799 8                        39.400

  19187964.633    19187963.430   102391055.937 8                        50.300
  19187968.684    19187968.621    79637402.180 9                        47.900

  22128749.383    22128748.848   118457391.673 6                        45.000
  22128755.754    22128756.383    92133298.380 9                        42.300

  23787448.852    23787447.586   127023609.586 4                        37.400
  23787455.445    23787453.543    98796183.599 7                        28.300

  23373303.828    23373303.281   124592718.968 6                        43.600
  23373313.656    23373311.535    96905596.662 7                        30.400

  20964142.063    20964141.926   111908040.602 8                        50.300
  20964147.777    20964147.645    87039591.673 9                        46.300

  22098767.180    22098766.426   118172038.191 6                        41.300
  22098773.781    22098773.660    91911606.393 8                        36.200

 15 10 18 14 18  0.0000000  0 19G01G03G04G08G11G14G17G19G23G28G31G32
                                R01R02R03R09R10R18R24
  20294096.039                   106646260.599 7                        48.800
                  20294103.859    83101086.096 9                        41.900
  20294102.070    79638541.969 9                        54.700
  20516265.867                   107813857.844 7                        48.600
                  20516272.836    84010912.342 9                        42.600
  20516273.902    80510477.329 9                        54.500
  21484298.859                   112900760.344 7                        49.300
                  21484303.391    87974715.590 8                        36.300

  24545521.266                   128987408.385 5                        39.900
                  24545532.598   100509744.398 6                        21.500
  24545533.074    96321836.985 8                        42.600
  20865307.641                   109648079.333 7                        50.300
                  20865312.344    85440043.476 8                        38.400

  24079556.727                   126539028.678 4                        37.200
                  24079563.238    98601914.650 6                        19.300

  22519298.125                   118339751.347 6                        46.300
                  22519304.188    92212818.514 8                        36.500

  21708627.734                   114079548.500 7                        49.100
                  21708631.199    88893249.111 8                        40.500

  23934994.516                   125779330.964 6                        46.300
                  23934998.590    98009939.878 7                        26.500

  24080192.563                   126542315.158 5                        41.400
                  24080198.797    98604381.421 6                        21.300

  24758557.469                   130107108.000 3                        35.300
                  24758565.434   101382208.576 5                        16.300

  20475287.555                   107598465.773 7                        50.600
                  20475292.660    83843063.056 8                        39.900

  21089449.398    21089448.207   112735769.157 7                        48.900
  21089454.719    21089455.523    87683079.964 8                        40.000

  19184475.281    19184473.844   102372434.327 8                        50.500
  19184479.180    19184478.969    79622918.723 9                        47.800

  22107595.805    22107594.801   118344154.125 6                        44.900
  22107602.605    22107602.875    92045224.820 9                        43.000

  23798180.961    23798180.984   127080928.061 4                        37.500
  23798187.367    23798186.637    98840764.597 7                        28.000

  23365682.070    23365680.934   124552086.479 6                        44.200
  23365690.531    23365688.934    96873993.652 7                        29.900

  20946149.352    20946149.098   111811998.716 8                        50.700
  20946155.063    20946155.082    86964892.496 9                        46.400

  22121475.094    22121473.988   118293467.367 6                        41.700
  22121481.293    22121481.688    92006051.198 8                        36.800

 15 10 18 14 18 30.0000000  0 19G01G03G04G08G11G14G17G19G23G28G31G32
                                R01R02R03R09R10R18R24
  20298747.688                   106670706.279 7                        49.300
                  20298755.754    83120134.678 9                        42.500
  20298753.965    79656796.859 9                        54.600
  20509073.109                   107776061.022 7                        48.500
                  20509080.152    83981460.287 9                        42.600
  20509081.340    80482252.453 9                        54.100
  21499328.875                   112979741.603 7                        49.400
                  21499333.082    88036259.398 8                        36.400

  24567670.188                   129103803.477 4                        38.600
                  24567682.723   100600441.675 6                        20.100
  24567682.148    96408755.157 8                        41.900
  20878115.156                   109715381.465 7                        49.900
                  20878120.012    85492486.671 8                        38.600

  24094737.266                   126618798.209 4                        37.600
                  24094742.258    98664072.726 6                        19.000

  22506582.180                   118272928.314 6                        45.800
                  22506587.699    92160748.667 8                        35.600

  21723754.914                   114159046.818 7                        48.400
                  21723758.680    88955195.799 8                        40.200

  23914892.523                   125673697.769 6                        46.400
                  23914897.121    97927628.487 6                        25.500

  24093212.039                   126610738.013 4                        38.400
                  24093219.988    98657697.819 6                        21.700

  24744341.469                   130032405.942 3                        35.400
                  24744350.051   101323999.233 5                        16.900

  20483829.352                   107643353.946 7                        50.000
                  20483834.344    83878040.842 8                        39.700

  21107897.555    21107897.066   112834385.801 8                        49.100
  21107903.469    21107903.836    87759781.733 8                        39.700

  19181108.945    19181107.977   102354470.564 8                        50.600
  19181113.055    19181112.844    79608946.918 9                        47.200

  22086498.156    22086497.738   118231218.431 6                        43.900
  22086505.430    22086505.078    91957386.035 9                        43.000

  23809041.125    23809038.453   127138908.512 5                        39.400
  23809045.371    23809044.172    98885860.504 7                        28.400

  23358196.633    23358194.793   124512189.661 6                        43.200
  23358203.234    23358204.277    96842962.824 7                        29.400

  20928237.570    20928236.965   111716380.351 8                        50.900
  20928242.414    20928242.824    86890522.727 9                        46.200

  22144241.813    22144239.770   118415206.329 6                        41.900
  22144246.738    22144247.117    92100736.924 8                        37.100

 15 10 18 14 19  0.0000000  0 19G01G03G04G08G11G14G17G19G23G28G31G32
                                R01R02R03R09R10R18R24
  20303481.258                   106695578.589 7                        50.400
                  20303488.980    83139515.708 9                        42.800
  20303487.129    79675370.341 9                        54.700
  20501962.344                   107738692.933 7                        49.200
                  20501969.094    83952342.312 9                        42.200
  20501970.164    80454347.736 9                        54.100
  21514418.125                   113059037.253 7                        49.000
                  21514422.719    88098048.191 8                        35.900

  24589831.453                   129220257.040 4                        38.500
                  24589843.449   100691184.503 6                        20.600
  24589843.227    96495717.025 8                        43.200
  20891007.906                   109783132.061 7                        50.500
                  20891012.180    85545279.299 8                        38.400

  24109983.648                   126698921.520 4                        37.700
                  24109989.285    98726506.418 6                        19.300

  22493947.703                   118206536.990 6                        45.500
                  22493953.664    92109015.208 8                        35.900

  21738964.438                   114238971.455 7                        48.800
                  21738967.926    89017474.691 8                        39.800

  23894815.617                   125568190.495 6                        47.000
                  23894819.082    97845415.236 6                        25.600

  24106291.125                   126679467.677 5                        41.800
                  24106300.234    98711253.269 6                        23.900

  24730181.633                   129957993.487 3                        36.000
                  24730189.352   101266015.508 5                        16.900

  20492453.203                   107688670.943 7                        50.200
                  20492457.918    83913352.782 8                        38.800

  21126407.461    21126406.152   112933331.537 8                        49.400
  21126412.980    21126413.395    87836739.497 8                        39.800

  19177865.445    19177864.711   102337164.256 8                        50.300
  19177869.813    19177869.129    79595486.460 9                        47.900

  22065458.469    22065457.348   118118587.390 6                        44.600
  22065465.457    22065465.570    91869784.196 9                        43.300

  23820021.141    23820019.875   127197547.700 4                        39.000
  23820027.406    23820026.328    98931468.684 7                        27.900

  23350850.148    23350849.602   124473030.253 6                        42.400
  23350859.086    23350858.367    96812505.527 7                        30.000

  20910405.711    20910405.105   111621189.196 8                        51.400
  20910409.859    20910410.586    86816485.222 9                        46.100

  22167065.867    22167064.645   118537252.389 6                        42.600
  22167071.035    22167070.242    92195661.552 8                        35.300

 15 10 18 14 19 30.0000000  0 19G01G03G04G08G11G14G17G19G23G28G31G32
                                R01R02R03R09R10R18R24
  20308295.188                   106720877.503 7                        50.100
                  20308302.871    83159229.145 9                        42.500
  20308301.258    79694262.385 9                        54.700
  20494933.234                   107701753.964 7                        48.200
                  20494940.328    83923558.724 9                        42.300
  20494941.164    80426763.473 9                        54.100
  21529566.930                   113138646.369 7                        49.400
                  21529572.102    88160081.229 8                        35.900

  24612002.055                   129336766.764 5                        39.900
                  24612014.875   100781971.112 6                        21.100
  24612014.766    96582720.807 8                        43.000
  20903985.531                   109851329.574 7                        51.300
                  20903989.398    85598420.175 8                        38.100

  24125297.961                   126779395.960 4                        38.400
                  24125303.691    98789213.764 6                        19.600

  22481396.594                   118140579.709 6                        46.000
                  22481402.980    92057619.962 8                        35.900

  21754254.172                   114319320.040 7                        49.100
                  21754257.582    89080083.908 8                        39.500

  23874762.320                   125462811.623 6                        46.300
                  23874766.191    97763302.029 6                        25.300

  24119428.125                   126748501.555 6                        42.900
                  24119436.082    98765045.761 6                        22.600

  24716076.766                   129883873.537 3                        36.500
                  24716085.488   101208259.786 5                        15.600

  20501157.602                   107734415.091 7                        50.100
                  20501162.629    83948997.553 8                        39.500

  21144978.070    21144978.051   113032603.435 7                        48.800
  21144984.109    21144984.609    87913950.926 8                        39.400

  19174745.727    19174744.523   102320514.953 8                        50.700
  19174749.020    19174748.793    79582537.012 9                        47.600

  22044475.398    22044473.809   118006262.777 7                        45.800
  22044480.980    22044480.941    91782420.713 9                        42.900

  23831125.148    23831124.586   127256842.898 5                        39.500
  23831131.684    23831130.367    98977587.119 7                        28.900

  23343643.852    23343642.012   124434610.828 6                        42.600
  23343650.277    23343650.246    96782623.754 7                        31.600

  20892653.219    20892652.145   111526428.813 8                        51.700
  20892657.488    20892658.207    86742782.751 9                        46.800

  22189945.891    22189944.668   118659602.657 6                        43.200
  22189950.531    22189950.176    92290822.784 8                        34.500

 15 10 18 14 20  0.0000000  0 19G01G03G04G08G11G14G17G19G23G28G31G32
                                R01R02R03R09R10R18R24
  20313190.477                   106746603.059 7                        49.800
                  20313197.973    83179275.024 9                        42.000
  20313196.301    79713473.021 9                        54.900
  20487985.633                   107665244.529 7                        49.000
                  20487992.684    83895109.838 9                        42.200
  20487993.402    80399499.964 9                        54.200
  21544775.922                   113218567.684 7                        49.500
                  21544780.398    88222357.533 8                        35.800

  24634183.320                   129453330.467 5                        39.100
                  24634195.633   100872799.844 6                        22.200
  24634194.590    96669764.960 8                        41.800
  20917047.781                   109919972.848 7                        50.500
                  20917051.898    85651908.415 8                        38.400

  24140678.531                   126860219.355 4                        38.800
                  24140684.109    98852193.010 6                        18.300

  22468928.516                   118075058.840 6                        45.800
                  22468934.500    92006564.784 8                        35.300

  21769623.945                   114400090.472 7                        49.300
                  21769627.586    89143021.860 8                        38.800

  23854733.164                   125357563.953 6                        45.600
                  23854739.176    97681291.042 7                        26.500

  24132622.266                   126817836.966 6                        42.700
                  24132629.539    98819073.242 6                        21.300

  24702029.313                   129810049.163 4                        37.600
                  24702037.098   101150734.360 5                        16.300

  20509943.914                   107780584.661 7                        49.000
                  20509948.188    83984973.842 8                        38.600

  21163609.859    21163608.668   113132198.332 8                        49.600
  21163614.914    21163615.770    87991413.586 8                        38.600

  19171749.055    19171747.617   102304522.409 8                        50.600
  19171752.402    19171752.367    79570098.375 9                        47.400

  22023550.125    22023548.418   117894246.999 7                        46.000
  22023555.477    22023555.012    91695297.417 9                        42.500

  23842351.523    23842351.195   127316791.332 5                        39.800
  23842358.223    23842356.789    99024213.618 7                        28.100

  23336574.586    23336574.391   124396933.582 6                        41.300
  23336582.746    23336582.613    96753319.235 7                        30.400

  20874982.922    20874982.434   111432103.089 8                        51.800
  20874987.512    20874988.047    86669418.342 9                        45.200

  22212882.203    22212881.449   118782254.921 6                        42.800
  22212887.344    22212887.953    92386218.895 8                        35.500

 15 10 18 14 20 30.0000000  0 19G01G03G04G08G11G14G17G19G23G28G31G32
                                R01R02R03R09R10R18R24
  20318167.164                   106772754.903 7                        49.300
                  20318174.902    83199653.075 9                        41.800
  20318173.289    79733001.987 9                        54.500
  20481119.813                   107629164.708 7                        48.600
                  20481126.891    83866995.719 9                        42.700
  20481127.371    80372557.274 9                        53.800
  21560043.578                   113298799.880 7                        49.600
                  21560047.879    88284876.102 8                        35.300

  24656374.906                   129569945.824 5                        39.400
                  24656387.637   100963668.716 6                        21.100
  24656388.059    96756847.636 8                        42.700
  20930195.047                   109989060.211 7                        50.700
                  20930198.809    85705742.688 8                        38.000

  24156124.547                   126941389.248 5                        39.400
                  24156129.719    98915442.226 6                        19.900

  22456543.789                   118009976.634 6                        45.700
                  22456549.730    91955851.418 8                        36.700

  21785074.305                   114481280.104 7                        48.700
                  21785077.902    89206286.455 8                        39.200

  23834731.875                   125252449.218 6                        46.500
                  23834735.996    97599383.642 7                        27.900

  24145873.484                   126887471.167 6                        42.300
                  24145881.871    98873333.558 6                        22.500

  24688037.219                   129736523.490 3                        36.400
                  24688045.148   101093441.650 5                        16.900

  20518809.953                   107827177.784 7                        49.500
                  20518814.566    84021280.158 8                        38.300

  21182300.617    21182299.309   113232113.189 7                        48.600
  21182306.461    21182306.957    88069125.100 8                        39.200

  19168874.617    19168873.414   102289186.072 8                        50.600
  19168877.977    19168877.941    79558170.140 9                        47.400

  22002682.313    22002681.309   117782541.836 7                        45.700
  22002688.113    22002687.758    91608415.711 9                        43.100

  23853700.914    23853699.414   127377389.702 5                        40.300
  23853707.074    23853705.172    99071345.611 7                        27.000

  23329647.398    23329645.090   124360000.173 6                        42.900
  23329654.375    23329653.887    96724593.270 7                        32.500

  20857394.680    20857393.250   111338215.376 8                        51.000
  20857399.109    20857399.223    86596394.625 9                        45.300

  22235876.094    22235873.699   118905205.590 6                        42.300
  22235880.246    22235879.965    92481847.095 8                        36.100

 15 10 18 14 21  0.0000000  0 19G01G03G04G08G11G14G17G19G23G28G31G32
                                R01R02R03R09R10R18R24
  20323224.766                   106799333.109 7                        49.100
                  20323232.480    83220363.366 9                        42.500
  20323231.102    79752849.341 9                        54.900
  20474336.305                   107593514.927 7                        50.000
                  20474342.859    83839216.692 9                        42.300
  20474343.223    80345935.711 9                        53.800
  21575369.844                   113379341.900 7                        48.400
                  21575374.906    88347636.073 8                        36.100

  24678575.383                   129686610.363 4                        38.700
                  24678588.328   101054575.995 6                        22.000
  24678587.516    96843967.062 8                        42.800
  20943426.117                   110058590.390 7                        50.200
                  20943430.074    85759922.020 8                        38.700

  24171636.047                   127022903.056 4                        38.900
                  24171641.840    98978959.498 6                        20.100

  22444242.984                   117945335.183 6                        45.200
                  22444249.113    91905481.511 8                        35.900

  21800604.250                   114562887.626 7                        48.700
                  21800607.621    89269876.695 8                        39.800

  23814753.141                   125147470.193 6                        43.100
                  23814759.586    97517582.024 7                        28.600

  24159181.352                   126957401.366 6                        42.800
                  24159188.359    98927824.442 6                        22.200

  24674104.117                   129663299.455 4                        38.400
                  24674111.164   101036384.069 5                        16.300

  20527756.797                   107874192.679 7                        49.600
                  20527761.281    84057915.130 8                        38.300

  21201051.039    21201050.434   113332344.448 7                        48.600
  21201057.199    21201057.426    88147082.700 8                        38.000

  19166123.641    19166122.438   102274505.121 8                        51.000
  19166127.516    19166127.094    79546751.632 9                        47.200

  21981872.586    21981871.699   117671149.761 7                        45.300
  21981879.617    21981878.789    91521777.520 9                        42.700

  23865170.211    23865169.883   127438635.570 6                        41.800
  23865174.996    23865174.387    99118981.194 7                        26.400

  23322857.320    23322857.008   124323812.960 5                        40.300
  23322865.488    23322865.492    96696447.640 7                        32.100

  20839888.938    20839888.215   111244769.545 8                        50.700
  20839893.906    20839894.199    86523714.593 9                        45.800

  22258922.844    22258921.387   119028452.207 6                        41.500
  22258927.996    22258927.961    92577705.450 8                        36.100

 15 10 18 14 21 30.0000000  0 19G01G03G04G08G11G14G17G19G23G28G31G32
                                R01R02R03R09R10R18R24
  20328363.305                   106826337.296 7                        48.500
                  20328371.234    83241405.581 9                        42.500
  20328369.973    79773014.798 9                        55.000
  20467633.953                   107558295.226 7                        49.300
                  20467640.578    83811772.794 9                        42.300
  20467641.000    80319635.310 9                        54.100
  21590755.211                   113460192.251 7                        49.200
                  21590760.602    88410636.299 8                        35.900

  24700784.539                   129803321.786 4                        38.600
                  24700797.109   101145519.819 6                        19.900
  24700797.004    96931121.505 8                        42.600
  20956741.703                   110128561.371 7                        51.100
                  20956745.918    85814444.826 8                        39.000

  24187212.797                   127104758.301 5                        39.400
                  24187218.422    99042742.769 6                        21.300

  22432026.336                   117881136.703 6                        45.500
                  22432031.992    91855456.763 8                        35.500

  21816212.531                   114644910.378 7                        49.000
                  21816216.043    89333790.477 8                        40.400

  23794801.453                   125042628.790 6                        42.800
                  23794807.914    97435887.618 6                        25.900

  24172544.328                   127027625.090 6                        42.600
                  24172551.379    98982544.086 6                        22.600

  24660227.555                   129590379.959 5                        39.100
                  24660234.531   100979563.769 5                        16.300

  20536783.242                   107921627.438 7                        49.900
                  20536787.863    84094877.273 8                        38.700

  21219860.641    21219858.980   113432888.892 7                        47.900
  21219866.004    21219866.398    88225283.897 8                        38.600

  19163494.570    19163493.602   102260479.236 8                        50.100
  19163498.480    19163498.430    79535842.618 9                        47.500

  21961123.109    21961122.105   117560072.514 7                        45.500
  21961129.379    21961129.262    91435384.201 9                        43.100

  23876759.133    23876758.688   127500525.456 5                        40.500
  23876765.922    23876764.492    99167117.762 7                        27.900

  23316210.336    23316207.559   124288373.617 6                        41.600
  23316217.273    23316217.402    96668883.710 7                        33.000

  20822466.523    20822465.211   111151768.879 8                        50.900
  20822470.758    20822471.246    86451380.813 9                        45.000

  22282024.453    22282024.406   119151991.951 5                        40.300
  22282031.090    22282030.082    92673791.848 8                        36.000

 15 10 18 14 22  0.0000000  0 20G01G03G04G08G11G14G17G19G23G28G31G32
                                R01R02R03R09R10R11R18R24
  20333583.320                   106853767.650 7                        48.300
                  20333591.125    83262779.883 9                        42.400
  20333589.863    79793498.500 9                        55.200
  20461013.484                   107523506.203 7                        49.300
                  20461020.641    83784664.489 9                        42.500
  20461021.008    80293656.513 9                        53.800
  21606199.078                   113541350.193 6                        46.400
                  21606204.668    88473876.212 8                        35.200

  24723003.508                   129920077.582 4                        38.900
                  24723015.496   101236498.210 6                        21.500
  24723015.625    97018309.092 8                        42.600
  20970140.523                   110198972.251 7                        51.200
                  20970144.703    85869310.406 8                        39.900

  24202854.688                   127186952.975 5                        40.200
                  24202859.898    99106790.554 6                        20.400

  22419894.578                   117817383.771 7                        47.200
                  22419900.195    91805779.190 8                        35.800

  21831899.688                   114727346.304 7                        47.600
                  21831903.246    89398026.212 8                        39.900

  23774877.609                   124937927.811 6                        43.800
                  23774884.211    97354302.640 7                        27.800

  24185963.500                   127098139.385 6                        43.700
                  24185969.688    99037490.191 6                        22.600

  24646409.898                   129517768.440 4                        39.000
                  24646416.648   100922983.474 5                        16.900

  20545889.328                   107969480.608 7                        49.700
                  20545894.191    84132165.449 8                        38.800

  21238726.930    21238726.559   113533743.693 7                        47.300
  21238733.305    21238733.594    88303726.501 8                        37.900

  19160988.930    19160988.078   102247107.953 8                        49.500
  19160992.605    19160992.781    79525442.742 9                        47.400

  21940431.297    21940430.293   117449312.791 7                        45.900
  21940437.320    21940437.180    91349237.866 9                        43.400

  23888469.852    23888468.938   127563056.543 5                        40.700
  23888475.328    23888474.719    99215753.015 7                        26.900

  23309702.398    23309701.379   124253684.448 5                        39.300
  23309709.723    23309710.086    96641903.253 8                        33.100

  24528150.281    24528149.098   131071217.565 2                        33.900
  24528156.656    24528159.914   101944149.68216                        21.600

  20805128.281    20805127.676   111059217.500 8                        50.900
  20805132.758    20805133.148    86379396.461 9                        44.900

  22305181.398    22305180.410   119275822.346 5                        40.000
  22305187.992    22305186.930    92770104.233 8                        34.300

 15 10 18 14 22 30.0000000  0 20G01G03G04G08G11G14G17G19G23G28G31G32
                                R01R02R03R09R10R11R18R24
  20338884.219                   106881623.700 7                        49.200
                  20338891.586    83284485.884 9                        42.600
  20338890.500    79814300.084 9                        55.000
  20454475.758                   107489147.715 7                        49.400
                  20454482.195    83757891.664 9                        42.700
  20454482.559    80267999.219 9                        53.800
  21621700.867                   113622814.075 7                        48.600
                  21621706.602    88537354.508 8                        35.300

  24745228.883                   130036875.391 4                        38.600
                  24745241.375   101327509.331 6                        20.600
  24745241.734    97105528.057 8                        42.100
  20983622.516                   110269821.334 7                        51.400
                  20983627.082    85924517.441 8                        39.700

  24218559.469                   127269484.683 5                        39.500
                  24218564.973    99171100.943 6                        20.900

  22407847.883                   117754078.311 6                        47.000
                  22407853.801    91756450.301 8                        35.600

  21847665.242                   114810192.926 7                        48.200
                  21847668.332    89462581.972 8                        39.200

  23754981.586                   124833369.397 6                        43.600
                  23754987.355    97272828.744 6                        25.400

  24199436.078                   127168941.847 6                        43.400
                  24199443.535    99092660.794 6                        21.700

  24632650.914                   129445467.437 5                        39.200
                  24632658.641   100866645.201 5                        17.800

  20555075.008                   108017749.928 7                        49.600
                  20555079.523    84169777.906 8                        39.500

  21257651.461    21257650.387   113634905.299 7                        47.400
  21257657.766    21257657.926    88382407.715 8                        37.800

  19158605.625    19158604.539   102234390.289 8                        49.900
  19158609.379    19158609.184    79515551.243 9                        47.400

  21919800.000    21919799.582   117338872.099 7                        45.700
  21919807.258    21919806.770    91263339.633 9                        43.600

  23900298.219    23900298.480   127626225.519 5                        40.600
  23900303.805    23900304.012    99264884.430 7                        26.600

  23303335.180    23303334.395   124219747.089 5                        39.900
  23303343.496    23303343.500    96615507.551 8                        33.700

  24508582.758    24508582.398   130966654.041 2                        33.500
  24508591.336

  20787874.938    20787874.449   110967118.392 8                        50.500
  20787879.941    20787879.895    86307763.874 9                        44.600

  22328392.914    22328392.281   119399939.972 5                        40.700
  22328398.691    22328398.184    92866640.052 8                        35.500

 15 10 18 14 23  0.0000000  0 20G01G03G04G08G11G14G17G19G23G28G31G32
                                R01R02R03R09R10R11R18R24
  20344266.453                   106909905.364 7                        49.300
                  20344273.430    83306523.534 9                        42.100
  20344272.578    79835419.499 9                        55.000
  20448019.742                   107455220.142 7                        49.700
                  20448025.875    83731454.615 9                        43.000
  20448026.590    80242663.714 9                        54.100
  21637260.969                   113704582.776 6                        46.900
                  21637266.691    88601070.343 8                        35.800

  24767463.008                   130153712.974 5                        39.400
                  24767474.098   101418551.471 6                        21.100
  24767475.398    97192776.717 8                        42.700
  20997187.289                   110341107.089 7                        51.200
                  20997191.984    85980064.738 8                        38.700

  24234328.734                   127352350.458 5                        41.500
                  24234333.441    99235671.673 6                        22.000

  22395886.875                   117691222.667 6                        45.600
                  22395892.617    91707471.924 8                        36.300

  21863507.086                   114893448.221 7                        48.500
                  21863510.500    89527456.155 8                        38.400

  23735111.734                   124728956.155 6                        45.200
                  23735116.723    97191467.921 7                        26.400

  24212964.422                   127240029.531 6                        43.900
                  24212971.020    99148053.643 6                        22.200

  24618951.836                   129373480.002 4                        38.300
                  24618959.961   100810551.219 5                        15.600

  20564338.805                   108066433.896 7                        48.700
                  20564343.492    84207713.459 8                        38.700

  21276632.609    21276632.238   113736370.730 7                        47.000
  21276639.320    21276639.477    88461325.235 8                        37.800

  19156344.836    19156343.281   102222325.687 8                        50.700
  19156348.098    19156347.758    79506167.681 9                        47.600

  21899228.383    21899227.730   117228752.651 7                        45.100
  21899235.402    21899235.508    91177691.298 9                        43.800

  23912247.781    23912247.102   127690029.388 5                        40.400
  23912253.008    23912252.281    99314509.703 6                        25.600

  23297108.758    23297108.211   124186563.751 3                        37.000
  23297117.473    23297117.414    96589698.300 8                        33.600

  24489071.195    24489070.953   130862389.874 3                        35.200
  24489079.391

  20770707.617    20770706.660   110875475.550 8                        50.500
  20770712.098    20770712.504    86236486.141 9                        44.800

  22351656.898    22351655.559   119524342.307 5                        40.500
  22351662.172    22351661.805    92963397.323 8                        36.000

 15 10 18 14 23 30.0000000  0 20G01G03G04G08G11G14G17G19G23G28G31G32
                                R01R02R03R09R10R11R18R24
  20349729.070                   106938612.530 7                        50.000
                  20349736.188    83328892.749 9                        42.300
  20349735.395    79856856.658 9                        55.000
  20441645.414                   107421723.668 7                        50.300
                  20441651.395    83705353.485 9                        42.200
  20441652.289    80217650.126 9                        54.300
  21652878.469                   113786654.941 7                        47.900
                  21652884.656    88665022.639 8                        35.300

  24789703.523                   130270587.796 4                        38.500
                  24789715.926   101509622.599 6                        20.600
  24789716.754    97280053.196 8                        43.200
  21010834.930                   110412827.563 7                        50.200
                  21010839.742    86035950.773 8                        38.400

  24250159.867                   127435548.302 4                        38.900
                  24250165.836    99300501.164 6                        22.000

  22384011.602                   117628818.737 6                        46.500
                  22384017.480    91658845.524 8                        36.200

  21879427.242                   114977109.684 7                        47.900
                  21879430.531    89592646.855 8                        38.300

  23715271.383                   124624690.340 6                        44.500
                  23715275.832    97110221.989 7                        27.000

  24226545.242                   127311399.748 6                        42.400
                  24226551.797    99203666.692 6                        21.800

  24605313.594                   129301808.908 4                        38.100
                  24605321.141   100754703.766 5                        16.900

  20573681.852                   108115530.604 7                        49.000
                  20573686.645    84245970.623 8                        39.400

  21295670.133    21295670.113   113838136.822 7                        46.300
  21295676.414    21295677.289    88540476.607 8                        37.800

  19154206.422    19154205.453   102210913.894 8                        50.700
  19154209.973    19154209.781    79497291.843 9                        47.600

  21878717.195    21878717.133   117118956.605 6                        45.000
  21878724.973    21878724.207    91092294.484 9                        42.900

  23924315.000    23924313.734   127754465.340 5                        40.800
  23924319.480    23924319.457    99364626.573 7                        26.200

  23291026.000    23291024.043   124154136.099 3                        36.300
  23291034.980    23291034.867    96564476.799 8                        34.200

  24469616.570    24469615.035   130758429.641 3                        35.300
  24469623.652

  20753625.430    20753624.355   110784292.590 8                        50.000
  20753630.457    20753631.031    86165566.096 9                        45.300

  22374973.258    22374972.035   119649026.478 6                        41.400
  22374979.660    22374978.773    93060373.772 8                        36.300

 15 10 18 14 24  0.0000000  0 20G01G03G04G08G11G14G17G19G23G28G31G32
                                R01R02R03R09R10R11R18R24
  20355272.656                   106967744.979 7                        49.200
                  20355279.699    83351593.347 9                        41.600
  20355278.789    79878611.397 9                        55.100
  20435353.070                   107388658.547 7                        49.100
                  20435359.410    83679588.474 9                        43.100
  20435360.480    80192958.653 9                        54.300
  21668554.273                   113869029.310 7                        47.400
                  21668560.203    88729210.420 8                        35.600

  24811950.734                   130387497.507 4                        38.800
                  24811963.094   101600720.917 6                        20.900
  24811964.160    97367355.711 8                        43.000
  21024565.531                   110484981.565 7                        50.400
                  21024570.219    86092174.637 8                        38.200

  24266055.195                   127519075.849 5                        40.300
                  24266060.941    99365587.527 6                        22.000

  22372223.086                   117566868.859 6                        45.300
                  22372228.828    91610572.943 8                        36.100

  21895424.805                   115061175.326 7                        48.500
                  21895427.750    89658152.499 8                        37.700

  23695457.781                   124520574.004 6                        43.800
                  23695462.262    97029092.490 6                        25.800

  24240179.813                   127383049.824 6                        42.900
                  24240187.156    99259497.785 6                        22.200

  24591735.758                   129230457.311 4                        37.100
                  24591742.426   100699105.210 5                        16.300

  20583102.953                   108165038.303 7                        50.200
                  20583107.465    84284548.045 8                        39.000

  21314763.539    21314761.879   113940200.292 7                        47.900
  21314768.965    21314769.734    88619859.264 8                        38.500

  19152189.867    19152188.547   102200154.068 8                        50.200
  19152193.086    19152192.945    79488923.105 9                        47.100

  21858266.898    21858266.246   117009485.588 6                        45.000
  21858274.059    21858273.352    91007150.479 9                        43.400

  23936498.297    23936497.734   127819529.863 5                        40.300
  23936504.133    23936502.816    99415232.392 6                        25.600

  23285085.273    23285082.379   124122466.136 3                        36.900
  23285092.832    23285093.305    96539844.629 8                        34.000

  24450219.672    24450219.195   130654777.407 2                        34.200
  24450227.066

  20736629.820    20736629.449   110693573.028 8                        50.300
  20736635.238    20736636.121    86095006.490 9                        45.400

  22398340.977    22398341.047   119773989.511 6                        41.400
  22398347.836    22398347.191    93157567.146 8                        36.400

 15 10 18 14 24 30.0000000  0 20G01G03G04G08G11G14G17G19G23G28G31G32
                                R01R02R03R09R10R11R18R24
  20360897.125                   106997302.526 7                        50.000
                  20360904.207    83374625.194 9                        41.400
  20360903.355    79900683.579 9                        54.700
  20429142.797                   107356024.964 7                        49.800
                  20429149.285    83654159.730 9                        43.000
  20429150.469    80168589.439 9                        54.300
  21684286.500                   113951704.988 6                        46.700
                  21684292.684    88793632.975 8                        35.700

  24834203.664                   130504439.835 4                        37.400
                  24834217.059   101691844.624 6                        20.600
  24834217.012    97454682.579 8                        42.200
  21038378.328                   110557567.655 7                        50.700
                  21038382.648    86148735.189 8                        38.200

  24282011.516                   127602930.440 5                        40.900
                  24282017.375    99430928.780 6                        21.700

  22360521.180                   117505375.407 6                        47.000
                  22360527.211    91562656.004 8                        36.700

  21911498.078                   115145642.655 6                        46.900
                  21911501.711    89723971.143 8                        37.500

  23675674.508                   124416609.876 6                        44.800
                  23675679.004    96948081.618 7                        26.500

  24253867.398                   127454976.930 5                        42.000
                  24253875.125    99315544.736 6                        21.100

  24578219.430                   129159428.309 4                        38.500
                  24578225.480   100643758.114 5                        14.800

  20592601.820                   108214955.083 7                        50.200
                  20592606.477    84323444.223 8                        39.100

  21333912.086    21333910.191   114042558.220 7                        47.500
  21333917.559    21333917.684    88699470.937 8                        38.800

  19150295.719    19150294.516   102190045.424 8                        50.900
  19150298.547    19150298.391    79481060.840 9                        47.100

  21837879.547    21837878.309   116900342.250 7                        45.600
  21837885.773    21837884.754    90922261.302 9                        43.100

  23948799.516    23948798.953   127885219.853 5                        39.400
  23948805.082    23948804.590    99466324.622 6                        24.500

  23279286.820    23279284.863   124091554.931 3                        35.500
  23279295.629    23279294.578    96515802.610 8                        33.100

  24430878.750    24430878.391   130551437.937 3                        35.100
  24430888.930

  20719722.953    20719722.230   110603320.516 8                        50.500
  20719728.242    20719729.043    86024810.132 9                        44.900

  22421762.250    22421761.496   119899228.465 5                        40.900
  22421768.738    22421767.934    93254975.090 8                        35.800

 15 10 18 14 25  0.0000000  0 20G01G03G04G08G11G14G17G19G23G28G31G32
                                R01R02R03R09R10R11R18R24
  20366602.844                   107027285.067 7                        48.400
                  20366609.887    83397988.216 9                        42.100
  20366608.742    79923073.134 9                        55.000
  20423015.211                   107323823.147 7                        48.800
                  20423021.262    83629067.418 9                        42.800
  20423022.625    80144542.643 9                        54.600
  21700076.695                   114034680.392 7                        48.200
                  21700082.762    88858289.091 8                        35.200

  24856463.547                   130621412.524 4                        37.700
                  24856475.820   101782992.007 6                        19.600
  24856476.824    97542032.108 8                        42.600
  21052273.891                   110630584.156 7                        50.500
                  21052277.313    86205631.132 8                        38.600

  24298030.883                   127687109.741 5                        41.300
                  24298036.297    99496523.012 6                        22.600

  22348905.922                   117444340.369 6                        45.800
                  22348912.934    91515096.274 8                        36.100

  21927647.781                   115230509.718 7                        47.500
                  21927651.020    89790101.286 8                        38.100

  23655920.547                   124312800.148 6                        44.400
                  23655925.344    96867191.023 7                        28.600

  24267607.141                   127527178.192 6                        42.100
                  24267614.066    99371805.334 6                        20.900

  24564763.367                   129088724.839 3                        36.600
                  24564771.074   100588664.560 5                        15.600

  20602177.945                   108265279.346 7                        49.500
                  20602182.906    84362657.931 8                        39.400

  21353113.359    21353113.574   114145207.247 7                        46.600
  21353121.086    21353121.305    88779309.052 8                        38.600

  19148522.984    19148522.605   102180587.192 8                        50.400
  19148526.789    19148526.594    79473704.452 9                        47.200

  21817551.453    21817550.684   116791528.350 7                        46.000
  21817557.957    21817557.492    90837628.382 9                        43.000

  23961217.844    23961216.461   127951532.068 5                        39.900
  23961222.164    23961222.727    99517900.840 6                        24.900

  23273629.172    23273628.152   124061404.903 2                        34.600
  23273638.121    23273638.398    96492352.627 8                        33.400

  24411599.820    24411600.867   130448415.459 3                        35.500
  24411611.469

  20702904.930    20702903.973   110513538.814 8                        51.400
  20702909.402    20702909.832    85954979.960 9                        45.100

  22445234.133    22445232.324   120024740.817 5                        39.900
  22445239.688    22445239.320    93352595.722 8                        35.600

 15 10 18 14 25 30.0000000  0 20G01G03G04G08G11G14G17G19G23G28G31G32
                                R01R02R03R09R10R11R18R24
  20372389.047                   107057692.287 7                        49.500
                  20372396.563    83421682.134 9                        41.400
  20372395.418    79945779.803 9                        55.000
  20416969.273                   107292053.207 7                        49.900
                  20416976.016    83604311.638 9                        42.800
  20416977.262    80120818.355 9                        54.600
  21715923.422                   114117954.627 7                        48.500
                  21715929.000    88923178.057 8                        34.700

  24878727.055                   130738413.564 3                        36.400
                  24878741.242   101874161.469 6                        19.300
  24878742.602    97629402.801 9                        44.100
  21066249.445                   110704029.603 7                        50.300
                  21066253.723    86262861.324 8                        38.100

  24314110.656                   127771611.143 5                        40.400
                  24314116.426    99562368.289 6                        22.200

  22337379.242                   117383766.044 6                        46.800
                  22337385.512    91467895.549 8                        37.100

  21943873.055                   115315774.043 7                        49.300
                  21943877.066    89856540.962 8                        38.000

  23636195.688                   124209147.310 6                        45.000
                  23636199.844    96786422.721 7                        28.600

  24281396.586                   127599650.892 4                        38.700
                  24281405.617    99428277.463 6                        20.400

  24551372.234                   129018349.479 4                        37.400
                  24551378.957   100533826.718 5                        17.400

  20611831.813                   108316009.044 7                        50.300
                  20611836.500    84402187.554 8                        39.100

  21372370.516    21372370.848   114248144.459 7                        46.300
  21372376.496    21372377.590    88859371.266 8                        38.100

  19146872.383    19146871.648   102171778.710 8                        50.600
  19146875.813    19146875.766    79466853.420 9                        46.800

  21797285.594    21797285.648   116683046.091 7                        45.100
  21797292.438    21797291.840    90753253.383 9                        43.000

  23973753.516    23973750.844   128018463.386 5                        40.700
  23973757.688    23973757.191    99569958.562 6                        25.200

  23268118.109    23268115.449   124032017.949 4                        37.300
  23268126.059    23268125.695    96469496.087 7                        32.600

  24392383.500    24392381.262   130345714.037 3                        35.600
  24392389.855

  20686174.383    20686173.188   110424231.374 8                        52.100
  20686178.320    20686178.973    85885518.658 9                        45.300

  22468755.805    22468754.230   120150523.542 5                        40.800
  22468760.719    22468760.801    93450426.622 8                        35.100

 15 10 18 14 26  0.0000000  0 20G01G03G04G08G11G14G17G19G23G28G31G32
                                R01R02R03R09R10R11R18R24
  20378255.461                   107088524.100 7                        48.400
                  20378263.402    83445706.909 9                        41.800
  20378262.137    79968803.545 9                        55.000
  20411006.313                   107260715.430 7                        49.900
                  20411012.379    83579892.608 9                        42.800
  20411013.566    80097416.786 9                        55.000
  21731826.531                   114201526.078 6                        46.700
                  21731831.836    88988298.618 8                        34.900

  24900998.445                   130855440.106 4                        38.900
                  24901010.738   101965350.839 6                        20.900
  24901010.809    97716792.595 8                        42.400
  21080306.961                   110777902.316 7                        49.700
                  21080311.688    86320424.427 8                        38.500

  24330251.453                   127856432.580 5                        39.400
                  24330257.289    99628462.915 6                        21.700

  22325941.391                   117323654.788 7                        47.600
                  22325946.820    91421055.635 8                        37.300

  21960173.336                   115401433.151 6                        46.100
                  21960177.848    89923288.259 8                        38.800

  23616501.203                   124105653.471 6                        44.900
                  23616506.160    96705778.276 7                        27.300

  24295239.719                   127672392.573 5                        40.000
                  24295247.492    99484959.128 6                        20.100

  24538043.898                   128948305.608 4                        38.100
                  24538049.547   100479247.124 5                        16.900

  20621562.016                   108367142.479 7                        49.200
                  20621566.555    84442031.784 8                        39.000

  21391680.438    21391679.949   114351367.074 7                        47.900
  21391686.551    21391687.551    88939655.492 8                        38.200

  19145343.000    19145342.148   102163619.329 8                        49.700
  19145346.875    19145346.570    79460507.243 9                        47.400

  21777081.789    21777081.492   116574897.445 7                        45.500
  21777088.688    21777088.320    90669137.896 9                        43.300

  23986402.289    23986401.141   128086010.398 6                        41.300
  23986407.570    23986406.844    99622495.071 6                        23.900

  23262748.406    23262744.336   124003394.983 3                        36.400
  23262756.051    23262755.816    96447233.820 8                        33.100

  24373222.195    24373222.539   130243338.669 2                        34.300
  24373231.379

  20669533.430    20669531.883   110335401.995 8                        51.300
  20669537.168    20669537.797    85816429.164 9                        44.600

  22492328.672    22492326.746   120276573.900 6                        41.300
  22492334.020    22492333.957    93548465.689 8                        36.200

 15 10 18 14 26 30.0000000  0 20G01G03G04G08G11G14G17G19G23G28G31G32
                                R01R02R03R09R10R11R18R24
  20384203.539                   107119779.995 7                        48.800
                  20384211.250    83470062.137 9                        41.100
  20384210.047    79992143.976 9                        54.800
  20405124.703                   107229809.737 7                        48.900
                  20405131.500    83555810.266 9                        43.000
  20405132.570    80074337.876 9                        54.900
  21747785.711                   114285393.580 7                        48.200
                  21747791.348    89053649.857 8                        35.500

  24923271.688                   130972489.600 4                        37.900
                  24923284.133   102056558.085 6                        18.600
  24923285.137    97804199.467 8                        42.300
  21094445.063                   110852200.379 7                        49.200
                  21094450.281    86378318.982 8                        38.200

  24346453.453                   127941571.300 5                        40.000
                  24346459.297    99694804.771 6                        23.600

  22314590.055                   117264008.161 6                        47.000
                  22314595.652    91374577.778 8                        36.500

  21976549.102                   115487484.921 7                        47.800
                  21976553.230    89990341.545 8                        38.900

  23596838.320                   124002321.497 6                        46.600
                  23596841.996    96625259.979 7                        27.400

  24309133.172                   127745399.570 4                        37.800
                  24309140.914    99541847.601 6                        21.300

  24524778.508                   128878595.855 4                        38.100
                  24524784.684   100424928.008 6                        18.300

  20631368.523                   108418677.683 7                        49.600
                  20631373.438    84482189.075 8                        38.700

  21411042.977    21411043.426   114454871.196 7                        47.300
  21411049.988    21411050.301    89020158.643 8                        38.600

  19143934.883    19143934.504   102156107.797 8                        50.000
  19143939.402    19143938.988    79454664.955 9                        47.000

  21756942.039    21756941.621   116467084.034 7                        45.100
  21756948.301    21756947.957    90585283.122 9                        43.300

  23999166.555    23999165.172   128154169.762 5                        40.500
  23999172.797    23999171.719    99675507.864 7                        26.600

  23257521.617    23257520.715   123975537.908 1                        32.400
  23257528.613    23257529.984    96425567.262 7                        32.200

  24354127.992    24354126.574   130141293.477 3                        36.200
  24354135.426    24354135.871   101220865.476 6                        23.000

  20652982.102    20652981.613   110247053.866 8                        49.800
  20652987.316    20652988.285    85747713.987 9                        45.500

  22515950.508    22515949.285   120402888.763 6                        41.700
  22515956.023    22515955.578    93646710.507 8                        36.200

 15 10 18 14 27  0.0000000  0 20G01G03G04G08G11G14G17G19G23G28G31G32
                                R01R02R03R09R10R11R18R24
  20390231.531                   107151459.868 7                        47.100
                  20390239.859    83494747.753 9                        41.400
  20390238.594    80015801.026 9                        54.900
  20399326.383                   107199336.288 7                        48.800
                  20399333.445    83532064.738 9                        43.600
  20399334.160    80051581.756 9                        54.800
  21763801.781                   114369555.708 7                        48.900
                  21763807.121    89119230.695 8                        35.200

  24945549.914                   131089560.101 4                        37.800
                  24945563.141   102147781.668 6                        20.900
  24945562.918    97891622.060 8                        43.000
  21108664.375                   110926922.430 7                        48.500
                  21108669.211    86436543.927 8                        38.200

  24362714.664                   128027024.884 5                        39.500
                  24362719.859    99761391.996 6                        21.300

  22303328.875                   117204828.303 6                        47.000
                  22303334.086    91328463.637 8                        37.400

  21992998.641                   115573926.746 7                        48.500
                  21993002.848    90057698.745 8                        38.800

  23577205.602                   123899153.267 6                        46.200
                  23577209.789    96544869.252 7                        28.500

  24323076.516                   127818669.954 5                        39.400
                  24323083.473    99598941.264 6                        20.900

  24511576.156                   128809223.068 3                        36.200
                  24511584.266   100370871.401 6                        18.300

  20641251.383                   108470612.644 7                        49.000
                  20641255.941    84522657.862 8                        38.300

  21430458.695    21430457.387   114558654.051 7                        48.300
  21430463.328    21430464.590    89100878.602 8                        38.900

  19142648.750    19142647.664   102149243.588 8                        50.200
  19142652.992    19142652.520    79449326.125 9                        47.500

  21736865.008    21736863.418   116359608.035 7                        45.600
  21736870.805    21736870.535    90501690.788 9                        43.100

  24012045.875    24012044.023   128222938.449 6                        41.400
  24012050.309    24012049.582    99728994.654 6                        23.000

  23252440.195    23252439.059   123948448.617 1                        32.900
  23252448.383    23252448.371    96404497.821 7                        32.400

  24335093.859    24335093.383   130039582.538 2                        34.600
  24335102.344

  20636522.063    20636521.574   110159190.714 8                        49.900
  20636527.410    20636528.313    85679376.037 9                        45.600

  22539621.633    22539619.941   120529465.338 5                        40.800
  22539626.359    22539626.469    93745158.819 8                        37.000

 15 10 18 14 27 30.0000000  0 20G01G03G04G08G11G14G17G19G23G28G31G32
                                R01R02R03R09R10R11R18R24
  20396340.922                   107183563.510 7                        48.000
                  20396348.965    83519763.576 9                        41.200
  20396347.645    80039774.508 9                        54.900
  20393609.008                   107169295.368 7                        49.400
                  20393616.469    83508656.232 9                        43.600
  20393617.246    80029148.615 9                        55.000
  21779873.211                   114454011.357 7                        49.400
                  21779878.457    89185040.244 8                        35.400

  24967831.461                   131206649.063 5                        39.300
                  24967843.914   102239019.611 6                        19.600
  24967843.746    97979058.382 8                        42.200
  21122963.664                   111002066.823 7                        49.000
                  21122968.668    86495097.974 8                        37.200

  24379034.766                   128112791.005 5                        40.600
                  24379040.453    99828222.724 6                        22.300

  22292156.813                   117146117.774 7                        48.600
                  22292161.926    91282715.185 8                        37.000

  22009521.438                   115660756.837 7                        48.000
                  22009525.918    90125358.504 8                        38.800

  23557604.680                   123796151.040 6                        46.800
                  23557608.637    96464607.871 7                        27.100

  24337068.969                   127892200.767 5                        40.600
                  24337076.172    99656237.897 6                        20.900

  24498440.227                   128740190.037 4                        38.700
                  24498447.414   100317079.564 5                        17.800

  20651210.555                   108522945.742 7                        49.600
                  20651214.938    84563436.895 8                        38.100

  21449924.602    21449924.582   114662712.276 7                        48.200
  21449930.270    21449931.102    89181812.730 8                        38.200

  19141484.070    19141482.047   102143025.975 8                        49.600
  19141487.230    19141487.074    79444490.216 9                        47.600

  21716849.320    21716848.785   116252471.588 6                        44.500
  21716857.277    21716856.527    90418362.558 9                        43.400

  24025036.898    24025036.102   128292312.878 5                        40.500
  24025042.766    24025041.332    99782952.488 6                        25.700

  23247502.305    23247501.051   123922128.244 2                        34.800
  23247508.902    23247509.945    96384026.452 7                        31.900

  24316123.406    24316121.988   129938210.540 4                        37.900
  24316131.207    24316132.004   101062917.155 6                        23.500

  20620154.109    20620153.152   110071816.284 8                        50.400
  20620159.508    20620159.582    85611418.173 9                        45.500

  22563339.180    22563338.547   120656300.801 4                        39.000
  22563346.625    22563346.027    93843808.502 8                        37.000

 15 10 18 14 28  0.0000000  0 20G01G03G04G08G11G14G17G19G23G28G31G32
                                R01R02R03R09R10R11R18R24
  20402530.391                   107216090.482 7                        48.100
                  20402538.281    83545109.249 9                        41.500
  20402537.078    80064064.121 9                        54.600
  20387974.914                   107139686.861 7                        49.300
                  20387982.109    83485584.685 9                        43.300
  20387982.945    80007038.386 9                        55.100
  21795999.656                   114538759.066 7                        49.300
                  21796005.625    89251077.379 8                        35.000

  24990114.852                   131323754.109 4                        37.500
                  24990128.332   102330270.215 5                        17.400
  24990128.813    98066506.764 8                        42.500
  21137343.242                   111077631.873 7                        49.400
                  21137348.180    86553979.786 8                        37.900

  24395416.078                   128198867.413 5                        39.300
                  24395420.883    99895295.272 6                        20.600

  22281074.500                   117087878.448 6                        46.800
                  22281079.031    91237333.910 8                        37.600

  22026118.125                   115747972.325 7                        47.900
                  22026122.820    90193318.564 8                        39.200

  23538036.414                   123693317.179 7                        48.100
                  23538039.707    96384477.664 7                        28.800

  24351110.203                   127965989.069 5                        40.700
                  24351118.070    99713735.091 6                        21.100

  24485368.055                   128671499.818 4                        38.300
                  24485375.637   100263554.902 5                        17.400

  20661244.453                   108575674.878 7                        49.100
                  20661248.910    84604524.521 8                        37.900

  21469441.773    21469440.699   114767043.170 8                        49.300
  21469448.215    21469448.336    89262958.947 8                        39.000

  19140439.078    19140437.992   102137453.865 8                        49.200
  19140442.766    19140442.707    79440156.370 9                        47.400

  21696900.367    21696899.363   116145676.487 7                        46.700
  21696907.031    21696905.930    90335299.787 9                        43.500

  24038139.430    24038139.336   128362289.526 5                        39.100
  24038146.594    24038145.746    99837378.655 6                        25.400

  23242710.172    23242709.152   123896578.323 2                        34.900
  23242718.012    23242717.328    96364154.290 8                        33.100

  24297217.008    24297216.531   129837181.746 3                        36.200
  24297225.520    24297225.027   100984339.216 6                        24.300

  20603878.586    20603877.863   109984933.956 8                        51.000
  20603883.195    20603883.496    85543843.077 9                        45.800

  22587104.750    22587104.820   120783392.089 4                        38.200
  22587112.402    22587112.129    93942657.181 8                        35.500

 15 10 18 14 28 30.0000000  0 20G01G03G04G08G11G14G17G19G23G28G31G32
                                R01R02R03R09R10R11R18R24
  20408801.281                   107249040.751 7                        48.400
                  20408808.895    83570784.785 9                        42.000
  20408807.516    80088669.837 9                        54.800
  20382423.453                   107110511.122 7                        49.700
                  20382430.117    83462850.362 9                        43.500
  20382430.777    79985251.340 9                        55.000
  21812182.375                   114623797.814 6                        46.900
                  21812188.477    89317341.295 8                        34.000

  25012402.383                   131440873.100 4                        38.100
                  25012416.359   102421531.538 6                        19.300
  25012416.195    98153965.583 8                        42.600
  21151803.047                   111153616.217 7                        50.300
                  21151807.664    86613188.330 8                        37.300

  24411853.891                   128285251.279 5                        40.300
                  24411859.645    99962607.352 6                        20.900

  22270081.859                   117030112.492 7                        47.400
                  22270086.230    91192321.507 8                        37.000

  22042787.492                   115835570.993 7                        48.500
                  22042792.273    90261577.210 8                        39.000

  23518500.828                   123590654.289 7                        47.500
                  23518504.031    96304480.714 7                        28.500

  24365200.078                   128040031.916 5                        39.200
                  24365207.715    99771430.668 6                        20.100

  24472362.469                   128603155.521 3                        36.800
                  24472370.203   100210299.770 6                        18.600

  20671353.320                   108628798.515 7                        47.900
                  20671358.297    84645919.554 8                        38.400

  21489009.141    21489009.004   114871643.483 7                        49.000
  21489015.527    21489016.184    89344314.707 8                        39.300

  19139516.031    19139514.945   102132526.372 8                        49.300
  19139520.430    19139520.301    79436323.872 9                        46.900

  21677012.461    21677012.281   116039224.776 7                        45.800
  21677020.535    21677020.527    90252504.132 9                        43.800

  24051358.094    24051355.891   128432865.554 5                        39.400
  24051362.586    24051361.973    99892271.114 6                        23.900

  23238060.555    23238059.418   123871800.640 2                        33.400
  23238068.676    23238069.152    96344882.780 8                        33.800

  24278376.680    24278375.730   129736500.597 3                        36.900
  24278383.617    24278384.180   100906024.677 6                        24.500

  20587696.117    20587694.805   109898547.471 8                        52.100
  20587700.109    20587700.250    85476653.624 9                        45.900

  22610919.445    22610919.164   120910736.485 5                        39.500
  22610927.523    22610927.617    94041702.718 8                        35.800

 15 10 18 14 29  0.0000000  0 20G01G03G04G08G11G14G17G19G23G28G31G32
                                R01R02R03R09R10R11R18R24
  20415152.219                   107282414.052 7                        48.800
                  20415159.648    83596789.942 9                        42.000
  20415158.152    80113591.449 9                        54.600
  20376954.070                   107081768.287 7                        49.800
                  20376960.457    83440453.358 9                        43.400
  20376961.230    79963787.556 9                        55.200
  21828419.789                   114709126.341 6                        46.800
                  21828425.477    89383831.010 8                        34.900

  25034691.516                   131558003.657 4                        38.200
                  25034705.316   102512801.976 6                        21.700
  25034704.625    98241433.059 8                        40.800
  21166341.289                   111230017.848 7                        50.000
                  21166345.578    86672722.031 8                        35.800

  24428349.813                   128371940.112 4                        38.000
                  24428355.648   100030157.109 6                        19.000

  22259179.742                   116972821.982 7                        47.200
                  22259184.762    91147679.571 8                        36.800

  22059530.094                   115923550.719 6                        47.000
                  22059534.191    90330132.797 8                        38.800

  23498997.680                   123488165.011 7                        47.700
                  23499001.094    96224619.023 7                        29.000

  24379337.953                   128114326.609 5                        40.800
                  24379345.316    99829322.505 6                        21.300

  24459424.211                   128535159.912 4                        38.900
                  24459430.461   100157316.434 6                        20.100

  20681537.344                   108682314.808 7                        48.800
                  20681542.055    84687620.552 8                        38.700

  21508626.641    21508626.035   114976510.240 7                        48.700
  21508632.582    21508633.730    89425877.689 8                        39.100

  19138713.594    19138711.922   102128242.851 8                        49.800
  19138717.285    19138717.137    79432992.250 9                        47.400

  21657191.781    21657191.129   115933118.471 7                        45.500
  21657198.996    21657198.254    90169977.095 9                        43.700

  24064684.109    24064683.430   128504037.285 5                        39.100
  24064690.082    24064689.707    99947626.801 6                        25.900

  23233557.727    23233555.418   123847796.230 3                        35.300
  23233566.395    23233566.230    96326212.728 8                        33.600

  24259601.430    24259601.773   129636172.005 4                        37.600
  24259609.117    24259609.563   100827991.398 6                        22.100

  20571606.664    20571605.469   109812660.553 8                        52.200
  20571611.066    20571610.684    85409852.730 9                        46.100

  22634782.258    22634780.801   121038331.017 5                        40.200
  22634786.617    22634787.254    94140942.816 8                        35.500

 15 10 18 14 29 30.0000000  0 20G01G03G04G08G11G14G17G19G23G28G31G32
                                R01R02R03R09R10R11R18R24
  20421583.227                   107316210.138 7                        48.600
                  20421590.957    83623124.547 9                        41.300
  20421589.695    80138828.777 9                        54.700
  20371566.586                   107053458.483 7                        49.300
                  20371573.230    83418393.789 9                        43.300
  20371574.355    79942647.135 9                        55.200
  21844712.563                   114794743.442 7                        48.700
                  21844717.809    89450545.598 8                        34.800

  25056983.117                   131675143.648 4                        38.400
                  25056995.637   102604079.756 6                        18.600
  25056996.527    98328907.534 8                        42.700
  21180959.750                   111306835.411 7                        50.100
                  21180963.516    86732579.833 8                        36.700

  24444902.242                   128458931.734 2                        34.700
                  24444909.754   100097942.758 6                        18.600

  22248368.406                   116916009.190 6                        46.600
                  22248373.449    91103409.905 8                        37.000

  22076343.945                   116011908.955 7                        48.100
                  22076347.566    90398983.327 8                        38.300

  23479527.523                   123385851.083 7                        47.400
                  23479531.758    96144893.985 7                        29.200

  24393523.141                   128188870.694 5                        41.300
                  24393531.133    99887408.680 6                        20.600

  24446550.930                   128467515.890 4                        37.600
                  24446557.309   100104607.037 6                        19.900

  20691795.922                   108736221.909 7                        48.300
                  20691800.098    84729626.069 8                        37.900

  21528293.273    21528293.723   115081640.526 7                        48.200
  21528300.309    21528301.074    89507645.653 8                        39.400

  19138030.500    19138029.766   102124602.245 8                        49.600
  19138035.016    19138034.813    79430160.672 9                        47.800

  21637434.289    21637433.992   115827359.720 7                        45.400
  21637441.918    21637441.762    90087720.406 9                        43.300

  24078123.789    24078123.227   128575801.529 4                        38.000
  24078131.719    24078129.582   100003443.336 6                        25.900

  23229200.203    23229196.957   123824566.774 2                        33.300
  23229208.191    23229208.445    96308145.422 8                        33.200

  24240892.516    24240891.098   129536199.718 3                        36.900
  24240900.426    24240900.750   100750235.273 7                        26.100

  20555610.992    20555610.035   109727276.730 8                        51.700
  20555615.613    20555615.926    85343443.137 9                        46.100

  22658688.344    22658687.828   121166173.080 5                        39.700
  22658694.750    22658695.023    94240375.394 8                        36.700

 15 10 18 14 30  0.0000000  0 20G01G03G04G08G11G14G17G19G23G28G31G32
                                R01R02R03R09R10R11R18R24
  20428095.070                   107350428.825 7                        48.700
                  20428102.555    83649788.455 9                        42.100
  20428101.352    80164381.684 9                        54.700
  20366261.680                   107025581.829 7                        49.000
                  20366268.035    83396671.742 9                        43.500
  20366269.570    79921830.184 9                        55.200
  21861059.070                   114880647.683 7                        47.500
                  21861065.039    89517483.923 8                        34.700

  25079275.617                   131792290.662 4                        38.500
                  25079289.395   102695362.964 6                        21.800
  25079287.938    98416387.266 8                        40.600
  21195656.281                   111384067.185 7                        50.200
                  21195661.035    86792760.418 8                        36.600

  24461515.211                   128546223.710 4                        37.900
                  24461520.352   100165962.482 6                        19.300

  22237649.391                   116859676.153 7                        47.600
                  22237653.586    91059514.056 8                        36.500

  22093229.953                   116100643.627 7                        49.100
                  22093233.637    90468127.172 8                        38.200

  23460091.758                   123283715.257 7                        47.100
                  23460096.266    96065307.752 7                        28.900

  24407755.461                   128263661.255 5                        41.600
                  24407764.426    99945686.855 6                        22.300

  24433746.273                   128400226.253 4                        38.100
                  24433752.832   100052173.762 6                        19.600

  20702127.430                   108790517.918 6                        46.900
                  20702132.363    84771934.632 8                        38.200

  21548008.914    21548008.543   115187031.124 7                        47.900
  21548016.109    21548016.391    89589616.067 8                        39.100

  19137468.898    19137468.281   102121603.597 8                        50.000
  19137473.434    19137473.250    79427828.398 9                        47.300

  21617743.156    21617743.094   115721950.472 7                        45.600
  21617750.348    21617749.762    90005735.539 9                        43.200

  24091674.164    24091672.547   128648154.773 4                        38.900
  24091679.828    24091678.980   100059718.038 6                        22.700

  23224987.273    23224985.082   123802113.631 3                        35.500
  23224995.867    23224995.715    96290681.961 8                        33.400

  24222251.602    24222249.129   129436588.735 3                        35.800
  24222259.199    24222260.230   100672760.117 7                        27.000

  20539710.641    20539709.801   109642399.756 8                        51.300
  20539714.469    20539715.195    85277427.742 9                        46.700

  22682640.250    22682638.910   121294259.466 5                        39.200
  22682647.816    22682648.395    94339998.063 8                        37.300

 15 10 18 14 30 30.0000000  0 20G01G03G04G08G11G14G17G19G23G28G31G32
                                R01R02R03R09R10R11R18R24
  20434686.789                   107385069.696 7                        49.200
                  20434694.547    83676781.330 9                        41.800
  20434693.168    80190249.856 9                        54.600
  20361039.359                   106998138.395 7                        50.000
                  20361045.898    83375287.266 9                        43.400
  20361047.438    79901336.724 9                        55.100
  21877461.008                   114966837.955 6                        46.700
                  21877466.387    89584645.124 8                        34.400

  25101568.188                   131909442.517 3                        37.000
                  25101583.215   102786649.983 6                        19.300
  25101582.875    98503870.646 8                        41.600
  21210431.953                   111461711.604 7                        50.500
                  21210436.078    86853262.525 8                        37.400

  24478182.406                   128633813.469 3                        36.900
                  24478188.367   100234214.237 6                        18.300

  22227020.352                   116803824.580 7                        48.500
                  22227025.215    91015993.368 8                        37.400

  22110186.836                   116189752.410 7                        47.200
                  22110190.109    90537562.554 8                        38.400

  23440690.391                   123181759.912 7                        49.000
                  23440695.574    95985862.134 7                        28.800

  24422034.172                   128338695.101 5                        41.200
                  24422042.945   100004154.648 6                        20.400

  24421008.813                   128333293.989 4                        38.300
                  24421016.844   100000018.964 6                        20.400

  20712533.469                   108845201.093 7                        48.800
                  20712538.273    84814544.879 8                        37.700

  21567772.125    21567771.988   115292679.058 7                        47.800
  21567778.668    21567779.824    89671786.633 8                        39.600

  19137026.914    19137026.770   102119246.158 8                        50.300
  19137031.387    19137031.531    79425994.840 9                        47.200

  21598117.414    21598116.762   115616892.502 7                        45.500
  21598125.023    21598124.965    89924023.890 9                        44.100

  24105333.117    24105331.852   128721093.735 4                        38.100
  24105338.258    24105338.352   100116448.298 7                        26.200

  23220922.422    23220920.699   123780438.359 3                        36.600
  23220930.684    23220929.832    96273823.449 8                        34.100

  24203678.711    24203678.586   129337342.885 3                        36.300
  24203689.164    24203687.262   100595568.921 6                        24.300

  20523905.703    20523904.863   109558033.018 8                        52.200
  20523909.871    20523910.320    85211809.205 9                        46.100

  22706638.836    22706636.910   121422587.658 5                        40.500
  22706645.641    22706645.688    94439808.732 8                        37.100

 15 10 18 14 31  0.0000000  0 20G01G03G04G08G11G14G17G19G23G28G31G32
                                R01R02R03R09R10R11R18R24
  20441359.219                   107420132.786 7                        49.800
                  20441366.914    83704103.205 9                        41.800
  20441365.301    80216433.323 9                        54.600
  20355899.578                   106971128.527 7                        49.300
                  20355905.613    83354240.636 9                        43.000
  20355907.211    79881167.036 9                        55.200
  21893916.836                   115053313.130 7                        48.900
                  21893922.059    89652028.331 8                        34.100

  25123862.672                   132026596.838 5                        39.900
                  25123875.824   102877938.934 6                        18.600
  25123876.598    98591355.863 8                        40.500
  21225285.570                   111539767.128 7                        50.600
                  21225289.363    86914084.982 8                        37.500

  24494906.922                   128721698.913 3                        36.300
                  24494912.055   100302696.344 6                        18.300

  22216484.281                   116748457.036 7                        47.600
                  22216489.891    90972849.850 8                        37.500

  22127213.953                   116279233.056 7                        48.300
                  22127218.547    90607287.679 8                        38.800

  23421324.258                   123079987.484 7                        49.100
                  23421328.184    95906559.033 7                        29.600

  24436359.164                   128413969.970 5                        40.000
                  24436366.371   100062810.272 6                        19.300

  24408340.797                   128266722.028 4                        37.100
                  24408348.113    99948144.900 6                        19.300

  20723013.047                   108900269.763 7                        48.800
                  20723017.707    84857455.514 8                        38.300

  21587584.430    21587583.004   115398581.617 7                        47.900
  21587590.855    21587591.324    89754155.234 8                        39.000

  19136706.258    19136704.352   102117528.903 8                        50.100
  19136709.625    19136709.379    79424659.202 9                        46.800

  21578558.359    21578557.238   115512188.258 7                        46.100
  21578564.941    21578564.410    89842587.355 9                        43.300

  24119101.664    24119100.516   128794614.949 4                        38.900
  24119106.313    24119106.406   100173631.483 6                        24.000

  23217001.570    23217000.316   123759542.135 5                        39.400
  23217010.547    23217009.898    96257570.865 8                        33.600

  24185175.453    24185174.621   129238467.245 3                        36.500
  24185183.477    24185183.098   100518665.678 6                        25.200

  20508197.570    20508196.496   109474180.404 8                        52.100
  20508201.391    20508201.789    85146590.537 9                        46.400

  22730682.875    22730681.066   121551154.656 6                        42.000
  22730688.238    22730688.250    94539805.120 8                        36.900

 15 10 18 14 31 30.0000000  0 20G01G03G04G08G11G14G17G19G23G28G31G32
                                R01R02R03R09R10R11R18R24
  20448111.883                   107455617.328 7                        48.900
                  20448119.672    83731753.490 9                        41.700
  20448118.000    80242931.508 9                        54.500
  20350841.945                   106944551.811 7                        49.500
                  20350848.746    83333531.529 9                        43.300
  20350850.168    79861320.807 9                        55.200
  21910426.555                   115140071.367 6                        46.800
                  21910431.484    89719632.115 8                        34.300

  25146156.617                   132143750.990 4                        38.400
                  25146170.172   102969227.751 6                        19.300
  25146170.828    98678840.925 8                        42.200
  21240216.523                   111618231.839 7                        51.100
                  21240220.648    86975226.291 8                        37.300

  24511686.891                   128809877.065 3                        35.200
                  24511691.996   100371406.656 6                        18.600

  22206040.352                   116693575.328 6                        46.900
                  22206046.293    90930084.910 8                        37.200

  22144311.867                   116369082.614 7                        48.700
                  22144316.145    90677300.256 8                        38.600

  23401992.383                   122978400.057 7                        48.500
                  23401995.227    95827400.062 7                        28.100

  24450728.625                   128489482.767 5                        41.100
                  24450737.590   100121651.253 6                        21.500

  24395741.867                   128200512.885 4                        37.200
                  24395748.125    99896553.474 6                        19.600

  20733564.773                   108955721.665 7                        47.200
                  20733570.188    84900664.767 8                        37.900

  21607442.156    21607441.434   115504735.388 7                        45.800
  21607449.313    21607449.359    89836719.223 8                        38.900

  19136503.930    19136503.078   102116450.515 8                        50.500
  19136507.863    19136507.668    79423820.460 9                        46.100

  21559064.445    21559063.559   115407838.802 7                        45.300
  21559071.344    21559071.500    89761426.768 9                        43.500

  24132979.164    24132976.609   128868714.926 4                        38.500
  24132983.043    24132982.781   100231264.829 6                        23.500

  23213228.664    23213226.238   123739425.951 5                        39.300
  23213236.367    23213235.523    96241924.938 7                        33.000

  24166743.289    24166741.988   129139965.609 3                        36.700
  24166749.742    24166749.949   100442053.274 6                        25.100

  20492585.734    20492585.012   109390844.906 8                        51.500
  20492590.516    20492590.676    85081774.068 9                        47.200

  22754770.336    22754768.645   121679957.178 6                        41.600
  22754775.484    22754774.582    94639984.719 8                        35.100

 15 10 18 14 32  0.0000000  0 20G01G03G04G08G11G14G17G19G23G28G31G32
                                R01R02R03R09R10R11R18R24
  20454944.641                   107491523.032 7                        49.500
                  20454951.969    83759731.938 9                        41.500
  20454950.648    80269744.186 9                        54.800
  20345867.336                   106918408.364 7                        49.900
                  20345873.793    83313160.031 9                        43.200
  20345874.922    79841798.116 9                        55.000
  21926989.547                   115227111.633 6                        46.000
                  21926994.414    89787455.659 8                        34.000

  25168449.078                   132260902.822 4                        37.700
                  25168463.203   103060514.770 6                        19.000
  25168464.383    98766324.314 8                        41.400
  21255225.938                   111697103.840 7                        49.700
                  21255230.160    87036684.958 8                        37.900

  24528520.328                   128898345.908 2                        34.600
                  24528527.688   100440343.371 5                        17.800

  22195690.141                   116639181.337 6                        46.700
                  22195695.359    90887700.021 8                        37.300

  22161479.781                   116459298.806 6                        46.600
                  22161483.574    90747598.530 8                        38.100

  23382695.844                   122876999.701 6                        46.700
                  23382698.930    95748386.864 7                        26.400

  24465143.484                   128565230.611 5                        40.400
                  24465151.758   100180675.396 6                        20.900

  24383211.508                   128134669.414 3                        35.400
                  24383218.980    99845246.972 6                        19.000

  20744189.906                   109011554.890 7                        48.400
                  20744194.816    84944171.155 8                        38.100

  21627346.953    21627345.879   115611137.412 7                        46.000
  21627353.973    21627354.707    89919476.293 8                        38.300

  19136421.141    19136419.820   102116009.856 8                        49.200
  19136424.902    19136424.605    79423477.732 9                        47.200

  21539637.461    21539637.043   115303846.468 7                        45.500
  21539644.484    21539644.086    89680543.947 9                        43.200

  24146961.023    24146961.402   128943390.059 4                        37.500
  24146967.094    24146967.656   100289345.613 6                        24.800

  23209600.883    23209599.746   123720090.764 5                        40.400
  23209608.527    23209608.242    96226886.512 8                        33.600

  24148381.508    24148380.793   129041842.620 2                        35.000
  24148388.855    24148388.359   100365735.379 7                        26.300

  20477070.922    20477070.551   109308030.349 8                        50.000
  20477075.738    20477076.617    85017362.795 9                        47.200

  22778899.383    22778897.574   121808992.463 5                        39.500
  22778905.711    22778905.039    94740345.353 8                        34.500

 15 10 18 14 32 30.0000000  0 20G01G03G04G08G11G14G17G19G23G28G31G32
                                R01R02R03R09R10R11R18R24
  20461856.883                   107527849.707 7                        48.900
                  20461864.785    83788038.427 9                        41.800
  20461863.582    80296871.226 9                        54.300
  20340974.875                   106892698.330 7                        49.700
                  20340981.359    83293126.254 9                        43.700
  20340982.078    79822599.086 9                        55.100
  21943606.133                   115314432.698 6                        46.500
                  21943611.254    89855498.012 8                        34.100

  25190741.461                   132378050.061 4                        38.300
                  25190755.410   103151798.264 6                        19.600
  25190755.949    98853804.310 8                        41.100
  21270311.594                   111776381.619 7                        51.000
                  21270316.035    87098459.813 8                        37.500

  24545410.086                   128987102.764 2                        33.900
                  24545416.172   100509504.562 5                        17.800

  22185431.523                   116585277.104 6                        46.300
                  22185438.027    90845696.758 8                        38.000

  22178716.719                   116549879.312 7                        47.200
                  22178720.328    90818180.690 8                        39.000

  23363435.250                   122775789.057 6                        46.100
                  23363439.969    95669521.493 6                        25.800

  24479599.922                   128641210.636 3                        37.000
                  24479610.496   100239880.437 6                        18.300

  24370751.578                   128069194.583 3                        35.400
                  24370759.984    99794227.683 6                        19.000

  20754886.219                   109067767.793 7                        48.800
                  20754891.613    84987973.400 8                        38.500

  21647297.203    21647296.598   115717784.659 7                        45.700
  21647304.473    21647304.883    90002424.101 8                        38.300

  19136457.563    19136456.242   102116206.212 8                        50.000
  19136461.488    19136461.285    79423630.457 9                        46.600

  21520277.867    21520276.512   115200213.108 7                        46.400
  21520284.766    21520284.230    89599940.327 9                        43.900

  24161053.313    24161051.930   129018636.613 4                        37.300
  24161060.113    24161058.215   100347870.772 6                        25.000

  23206120.516    23206118.676   123701537.750 5                        40.800
  23206127.664    23206128.008    96212456.380 7                        32.700

  24130090.039    24130089.090   128944102.854 3                        36.800
  24130099.188    24130097.758   100289715.536 6                        25.000

  20461654.789    20461654.301   109225740.187 8                        49.800
  20461660.414    20461660.801    84953359.395 9                        47.000

  22803073.695    22803070.363   121938257.872 5                        40.400
  22803077.926    22803078.102    94840885.023 8                        34.300

 15 10 18 14 33  0.0000000  0 20G01G03G04G08G11G14G17G19G23G28G31G32
                                R01R02R03R09R10R11R18R24
  20468850.164                   107564597.134 7                        49.800
                  20468857.531    83816672.770 9                        42.100
  20468856.504    80324312.471 9                        54.400
  20336164.961                   106867421.909 7                        49.700
                  20336171.879    83273430.359 9                        43.900
  20336172.246    79803723.851 9                        54.700
  21960276.070                   115402033.422 7                        48.000
                  21960281.801    89923758.265 8                        34.500

  25213032.820                   132495190.789 5                        39.400
                  25213045.895   103243076.710 5                        16.900
  25213047.016    98941279.444 8                        41.300
  21285474.750                   111856063.528 7                        51.000
                  21285478.699    87160549.572 8                        37.100

  24562352.953                   129076144.986 1                        32.300
                  24562361.359   100578888.099 5                        17.800

  22175267.875                   116531864.880 7                        47.500
                  22175274.023    90804076.876 8                        37.800

  22196022.383                   116640821.820 7                        49.200
                  22196025.578    90889044.945 8                        37.900

  23344212.094                   122674770.763 6                        47.000
                  23344216.094    95590806.033 6                        25.300

  24494104.336                   128717420.281 5                        40.500
                  24494111.988   100299264.451 6                        19.900

  24358362.734                   128004091.159 3                        35.600
                  24358370.512    99743497.788 5                        17.400

  20765655.195                   109124358.549 7                        48.200
                  20765660.852    85032070.075 8                        37.900

  21667293.844    21667292.184   115824674.285 7                        46.200
  21667300.008    21667301.105    90085560.402 8                        37.900

  19136613.555    19136612.469   102117038.314 8                        49.600
  19136617.582    19136617.457    79424277.654 9                        47.400

  21500986.117    21500984.996   115096940.846 7                        45.400
  21500992.363    21500992.078    89519617.579 9                        43.500

  24175250.250    24175248.633   129094451.140 3                        36.700
  24175255.996    24175255.738   100406837.697 6                        25.800

  23202787.742    23202786.137   123683768.462 5                        40.600
  23202794.094    23202794.590    96198635.843 8                        33.100

  24111872.656    24111870.887   128846750.264 4                        37.400
  24111878.176    24111877.918   100213996.826 7                        26.400

  20446338.367    20446337.527   109143978.209 8                        50.800
  20446343.180    20446343.930    84889766.793 9                        46.900

  22827288.859    22827287.168   122067750.146 5                        40.500
  22827294.973    22827293.074    94941601.096 8                        34.100

 15 10 18 14 33 30.0000000  0 20G01G03G04G08G11G14G17G19G23G28G31G32
                                R01R02R03R09R10R11R18R24
  20475922.813                   107601764.976 7                        49.600
                  20475930.145    83845634.714 9                        41.500
  20475929.000    80352067.659 9                        54.500
  20331437.570                   106842579.105 7                        49.400
                  20331444.457    83254072.341 9                        43.400
  20331444.297    79785172.417 9                        54.800
  21976998.875                   115489912.415 7                        47.200
                  21977004.582    89992235.356 8                        35.000

  25235322.609                   132612322.339 4                        38.000
                  25235335.574   103334347.959 5                        17.400
  25235337.988    99028747.709 8                        42.500
  21300714.141                   111936147.827 7                        50.500
                  21300718.242    87222952.887 8                        36.800

  24579354.148                   129165470.417 3                        36.400
                  24579359.008   100648492.304 5                        16.900

  22165198.016                   116478946.582 7                        47.100
                  22165203.246    90762841.878 8                        37.800

  22213396.961                   116732124.102 7                        47.300
                  22213399.953    90960189.545 8                        37.600

  23325025.188                   122573946.915 6                        45.800
                  23325031.754    95512242.095 7                        29.200

  24508649.094                   128793856.487 5                        40.400
                  24508657.977   100358824.973 6                        20.900

  24346046.492                   127939361.833 3                        36.900
                  24346052.750    99693059.409 6                        19.000

  20776496.031                   109181325.307 7                        48.400
                  20776500.820    85076459.735 8                        38.600

  21687333.523    21687333.270   115931803.163 7                        46.300
  21687340.625    21687341.547    90168882.831 8                        37.900

  19136888.992    19136887.438   102118505.246 8                        49.700
  19136892.371    19136892.410    79425418.604 9                        47.400

  21481762.953    21481762.066   114994031.266 7                        46.400
  21481768.316    21481767.453    89439576.868 9                        44.000

  24189553.570    24189553.949   129170830.095 3                        36.800
  24189559.195    24189559.289   100466243.581 6                        22.700

  23199600.922    23199599.434   123666783.996 6                        41.100
  23199608.555    23199608.652    96185425.691 7                        32.500

  24093728.336    24093725.277   128749789.462 2                        34.900
  24093732.844    24093733.523   100138579.824 6                        24.300

  20431122.414    20431120.633   109062748.071 8                        51.500
  20431126.496    20431126.586    84826587.857 9                        47.600

  22851547.125    22851546.844   122197466.968 6                        41.300
  22851552.918    22851553.004    95042491.796 8                        35.900

 15 10 18 14 34  0.0000000  0 20G01G03G04G08G11G14G17G19G23G28G31G32
                                R01R02R03R09R10R11R18R24
  20483075.164                   107639352.549 7                        49.500
                  20483082.781    83874923.728 9                        41.100
  20483081.520    80380136.290 9                        54.500
  20326792.500                   106818169.616 7                        49.400
                  20326799.246    83235051.979 9                        43.900
  20326798.910    79766944.573 9                        54.500
  21993774.992                   115578067.968 7                        48.400
                  21993780.316    90060927.938 8                        35.500

  25257610.664                   132729442.433 4                        38.500
                  25257623.203   103425610.323 5                        16.900
  25257624.445    99116207.482 8                        41.300
  21316029.844                   112016632.540 7                        49.900
                  21316033.680    87285668.216 8                        35.800

  24596403.172                   129255076.317 4                        37.300
                  24596410.457   100718315.079 6                        19.600

  22155223.367                   116426523.883 7                        48.000
                  22155227.352    90721993.060 8                        37.900

  22230838.984                   116823783.175 7                        47.600
                  22230842.344    91031612.166 8                        37.100

  23305877.383                   122473319.509 6                        45.800
                  23305883.297    95433831.227 7                        30.200

  24523237.172                   128870516.085 4                        38.700
                  24523246.586   100418559.537 6                        19.300

  24333800.055                   127875009.543 4                        37.900
                  24333807.113    99642914.765 6                        19.600

  20787407.680                   109238665.856 7                        48.800
                  20787412.617    85121140.658 8                        38.600

  21707419.336    21707417.676   116039168.176 7                        46.400
  21707426.176    21707426.277    90252388.883 8                        36.600

  19137282.680    19137281.359   102120605.288 8                        50.300
  19137286.031    19137285.961    79427051.966 9                        47.100

  21462604.727    21462604.898   114891486.538 7                        46.300
  21462612.121    21462611.688    89359819.986 9                        43.700

  24203964.172    24203961.266   129247769.785 4                        37.600
  24203968.637    24203967.320   100526085.537 7                        26.100

  23196562.125    23196560.754   123650584.744 6                        42.000
  23196569.754    23196569.148    96172826.278 8                        33.100

  24075657.359    24075654.301   128653224.466 3                        35.500
  24075662.879    24075662.383   100063473.651 6                        24.600

  20416005.359    20416004.047   108982052.820 8                        51.600
  20416009.336    20416009.793    84763824.917 9                        47.300

  22875845.867    22875845.234   122327404.622 5                        39.300
  22875852.160    22875850.711    95143554.264 8                        34.900

 15 10 18 14 34 30.0000000  0 20G01G03G04G08G11G14G17G19G23G28G31G32
                                R01R02R03R09R10R11R18R24
  20490308.125                   107677359.666 7                        49.600
                  20490315.598    83904539.645 9                        41.600
  20490314.629    80408518.210 9                        54.300
  20322229.578                   106794193.597 7                        49.500
                  20322236.973    83216369.378 9                        44.100
  20322236.574    79749040.421 9                        54.500
  22010602.539                   115666498.879 7                        48.600
                  22010608.203    90129835.087 8                        35.500

  25279893.875                   132846548.461 4                        38.200
                  25279908.449   103516861.751 5                        16.300
  25279908.516    99203656.678 8                        42.700
  21331421.398                   112097516.322 7                        50.200
                  21331426.074    87348694.504 8                        37.200

  24613509.828                   129344960.257 5                        40.000
                  24613515.398   100788354.548 6                        19.600

  22145341.898                   116374598.701 7                        47.600
                  22145346.504    90681531.898 8                        37.700

  22248348.602                   116915796.883 7                        48.900
                  22248351.770    91103311.112 8                        37.200

  23286767.047                   122372891.000 7                        47.500
                  23286772.145    95355575.341 7                        30.600

  24537866.469                   128947396.638 5                        39.100
                  24537877.188   100478466.232 6                        18.600

  24321627.117                   127811037.258 4                        38.400
                  24321633.402    99593066.238 6                        19.300

  20798389.633                   109296378.526 7                        48.800
                  20798394.996    85166111.553 8                        38.700

  21727547.641    21727546.684   116146766.376 7                        45.800
  21727552.988    21727554.340    90336076.330 8                        36.800

  19137794.359    19137793.273   102123337.850 8                        50.900
  19137797.996    19137797.855    79429177.298 9                        47.300

  21443518.867    21443517.746   114789307.994 7                        47.700
  21443523.594    21443523.109    89280347.858 9                        43.800

  24218475.344    24218474.078   129325266.352 3                        36.700
  24218480.781    24218479.586   100586360.568 6                        24.600

  23193670.875    23193670.090   123635172.104 6                        42.300
  23193679.266    23193677.902    96160838.675 8                        33.100

  24057659.734    24057659.727   128557060.131 2                        33.700
  24057666.313    24057667.578    99988679.154 6                        25.200

  20400988.852    20400988.129   108901896.160 8                        52.600
  20400993.270    20400993.824    84701480.895 9                        47.000

  22900184.375    22900183.387   122457560.461 4                        38.600
  22900192.527    22900191.598    95244786.443 8                        35.000

 15 10 18 14 35  0.0000000  0 20G01G03G04G08G11G14G17G19G23G28G31G32
                                R01R02R03R09R10R11R18R24
  20497620.438                   107715785.835 7                        49.500
                  20497627.734    83934482.097 9                        41.400
  20497626.824    80437213.053 9                        54.500
  20317749.734                   106770650.919 7                        49.900
                  20317756.762    83198024.443 9                        44.200
  20317756.480    79731459.859 9                        54.600
  22027482.578                   115755204.029 7                        47.500
                  22027488.246    90198955.930 8                        34.700

  25302175.297                   132963638.282 4                        37.800
                  25302189.258   103608100.521 6                        18.300
  25302190.441    99291093.803 8                        40.600
  21346888.898                   112178797.020 7                        50.700
                  21346893.313    87412030.079 8                        37.300

  24630666.563                   129435119.618 4                        38.800
                  24630672.164   100858608.592 6                        21.100

  22135555.234                   116323173.343 7                        49.900
                  22135560.348    90641460.208 8                        37.600

  22265925.156                   117008162.481 7                        47.900
                  22265928.547    91175284.252 8                        37.300

  23267694.281                   122272663.769 6                        46.500
                  23267699.508    95277476.285 7                        31.400

  24552538.797                   129024494.987 5                        39.400
                  24552547.016   100538542.714 6                        18.300

  24309526.883                   127747446.914 4                        38.300
                  24309532.617    99543515.381 6                        20.100

  20809442.609                   109354461.282 7                        48.100
                  20809447.898    85211370.812 8                        37.900

  21747719.125    21747718.285   116254594.892 7                        46.200
  21747724.922    21747726.195    90419942.902 8                        36.200

  19138424.609    19138423.406   102126701.457 8                        50.500
  19138428.234    19138428.457    79431793.435 9                        47.600

  21424498.133    21424497.715   114687497.795 7                        47.200
  21424504.781    21424504.813    89201162.263 9                        44.000

  24233090.273    24233089.828   129403316.702 3                        36.400
  24233097.852    24233096.301   100647066.418 6                        24.000

  23190926.461    23190925.559   123620546.611 6                        43.200
  23190933.633    23190934.137    96149463.311 8                        33.300

  24039739.734    24039738.199   128461300.523 2                        34.500
  24039747.645    24039747.617    99914199.501 6                        25.700

  20386074.688    20386073.613   108822281.579 8                        51.700
  20386079.145    20386079.039    84639558.469 9                        46.800

  22924565.117    22924565.070   122587931.427 4                        38.500
  22924571.844    22924571.793    95346185.987 8                        35.200

 15 10 18 14 35 30.0000000  0 20G01G03G04G08G11G14G17G19G23G28G31G32
                                R01R02R03R09R10R11R18R24
  20505012.438                   107754631.011 7                        48.500
                  20505019.859    83964751.052 9                        41.800
  20505018.891    80466220.799 9                        54.500
  20313352.570                   106747541.913 7                        49.200
                  20313359.246    83180017.440 9                        44.100
  20313359.141    79714203.148 9                        54.500
  22044414.289                   115844182.169 7                        48.800
                  22044420.652    90268289.488 8                        34.400

  25324453.227                   133080710.180 4                        37.400
                  25324466.504   103699325.221 5                        15.600
  25324468.156    99378517.528 8                        41.100
  21362431.414                   112260473.246 7                        50.300
                  21362435.430    87475673.855 8                        37.400

  24647875.250                   129525552.450 5                        40.400
                  24647880.590   100929075.721 6                        19.600

  22125864.516                   116272249.370 7                        48.100
                  22125870.133    90601779.228 8                        37.200

  22283568.617                   117100878.123 7                        49.500
                  22283571.625    91247530.157 8                        37.700

  23248659.813                   122172640.329 6                        46.900
                  23248664.582    95199536.012 7                        29.200

  24567251.266                   129101808.667 5                        39.900
                  24567258.906   100598787.040 6                        19.600

  24297498.508                   127684242.043 5                        39.500
                  24297505.133    99494264.864 6                        19.600

  20820565.477                   109412912.663 7                        48.600
                  20820570.777    85256917.323 8                        38.100

  21767933.719    21767932.879   116362651.026 7                        46.500
  21767939.930    21767940.453    90503986.507 8                        36.100

  19139172.984    19139172.133   102130695.355 8                        49.100
  19139177.156    19139176.844    79434899.802 9                        47.400

  21405548.492    21405547.488   114586057.944 7                        46.500
  21405554.816    21405554.164    89122264.688 9                        44.000

  24247811.875    24247809.555   129481917.270 3                        36.900
  24247816.352    24247815.504   100708200.168 7                        26.100

  23188331.484    23188329.527   123606709.730 6                        42.400
  23188337.492    23188337.910    96138701.284 8                        33.400

  24021895.914    24021894.379   128365950.287 3                        35.100
  24021905.277    24021903.258    99840038.245 7                        26.200

  20371261.602    20371261.113   108743212.839 8                        51.500
  20371266.121    20371266.816    84578060.578 9                        46.400

  22948985.906    22948984.918   122718515.116 5                        39.800
  22948991.695    22948990.645    95447750.886 8                        33.900

 15 10 18 14 36  0.0000000  0 20G01G03G04G08G11G14G17G19G23G28G31G32
                                R01R02R03R09R10R11R18R24
  20512483.852                   107793894.379 7                        48.900
                  20512491.520    83995345.871 9                        41.900
  20512490.199    80495540.830 9                        54.400
  20309037.070                   106724866.208 7                        49.400
                  20309044.355    83162348.058 9                        44.000
  20309044.660    79697269.994 9                        54.600
  22061398.164                   115933431.701 7                        48.200
                  22061403.895    90337834.521 8                        34.600

  25346728.250                   133197761.291 4                        37.900
                  25346741.277   103790533.867 6                        19.000
  25346741.930    99465925.751 8                        41.500
  21378048.906                   112342542.803 7                        50.700
                  21378052.988    87539624.125 8                        36.900

  24665135.586                   129616255.867 5                        40.800
                  24665140.875   100999753.712 6                        20.400

  22116270.680                   116221828.720 7                        48.700
                  22116275.313    90562490.440 8                        37.000

  22301277.914                   117193940.810 7                        48.100
                  22301281.477    91320046.480 8                        37.800

  23229664.789                   122072822.789 6                        46.100
                  23229670.055    95121756.202 7                        29.300

  24582004.031                   129179334.332 5                        40.700
                  24582012.867   100659196.450 6                        20.600

  24285544.664                   127621425.197 5                        39.200
                  24285551.910    99445316.778 6                        20.100

  20831758.148                   109471730.270 7                        48.700
                  20831763.680    85302749.198 8                        38.100

  21788190.117    21788189.160   116470931.390 7                        46.700
  21788196.254    21788196.855    90588204.531 8                        35.800

  19140039.727    19140038.289   102135317.601 8                        50.900
  19140043.902    19140043.496    79438494.890 9                        47.200

  21386668.656    21386667.418   114484989.890 7                        47.600
  21386674.758    21386674.051    89043656.297 9                        44.300

  24262633.906    24262632.641   129561063.723 4                        37.900
  24262637.508    24262637.250   100769758.557 6                        23.500

  23185883.492    23185882.238   123593661.918 6                        43.200
  23185891.156    23185890.551    96128553.014 8                        33.600

  24004130.156    24004128.973   128271013.529 4                        37.200
  24004136.535    24004137.449    99766198.686 7                        26.500

  20356552.688    20356551.613   108664692.973 8                        51.700
  20356556.680    20356557.266    84516989.622 9                        46.300

  22973445.609    22973443.684   122849308.222 4                        38.300
  22973450.910    22973450.801    95549478.686 8                        35.000

 15 10 18 14 36 30.0000000  0 20G01G03G04G08G11G14G17G19G23G28G31G32
                                R01R02R03R09R10R11R18R24
  20520034.883                   107833575.864 7                        48.900
                  20520043.039    84026266.489 9                        42.100
  20520041.660    80525173.088 9                        54.300
  20304804.742                   106702623.993 7                        49.300
                  20304811.254    83145016.479 9                        43.500
  20304811.852    79680660.562 9                        54.700
  22078433.336                   116022951.443 6                        46.800
                  22078438.777    90407590.109 8                        34.700

  25368997.836                   133314789.652 2                        33.900
                  25369011.715   103881724.598 5                        17.400
  25369012.078    99553316.896 8                        40.000
  21393740.609                   112425004.720 7                        50.500
                  21393745.230    87603880.143 8                        37.500

  24682447.070                   129707227.606 5                        39.500
                  24682452.762   101070640.803 6                        22.000

  22106771.672                   116171913.478 7                        48.000
                  22106776.848    90523595.477 8                        37.500

  22319052.734                   117287348.319 7                        47.600
                  22319056.234    91392831.508 8                        38.200

  23210710.227                   121973213.420 6                        46.100
                  23210713.320    95044138.558 7                        29.300

  24596796.102                   129257069.536 5                        40.000
                  24596805.445   100719769.145 6                        18.600

  24273665.164                   127558999.072 4                        38.800
                  24273671.926    99396673.147 6                        19.900

  20843020.461                   109530912.507 7                        48.400
                  20843025.344    85348865.193 8                        37.700

  21808487.305    21808487.520   116579433.670 7                        46.800
  21808493.988    21808494.977    90672595.154 8                        36.900

  19141022.656    19141022.156   102140567.475 8                        50.700
  19141027.227    19141027.070    79442578.114 9                        47.100

  21367856.898    21367856.480   114384295.928 7                        46.400
  21367863.957    21367863.617    88965338.859 9                        44.700

  24277555.172    24277555.078   129640752.839 4                        37.700
  24277560.348    24277560.559   100831738.860 6                        22.500

  23183584.039    23183582.434   123581404.252 6                        42.800
  23183591.504    23183590.813    96119019.266 8                        34.200

  23986441.820    23986439.934   128176494.810 4                        37.500
  23986448.305    23986448.633    99692684.239 6                        25.600

  20341947.445    20341946.250   108586725.920 8                        52.300
  20341950.715    20341951.570    84456348.598 9                        46.200

  22997940.313    22997939.680   122980307.564 3                        35.500
  22997949.031    22997948.500    95651366.985 8                        35.300

 15 10 18 14 37  0.0000000  0 20G01G03G04G08G11G14G17G19G23G28G31G32
                                R01R02R03R09R10R11R18R24
  20527665.336                   107873674.899 7                        48.400
                  20527673.402    84057512.477 9                        41.500
  20527672.199    80555117.152 9                        54.500
  20300654.727                   106680815.115 7                        49.300
                  20300660.949    83128022.550 9                        43.000
  20300661.781    79664374.718 9                        54.600
  22095519.469                   116112740.209 7                        48.400
                  22095524.836    90477555.338 8                        35.100

  25391262.898                   133431792.717 3                        36.300
                  25391277.250   103972895.689 5                        17.400
  25391275.969    99640689.174 8                        40.200
  21409506.648                   112507856.090 7                        49.800
                  21409511.156    87668439.607 8                        37.200

  24699809.250                   129798465.063 5                        39.500
                  24699814.258   101141734.916 6                        20.400

  22097369.211                   116122505.449 7                        47.900
                  22097374.672    90485095.733 8                        37.500

  22336893.172                   117381098.179 7                        48.400
                  22336896.574    91465883.298 8                        37.900

  23191795.336                   121873814.629 6                        47.000
                  23191799.418    94966685.006 7                        29.500

  24611628.164                   129335011.181 5                        40.500
                  24611635.809   100780502.777 6                        18.600

  24261860.711                   127496966.516 5                        39.400
                  24261868.320    99348336.228 6                        19.000

  20854351.336                   109590457.433 7                        48.700
                  20854356.422    85395263.822 8                        37.900

  21828826.102    21828825.379   116688154.573 7                        47.200
  21828832.906    21828832.957    90757155.798 8                        36.700

  19142124.109    19142123.730   102146443.479 8                        51.300
  19142128.914    19142128.336    79447148.342 9                        47.700

  21349117.625    21349116.738   114283977.553 7                        47.000
  21349123.602    21349123.109    88887313.532 9                        44.600

  24292581.133    24292578.695   129720980.757 3                        35.700
  24292585.555    24292584.824   100894138.257 7                        26.800

  23181432.156    23181431.488   123569937.215 6                        43.700
  23181440.285    23181440.168    96110100.494 8                        33.400

  23968832.555    23968832.898   128082398.475 3                        36.600
  23968841.672    23968840.473    99619498.298 6                        25.700

  20327445.281    20327445.027   108509314.941 8                        52.100
  20327449.723    20327450.012    84396140.088 9                        46.100

  23022477.867    23022475.355   123111510.434 4                        38.700
  23022484.793    23022485.047    95753413.514 8                        37.700

 15 10 18 14 37 30.0000000  0 20G01G03G04G08G11G14G17G19G23G28G31G32
                                R01R02R03R09R10R11R18R24
  20535375.539                   107914191.266 7                        49.500
                  20535383.383    84089083.659 9                        41.400
  20535382.180    80585372.867 9                        54.400
  20296587.227                   106659439.702 7                        49.400
                  20296593.191    83111366.392 9                        43.000
  20296594.262    79648412.564 9                        54.800
  22112657.008                   116202796.408 7                        48.500
                  22112662.215    90547728.942 8                        34.900

  25413523.492                   133548768.712 2                        33.900
                  25413537.035   104064045.642 5                        17.400
  25413535.988    99728041.091 8                        41.000
  21425346.805                   112591095.885 7                        50.700
                  21425351.039    87733301.754 8                        36.900

  24717220.820                   129889965.646 6                        42.100
                  24717226.434   101213034.092 6                        21.100

  22088064.664                   116073606.561 7                        47.600
                  22088069.293    90446992.724 8                        37.300

  22354797.344                   117475188.058 7                        48.600
                  22354801.000    91539200.047 8                        38.000

  23172920.953                   121774628.944 6                        46.900
                  23172925.605    94889397.560 7                        31.300

  24626498.430                   129413156.473 4                        39.000
                  24626507.805   100841395.036 6                        19.300

  24250132.000                   127435330.287 5                        40.500
                  24250138.262    99300308.114 6                        21.300

  20865750.695                   109650363.352 7                        48.400
                  20865756.203    85441943.724 8                        37.800

  21849205.266    21849204.543   116797091.006 7                        47.300
  21849211.652    21849211.891    90841884.093 8                        36.500

  19143342.625    19143342.246   102152944.541 8                        51.200
  19143347.191    19143346.691    79452204.737 9                        47.600

  21330447.453    21330446.684   114184036.622 7                        47.800
  21330453.262    21330452.777    88809581.778 9                        43.800

  24307704.648    24307703.383   129801743.896 4                        37.700
  24307710.828    24307709.512   100956953.965 7                        26.200

  23179429.141    23179428.594   123559262.197 6                        42.700
  23179437.141    23179437.398    96101797.707 8                        33.500

  23951304.000    23951302.582   127988728.682 3                        36.700
  23951310.910    23951311.121    99546644.160 7                        26.300

  20313048.328    20313047.133   108432463.625 8                        52.100
  20313052.211    20313052.543    84336366.850 9                        45.900

  23047052.680    23047052.047   123242913.920 5                        40.200
  23047058.160    23047058.137    95855616.062 8                        36.500

 15 10 18 14 38  0.0000000  0 20G01G03G04G08G11G14G17G19G23G28G31G32
                                R01R02R03R09R10R11R18R24
  20543164.531                   107955124.492 7                        48.800
                  20543172.480    84120979.657 9                        41.600
  20543171.219    80615939.862 9                        54.100
  20292602.141                   106638497.686 7                        49.700
                  20292607.973    83095047.945 9                        43.100
  20292609.039    79632774.046 9                        54.600
  22129845.031                   116293119.029 7                        49.400
                  22129850.566    90618110.149 8                        35.700

  25435776.828                   133665715.106 3                        35.300
                  25435791.273   104155172.472 5                        17.800
  25435789.527    99815370.916 8                        38.100
  21441260.414                   112674722.339 7                        50.400
                  21441264.332    87798465.195 8                        37.000

  24734681.453                   129981727.140 5                        39.800
                  24734687.496   101284536.577 6                        20.900

  22078856.008                   116025218.634 6                        46.700
                  22078861.516    90409287.862 8                        37.200

  22372766.188                   117569615.390 7                        48.400
                  22372769.996    91612779.748 8                        37.400

  23154087.070                   121675658.409 7                        47.300
                  23154091.891    94812277.723 7                        31.200

  24641408.695                   129491502.545 5                        41.600
                  24641417.477   100902443.745 6                        19.600

  24238478.703                   127374092.928 5                        40.900
                  24238484.539    99252590.811 6                        21.700

  20877219.297                   109710628.274 7                        48.500
                  20877224.031    85488903.387 8                        37.700

  21869623.211    21869622.840   116906240.569 7                        47.700
  21869629.898    21869630.816    90926778.157 8                        37.100

  19144677.961    19144676.523   102160069.124 8                        50.800
  19144681.531    19144681.008    79457746.083 9                        47.700

  21311848.492    21311848.313   114084475.085 7                        46.800
  21311854.578    21311854.223    88732145.121 9                        44.200

  24322928.500    24322927.000   129883038.814 4                        37.400
  24322933.703    24322933.563   101020183.329 7                        26.200

  23177576.070    23177574.465   123549379.396 6                        44.500
  23177583.992    23177583.348    96094111.123 8                        33.500

  23933854.891    23933854.648   127895490.082 3                        36.200
  23933863.742    23933863.246    99474125.350 6                        25.700

  20298756.984    20298755.789   108356175.450 8                        51.100
  20298760.766    20298761.367    84277031.622 9                        46.300

  23071662.719    23071659.855   123374515.197 5                        39.200
  23071668.203    23071668.145    95957972.425 8                        36.000

 15 10 18 14 38 30.0000000  0 21G01G03G04G06G08G11G14G17G19G23G28G31
                                G32R01R02R03R09R10R11R18R24
  20551033.422                   107996474.446 7                        50.000
                  20551041.117    84153200.381 9                        41.700
  20551039.621    80646818.060 9                        53.800
  20288699.211                   106617989.260 7                        49.600
                  20288705.309    83079067.361 9                        43.000
  20288706.379    79617459.320 9                        54.800
  22147082.883                   116383706.831 7                        49.600
                  22147089.090    90688697.987 8                        35.200

  25743296.828                   135281938.314 3                        35.900

  25743310.488   101022247.150 8                        38.600
  25458025.289                   133782629.846 2                        33.600
                  25458039.289   104246274.590 5                        17.400
  25458037.715    99902677.157 8                        37.100
  21457247.539                   112758733.644 7                        50.900
                  21457251.430    87863928.524 8                        37.100

  24752192.703                   130073747.275 5                        39.200
                  24752199.016   101356240.594 6                        21.300

  22069745.648                   115977343.839 7                        48.100
                  22069751.227    90371982.846 8                        37.100

  22390798.625                   117664377.767 7                        49.200
                  22390803.203    91686620.502 8                        37.500

  23135295.023                   121576905.784 7                        47.600
                  23135299.895    94735327.741 7                        31.800

  24656354.797                   129570046.882 5                        40.300
                  24656363.926   100963646.952 6                        19.000

  24226902.391                   127313257.482 5                        40.900
                  24226907.785    99205186.727 6                        21.500

  20888755.109                   109771250.707 7                        48.400
                  20888760.074    85536141.628 8                        37.600

  21890082.164    21890080.738   117015600.537 7                        47.300
  21890087.895    21890089.285    91011835.857 8                        37.100

  19146129.664    19146129.047   102167816.463 8                        51.100
  19146133.656    19146133.680    79463771.797 9                        47.700

  21293320.461    21293320.043   113985295.049 7                        47.400
  21293326.516    21293326.504    88655005.179 9                        45.100

  24338250.781    24338249.750   129964861.828 3                        36.600
  24338256.902    24338256.527   101083834.475 6                        23.900

  23175870.344    23175869.559   123540289.771 6                        42.800
  23175878.996    23175877.980    96087041.458 8                        34.000

  23916488.313    23916487.129   127802686.903 4                        38.600
  23916495.051    23916495.145    99401945.232 6                        25.300

  20284571.250    20284570.762   108280454.021 8                        51.000
  20284576.305    20284576.441    84218137.203 9                        46.400

  23096304.430    23096304.031   123506311.490 2                        34.300
  23096315.805    23096315.594    96060480.572 8                        36.100

 15 10 18 14 39  0.0000000  0 21G01G03G04G06G08G11G14G17G19G23G28G31
                                G32R01R02R03R09R10R11R18R24
  20558981.484                   108038240.925 7                        48.700
                  20558989.563    84185745.686 9                        41.400
  20558987.891    80678007.300 9                        53.700
  20284879.172                   106597914.653 7                        49.800
                  20284885.070    83063424.822 9                        43.400
  20284886.078    79602468.543 9                        54.600
  22164371.883                   116474558.880 7                        49.300
                  22164377.270    90759491.722 8                        34.400

  25723275.633                   135176719.871 4                        37.500
                  25723285.410   105332554.162 5                        17.800
  25723287.848   100943674.951 8                        39.900
  25480266.469                   133899511.450 2                        35.000
                  25480281.211   104337350.912 5                        16.300
  25480280.930    99989958.513 8                        39.900
  21473307.648                   112843128.366 7                        50.200
                  21473311.441    87929690.608 8                        37.100

  24769752.867                   130166024.302 5                        40.200
                  24769757.684   101428144.813 6                        21.100

  22060733.508                   115929984.510 7                        47.500
                  22060738.672    90335079.480 8                        37.700

  22408895.203                   117759473.449 7                        48.800
                  22408899.461    91760720.986 8                        37.000

  23116545.594                   121478373.595 7                        47.200
                  23116549.855    94658549.545 7                        32.100

  24671338.227                   129648787.175 5                        39.500
                  24671347.652   101025002.849 6                        20.100

  24215402.234                   127252826.624 5                        40.200
                  24215408.074    99158097.866 6                        19.900

  20900358.867                   109832228.905 7                        48.100
                  20900364.473    85583657.085 8                        37.300

  21910578.563    21910578.426   117125167.884 7                        47.000
  21910585.699    21910586.363    91097054.871 8                        37.000

  19147697.820    19147696.969   102176185.641 8                        50.500
  19147702.188    19147701.949    79470281.161 9                        47.400

  21274864.930    21274863.457   113886498.483 7                        47.400
  21274870.648    21274870.141    88578163.516 9                        45.100

  24353670.586    24353669.672   130047209.312 2                        33.900
  24353678.238    24353677.156   101147882.486 7                        26.300

  23174313.766    23174313.098   123531994.119 6                        42.900
  23174322.734    23174322.055    96080589.309 8                        33.300

  23899203.781    23899203.305   127710323.855 4                        37.300
  23899210.758    23899210.969    99330107.357 6                        25.800

  20270492.984    20270491.672   108205303.343 8                        51.100
  20270497.844    20270498.367    84159686.694 9                        47.000

  23120989.352    23120988.480   123638300.149 4                        38.100
  23120997.086    23120996.848    96163138.324 8                        34.900

 15 10 18 14 39 30.0000000  0 21G01G03G04G06G08G11G14G17G19G23G28G31
                                G32R01R02R03R09R10R11R18R24
  20567008.055                   108080422.809 7                        48.700
                  20567015.891    84218614.661 8                        41.000
  20567014.043    80709506.736 9                        53.600
  20281141.609                   106578273.034 7                        50.000
                  20281147.543    83048119.663 9                        43.000
  20281148.496    79587801.098 9                        54.600
  22181710.000                   116565673.161 7                        49.100
                  22181715.770    90830489.791 8                        34.200

  25703247.602                   135071476.188 3                        35.800
                  25703258.039   105250546.023 5                        16.300
  25703260.008   100865083.881 8                        37.100
  25502502.258                   134016356.443 3                        35.300
                  25502516.430   104428398.633 5                        15.600
  25502516.613   100077212.523 8                        38.900
  21489440.000                   112927903.887 7                        50.700
                  21489444.184    87995749.423 8                        37.100

  24787359.820                   130258554.267 5                        40.700
                  24787366.145   101500246.137 6                        20.100

  22051819.625                   115883141.570 7                        47.900
                  22051824.234    90298578.523 8                        37.500

  22427053.938                   117854898.863 7                        48.400
                  22427058.117    91835078.402 8                        37.600

  23097837.219                   121380063.434 7                        47.300
                  23097841.203    94581944.318 7                        31.700

  24686359.406                   129727719.188 5                        40.500
                  24686367.828   101086508.186 6                        18.600

  24203980.195                   127192802.589 5                        41.000
                  24203985.422    99111325.984 6                        21.300

  20912029.727                   109893560.305 7                        47.900
                  20912035.168    85631447.756 8                        36.700

  21931113.445    21931112.723   117234939.726 7                        46.300
  21931119.609    21931120.816    91182432.919 8                        37.100

  19149382.367    19149381.633   102185174.227 8                        50.700
  19149386.699    19149386.945    79477272.278 9                        47.400

  21256480.617    21256479.496   113788086.309 7                        47.400
  21256486.535    21256486.672    88501620.808 9                        44.600

  24369190.234    24369189.906   130130077.218 3                        35.700
  24369195.645    24369195.270   101212335.322 6                        23.900

  23172906.063    23172905.395   123524492.642 6                        43.200
  23172914.906    23172914.477    96074754.855 8                        33.700

  23882001.602    23882001.359   127618404.332 4                        37.300
  23882009.875    23882009.500    99258614.434 7                        27.200

  20256522.711    20256521.047   108130725.991 8                        50.200
  20256526.707    20256527.367    84101682.125 9                        46.800

  23145710.469    23145709.246   123770477.510 6                        42.700
  23145715.863    23145715.738    96265942.785 8                        35.200

 15 10 18 14 40  0.0000000  0 21G01G03G04G06G08G11G14G17G19G23G28G31
                                G32R01R02R03R09R10R11R18R24
  20575114.008                   108123019.461 7                        47.800
                  20575121.770    84251806.839 9                        41.300
  20575119.980    80741315.901 9                        53.400
  20277486.414                   106559064.178 7                        49.600
                  20277492.344    83033151.729 9                        42.600
  20277493.293    79573456.837 9                        55.000
  22199098.141                   116657047.930 7                        48.200
                  22199103.547    90901690.865 8                        34.000

  25683216.242                   134966208.459 3                        36.600
                  25683226.441   105168519.201 5                        16.900
  25683227.996   100786474.760 8                        37.200
  25524730.375                   134133162.953 4                        37.300
                  25524744.383   104519416.340 5                        16.900
  25524743.398   100164437.795 8                        37.800
  21505643.930                   113013058.415 7                        49.700
                  21505648.520    88062103.551 8                        37.100

  24805015.664                   130351334.812 4                        38.700
                  24805022.148   101572542.702 6                        21.100

  22043004.289                   115836816.399 7                        47.600
                  22043009.188    90262481.015 8                        37.300

  22445275.313                   117950651.580 7                        48.700
                  22445279.719    91909690.857 8                        37.700

  23079171.789                   121281977.412 7                        47.200
                  23079176.184    94505513.755 7                        31.400

  24701416.180                   129806840.326 5                        40.900
                  24701424.172   101148160.884 6                        19.000

  24192636.078                   127133188.169 5                        40.000
                  24192640.617    99064873.289 6                        21.500

  20923767.750                   109955242.919 7                        48.200
                  20923772.672    85679512.120 8                        37.300

  21951686.063    21951685.223   117344912.642 7                        46.000
  21951692.059    21951693.273    91267967.375 8                        37.000

  19151182.094    19151181.125   102194780.600 8                        50.300
  19151186.602    19151186.332    79484743.898 9                        48.300

  21238168.203    21238167.316   113690060.239 7                        46.800
  21238174.031    21238174.012    88425378.408 9                        44.300

  24384804.719    24384803.805   130213461.242 3                        35.500
  24384811.402    24384811.145   101277189.675 6                        23.800

  23171648.969    23171647.480   123517785.666 6                        42.800
  23171655.918    23171656.703    96069538.337 8                        34.100

  23864885.305    23864884.590   127526932.761 4                        38.700
  23864892.613    23864893.176    99187469.955 7                        27.500

  20242659.563    20242659.074   108056725.165 8                        51.700
  20242664.133    20242664.563    84044125.960 9                        46.800

  23170461.781    23170460.793   123902840.719 5                        40.100
  23170467.590    23170467.992    96368891.810 8                        34.900

 15 10 18 14 40 30.0000000  0 22G01G03G04G06G08G11G12G14G17G19G23G28
                                G31G32R01R02R03R09R10R11R18R24
  20583299.227                   108166030.773 7                        48.400
                  20583306.676    84285322.128 9                        41.500
  20583304.711    80773434.717 9                        53.400
  20273913.039                   106540288.317 7                        49.700
                  20273919.281    83018521.196 9                        43.300
  20273920.234    79559435.912 9                        54.500
  22216535.836                   116748682.378 7                        49.700
                  22216540.934    90973094.299 8                        34.900

  25663180.258                   134860917.447 3                        35.600
                  25663190.281   105086474.176 5                        15.600
  25663191.016   100707848.296 8                        36.800
  25546949.641                   134249928.970 4                        37.300
                  25546965.613   104610402.508 6                        18.300
  25546963.809   100251632.845 8                        37.700
  21521919.867                   113098590.535 7                        50.000
                  21521924.387    88128751.921 8                        36.800

  25552853.992                   134281151.271 3                        36.700
                  25552858.805   104634683.591 5                        17.400

  24822718.563                   130444363.946 4                        39.000
                  24822724.211   101645033.013 6                        20.600

  22034288.406                   115791011.576 7                        47.300
                  22034293.258    90226788.977 8                        37.800

  22463558.391                   118046729.319 7                        49.200
                  22463563.043    91984556.569 8                        37.600

  23060550.508                   121184118.308 7                        48.400
                  23060553.871    94429260.019 7                        30.400

  24716506.852                   129886147.561 5                        40.300
                  24716516.145   101209958.537 6                        19.000

  24181368.969                   127073985.494 5                        39.700
                  24181374.680    99018741.383 6                        20.100

  20935572.313                   110017275.157 7                        48.900
                  20935576.871    85727848.917 8                        37.300

  21972296.078    21972295.707   117455084.130 7                        46.000
  21972302.965    21972303.551    91353656.274 8                        37.200

  19153097.813    19153097.434   102205003.858 8                        49.800
  19153102.504    19153102.434    79492695.314 9                        47.400

  21219928.789    21219927.082   113592422.326 7                        48.200
  21219934.543    21219933.785    88349437.919 9                        44.400

  24400516.992    24400515.141   130297358.242 3                        35.300
  24400522.406    24400521.559   101342443.072 7                        27.900

  23170539.563    23170539.016   123511873.583 6                        41.900
  23170547.547    23170547.680    96064940.071 8                        34.100

  23847852.813    23847850.574   127435913.583 5                        40.300
  23847859.883    23847859.387    99116677.301 7                        27.400

  20228905.703    20228905.215   107983304.676 8                        52.100
  20228910.188    20228910.313    83987021.146 9                        46.500

  23195245.352    23195245.422   124035386.576 3                        36.400
  23195255.465    23195255.352    96471982.892 8                        34.900

 15 10 18 14 41  0.0000000  0 22G01G03G04G06G08G11G12G14G17G19G23G28
                                G31G32R01R02R03R09R10R11R18R24
  20591562.305                   108209456.486 7                        50.500
                  20591570.496    84319160.325 9                        41.100
  20591568.410    80805862.984 9                        53.700
  20270422.617                   106521945.559 7                        49.900
                  20270428.887    83004228.144 9                        42.900
  20270429.840    79545738.404 9                        54.700
  22234022.211                   116840575.466 7                        49.100
                  22234027.699    91044699.248 8                        34.600

  25643139.797                   134755604.669 2                        33.300
                  25643149.336   105004412.338 5                        16.900
  25643151.598   100629205.643 8                        38.800
  25569162.859                   134366652.833 2                        34.800
                  25569177.535   104701355.843 5                        15.600
  25569177.605   100338796.343 8                        39.000
  21538267.492                   113184498.581 7                        49.800
                  21538272.078    88195693.216 8                        36.600

  25541245.844                   134220152.858 3                        36.300


  24840467.992                   130537639.348 4                        38.300
                  24840474.078   101717715.161 6                        20.900

  22025670.859                   115745729.064 7                        48.000
                  22025676.797    90191503.917 8                        37.900

  22481902.750                   118143129.798 7                        48.900
                  22481907.582    92059673.792 8                        37.500

  23041972.438                   121086488.284 7                        49.600
                  23041974.414    94353184.758 7                        30.300

  24731633.977                   129965638.366 5                        40.300
                  24731642.109   101271899.295 6                        18.300

  24170182.820                   127015197.956 5                        40.600
                  24170189.234    98972932.957 6                        21.500

  20947442.867                   110079655.365 7                        49.400
                  20947447.660    85776456.868 8                        37.400

  21992943.188    21992941.410   117565451.711 7                        45.900
  21992949.813    21992949.934    91439497.681 8                        37.700

  19155129.594    19155128.508   102215842.848 8                        50.500
  19155134.148    19155133.402    79501125.631 9                        47.200

  21201761.820    21201761.402   113495174.470 7                        47.100
  21201768.020    21201767.945    88273800.796 9                        45.300

  24416322.469    24416321.320   130381764.167 3                        35.500
  24416329.027    24416327.828   101408092.286 6                        25.500

  23169579.086    23169577.715   123506757.452 6                        43.500
  23169587.324    23169587.645    96060960.850 8                        35.100

  23830906.242    23830904.590   127345351.419 5                        40.600
  23830911.430    23830911.875    99046240.089 7                        28.700

  20215261.133    20215259.820   107910468.231 8                        52.600
  20215264.844    20215264.852    83930370.615 9                        47.000

  23220068.766    23220067.426   124168112.791 5                        40.100
  23220075.695    23220075.922    96575214.309 8                        35.400

 15 10 18 14 41 30.0000000  0 22G01G03G04G06G08G11G12G14G17G19G23G28
                                G31G32R01R02R03R09R10R11R18R24
  20599904.734                   108253295.771 7                        49.000
                  20599912.695    84353320.787 8                        40.800
  20599910.906    80838600.089 9                        53.700
  20267014.352                   106504035.449 7                        49.500
                  20267020.586    82990272.224 9                        42.600
  20267021.652    79532363.986 9                        54.900
  22251557.445                   116932725.124 7                        49.300
                  22251563.168    91116504.115 8                        33.900

  25623094.078                   134650270.770 2                        34.000
                  25623104.699   104922333.793 5                        14.800
  25623107.605   100550547.116 8                        37.100
  25591366.344                   134483331.371 5                        39.900
                  25591380.480   104792273.777 5                        16.300
  25591381.195   100425925.920 8                        39.300
  21554686.984                   113270780.219 7                        51.200
                  21554691.090    88262925.635 8                        36.800

  25529727.070                   134159617.935 3                        36.200
                  25529731.980   104539988.192 5                        13.900

  24858264.648                   130631158.247 4                        38.100
                  24858269.992   101790587.081 6                        19.900

  22017153.656                   115700969.875 7                        48.800
                  22017158.613    90156626.657 8                        37.900

  22500307.852                   118239849.983 7                        47.500
                  22500312.898    92135040.127 8                        36.900

  23023436.734                   120989089.405 7                        48.400
                  23023440.520    94277289.615 7                        30.500

  24746794.938                   130045309.910 5                        40.400
                  24746803.063   101333980.892 5                        16.900

  24159074.031                   126956827.792 4                        38.600
                  24159081.711    98927449.793 6                        20.400

  20959379.383                   110142381.354 7                        50.300
                  20959383.504    85825334.246 8                        36.600

  22013624.141    22013624.941   117676012.344 6                        44.400
  22013631.656    22013632.430    91525489.250 8                        37.500

  19157275.977    19157275.125   102227295.882 8                        51.100
  19157280.664    19157279.754    79510033.554 9                        46.700

  21183668.742    21183668.090   113398318.381 7                        47.400
  21183674.648    21183674.430    88198468.374 9                        43.900

  24432224.977    24432222.891   130466675.442 3                        36.100
  24432229.480    24432228.988   101474134.636 7                        26.600

  23168768.805    23168768.492   123502437.469 6                        41.700
  23168777.438    23168777.480    96057600.869 8                        35.000

  23814042.531    23814042.172   127255250.062 4                        37.900
  23814050.430    23814050.055    98976161.244 7                        26.700

  20201725.523    20201725.035   107838218.698 8                        51.800
  20201730.012    20201730.609    83874176.544 9                        46.400

  23244924.297    23244922.840   124301015.925 6                        42.600
  23244929.309    23244928.887    96678583.222 8                        34.700

 15 10 18 14 42  0.0000000  0 22G01G03G04G06G08G11G12G14G17G19G23G28
                                G31G32R01R02R03R09R10R11R18R24
  20608325.922                   108297548.191 7                        48.000
                  20608334.102    84387803.166 9                        41.600
  20608332.547    80871645.705 9                        53.500
  20263688.477                   106486557.903 7                        48.200
                  20263695.039    82976653.366 9                        42.800
  20263696.227    79519312.578 9                        54.700
  22269142.484                   117025130.392 7                        48.700
                  22269147.988    91188508.158 8                        34.900

  25603046.086                   134544916.56012                        34.500
                  25603056.809   104840239.66415                        15.600
  25603058.602   100471873.52318                        38.700
  25613560.961                   134599963.097 4                        37.100
                  25613574.918   104883155.285 5                        15.600
  25613575.691   100513020.640 8                        37.700
  21571176.313                   113357433.565 7                        50.400
                  21571180.840    88330447.691 8                        36.200

  25518295.188                   134099548.424 4                        37.800
                  25518300.234   104493180.989 5                        17.400

  24876106.664                   130724918.239 4                        37.300
                  24876111.688   101863646.838 6                        19.300

  22008736.516                   115656736.009 7                        49.100
                  22008741.121    90122158.729 8                        37.900

  22518773.398                   118336887.511 7                        47.300
                  22518778.039    92210653.726 8                        36.100

  23004946.977                   120891923.907 7                        48.200
                  23004950.625    94201576.326 7                        30.000

  24761989.773                   130125159.158 5                        40.800
                  24761998.129   101396200.977 5                        17.800

  24148047.359                   126898877.539 4                        38.700
                  24148053.188    98882293.776 6                        19.300

  20971381.000                   110205451.298 7                        48.300
                  20971385.508    85874479.651 8                        37.000

  22034343.672    22034341.895   117786762.807 7                        45.100
  22034350.160    22034350.414    91611628.453 8                        37.300

  19159537.586    19159535.680   102239361.238 8                        51.100
  19159541.277    19159540.379    79519417.716 9                        47.300

  21165648.117    21165647.230   113301855.505 7                        47.900
  21165654.027    21165654.355    88123441.801 9                        45.300

  24448218.148    24448217.234   130552087.529 2                        34.700
  24448223.691    24448223.199   101540566.294 6                        25.700

  23168107.820    23168106.918   123498913.739 6                        42.300
  23168115.293    23168116.063    96054860.187 8                        34.600

  23797269.219    23797267.684   127165613.837 4                        38.400
  23797275.684    23797275.895    98906444.155 6                        24.800

  20188301.258    20188300.652   107766559.697 8                        51.100
  20188306.262    20188306.816    83818441.793 9                        46.400

  23269809.703    23269808.012   124434093.121 5                        40.100
  23269815.465    23269815.730    96782087.516 8                        35.300

